~VERSION INFORMATION
 VERS.               2.00:   CWLS LOG ASCII STANDARD - VERSION 2.00
 WRAP.                 NO:   ONE LINE PER DEPTH STEP
~WELL INFORMATION
#MNEM.UNIT      DATA TYPE    INFORMATION
#----------   ------------   ------------------------------
 STRT.F            0.0000:   START DEPTH
 STOP.F         5649.5000:   STOP DEPTH
 STEP.F            0.5000:   STEP LENGTH
 NULL.          -999.2500:   NO VALUE
 COMP.    FENIX & SCISSON:   COMPANY
 WELL.    FENIX WX #17-21:   WELL
 FLD .        TEAPOT DOME:   FIELD
 LOC .      S21 T39N R78W:   LOCATION
 STAT.            WYOMING:   STATE
 COUN.            NATRONA:   COUNTY
 SRVC.       SCHLUMBERGER:   SERVICE COMPANY
 DATE.        03-SEP-1978:   LOGDATE
 APIN.     49025107090000:   API NUMBER
~CURVE INFORMATION
#MNEM.UNIT       API CODE    CURVE DESCRIPTION
#----------   ------------   ------------------------------
 DEPT.F                  :
 GRD .GAPI   45 310 01 00:   GAMMA RAY
 NPHI.DEC    42 890 03 00:   NEUTRON POROSITY SANDSTONE
 CALD.IN     45 280 60 00:   CALIPER FROM DENSITY LOG
 RHOB.G/C3   45 350 01 00:   BULK DENSITY
 DRHO.G/C3   45 356 01 00:   DENSITY CORRECTION
 SPR .MV     07 010 01 00:   SPONTANEOUS POTENTIAL
 SFL .OHMM   07 220 01 00:   SHALLOW FOCUSED LOG RESISTIVITY
 ILM .OHMM   07 120 44 00:   INDUCTION LOG MEDIUM RESISTIVITY
 ILD .OHMM   07 120 46 00:   DEEP INDUCTION RESISTIVITY
 TENR.LBS    07 635 01 00:   TENSION FROM RESISTIVITY
 DT  .US/F   60 520 00 00:   DELTA TIME
~PARAMETER INFORMATION
#MNEM.UNIT          VALUE    DESCRIPTION
#----------   ------------   ------------------------------
 EKB .F         5001.0000:   KELLY BUSHING
 EGL .F            0.0000:   GROUND LEVEL
 EDF .F            0.0000:   DRILLING FLOOR
 EPD .F            0.0000:   PERMANENT DATUM
 TD  .F         5655.0000:   TOTAL DEPTH
 DATE.        03-SEP-1978:   DATE LOGGED
 CLNT.            A2DTECH:   CLIENT CODE
 SL  . 750' FSL & 490' FWL:   SURFACE LOCATION
 PD  .                 GL:   PERMANENT DATUM
 EPD .F              4997:   ELEVATION PERMANENT DATUM
 LMF .                 KB:   LOG MEASURED FROM
 DMF .                 KB:   DRILLING MEASURED FROM
 DAPD.F                10:   FEET ABOVE PERMANENT DATUM
 EGL .F              4997:   ELEVATION GROUND LEVEL
 DD  .F              5655:   DEPTH DRILLER
 DL  .F              5642:   DEPTH LOGGER
 BLI .F              5636:   BOTTOM LOG INTERVAL
 TLI .F               502:   TOP LOG INTERVAL
 CS1 .IN            9.625:   CASING SIZE
 CBD1.      9.625" @ 501':   CASING DRILLER 1
 CBL1.F               502:   CASING LOGGER 1
 BS1 .IN             8.75:   BIT SIZE
 BSD1.F              5655:   DEPTH DRILLED WITH BIT1
 DFT .                FGM:   TYPE FLUID IN HOLE
 DFD .                9.4:   DENSITY
 DFV .                 63:   VISCOSITY
 DFPH.                 12:   PH
 DFL .                  8:   FLUID LOSS
 MSS .            MUD PIT:   SOURCE OF SAMPLE
 RMS .OHMM            .78:   RM
 MST .F                88:   RM MEAS. TEMP.
 RMF .OHMM            .63:   RMF
 MFST.F                88:   RMF MEAS. TEMP.
 MFSS.               MEAS:   SOURCE RMF.
 RMB .OHMM            .43:   RM. AT BHT
 BHT .F               160:   BHT.
 TCS .HRS            1000:   TIME CIRC. STOPPED
 TLAB.HRS            1530:   TIME LOGGER AT BOTTOM
 MRT .F               160:   MAXIMUM RECORDED TEMP.
 LUN .               8043:   LOGGING UNIT NUMBER
 LUL .               CSPR:   LOGGING UNIT LOCATION
 ENGI.             LARSON:   RECORDED BY
 WITN.           MCGINLEY:   WITNESSED BY
 ORIG.      2.5" 5" PRINT:   ORIGIN OF DATA
 UWI .     49025107090000:   UNIQUE WELL ID
 DICO. A2D TECHNOLOGIES, INC.:   DIGITIZING COMPANY
~A  DEPTH      GRD       NPHI       CALD       RHOB       DRHO        SPR        SFL        ILM        ILD       TENR         DT
# ...
  823.5000    94.3004     0.2765    10.9806     2.4980    -0.0008   -26.3900    10.3313     9.3836     8.3362   394.2031    88.6764
  824.0000    96.6608     0.2726    10.9805     2.5040     0.0364   -26.5743    10.3527     9.3000     8.3349   393.8271    88.6774
  824.5000    97.2519     0.2710    10.9802     2.5462     0.0384   -26.5695    10.3701     9.3023     8.3337   393.6767    88.8759
  825.0000    96.6650     0.2718    10.9801     2.5451     0.0415   -26.5648    10.3723     9.3039     8.3325   392.9999    88.9757
  825.5000    95.4888     0.2686    10.9798     2.5271     0.0395   -26.7499    10.3741     9.2772     8.3313   392.6239    89.0753
  826.0000    91.9544     0.2670    10.9797     2.5130     0.0284   -26.5581    10.3759     9.2505     8.3301   392.2479    89.1751
  826.5000    91.3678     0.2647    10.9795     2.5110     0.0294   -26.6416    10.3770     9.2240     8.3289   411.5367    89.2749
  827.0000    91.3697     0.2639    11.0193     2.5090     0.0274   -26.7250    10.3288     9.1975     8.3277   411.0855    89.3745
  827.5000    91.3724     0.2623    11.0190     2.5110     0.0294   -26.8084    10.2810     9.1711     8.3265   391.2703    89.4745
  828.0000    91.3742     0.2560    10.9789     2.5150     0.0274   -26.9132    10.2333     9.1448     8.3253   390.6687    89.5739
  828.5000    91.9662     0.2560    10.9786     2.5150     0.0214   -27.1001    10.1859     9.1186     8.3240   390.2927    89.6739
  829.0000    93.1464     0.2544    10.9785     2.5130     0.0154   -27.0944    10.1386     9.0924     8.3228   409.6567    90.0702
  829.5000    93.1491     0.2584    10.9782     2.5171     0.0114   -27.0916    10.0916     9.0663     8.3216   409.1303    89.8735
  830.0000    92.5617     0.2679    10.9782     2.5311     0.0144   -27.1766    10.0224     9.0403     8.3204   408.7543    89.6770
  830.5000    94.9210     0.2806    11.0178     2.5311     0.0234   -27.2617    10.0227     9.0144     8.3192   428.1184    89.6778
  831.0000    95.5118     0.2782    10.9777     2.5251     0.0295   -27.3467     9.9344     8.9925     8.3180   413.3533    89.7776
  831.5000    96.1035     0.2767    10.9774     2.5251     0.0295   -27.4482     9.8466     8.9129     8.3168   407.5511    89.8774
  832.0000    94.9270     0.2711    10.9773     2.5311     0.0224   -27.4444     9.6705     8.8344     8.3156   407.1751    89.8785
  832.5000    95.5187     0.2663    10.9770     2.5351     0.0224   -27.6304     9.6635     8.8357     8.3144   406.7594    89.6820
  833.0000    96.6984     0.2656    11.0169     2.5351     0.0224   -27.4711     9.6566     8.8373     8.3132   406.4231    89.6828
  833.5000    98.4679     0.2783    10.9766     2.5291     0.0214   -27.3118     9.6496     8.8390     8.3120   405.9719    89.9801
  834.0000    99.6475     0.2878    10.9764     2.5150     0.0154   -27.1525     9.6427     8.8406     8.3108   405.5959    90.0799
  834.5000   100.2388     0.2862    10.9762     2.5130     0.0054   -26.9932     9.6357     8.8423     8.3095   405.2199    90.1797
  835.0000    99.6514     0.2767    10.9760     2.5110    -0.0007   -26.8458     9.6288     8.8440     8.3083   424.5088    90.1807
  835.5000    99.0649     0.2727    10.9759     2.5090     0.0014   -26.6513     9.6218     8.8456     8.3071   404.7687    90.1816
  836.0000    97.8895     0.2664    11.0156     2.5090     0.0054   -26.6466     9.6149     8.8473     8.3059   404.0167    90.2814
  836.5000    98.4800     0.2728    11.0154     2.5090     0.0114   -26.8315     9.6080     8.8485     8.3053   403.6407    90.2824
  837.0000   100.2490     0.2752    11.0152     2.5130     0.0114   -27.0155     9.6019     8.6915     8.2316   403.2242    90.2834
  837.5000   100.8393     0.2744    11.0550     2.5171     0.0114   -27.0108     9.6036     8.6930     8.2085   442.0680    90.2842
  838.0000    96.7200     0.2728    11.0548     2.5251     0.0114   -27.1957     9.3481     8.6939     8.1854   441.7672    90.2853
  838.5000    96.1329     0.2744    11.0147     2.5271     0.0074   -27.0013     9.3497     8.6951     8.1625   402.3623    90.2863
  839.0000    97.3130     0.2760    11.0144     2.5351     0.0084   -26.4248     9.3510     8.6917     8.1396   401.6855    90.1886
  839.5000    98.4921     0.2792    11.0143     2.5432     0.0104   -26.6116     9.2680     8.6884     8.1167   401.3095    89.7945
  840.0000    99.6719     0.2800    10.9740     2.5492     0.0185   -27.1757     9.2906     8.6850     8.0940   400.8583    89.5978
  840.5000    99.0848     0.2768    10.9739     2.5472     0.0245   -27.1710     9.3133     8.6816     8.0713   380.8174    89.7964
  841.0000    99.0872     0.2752    10.9736     2.5391     0.0245   -27.1662     9.3360     8.6782     8.0486   400.1063    90.1925
  841.5000    99.6774     0.2712    10.9735     2.5351     0.0245   -27.1595     9.3588     8.6749     8.0260   399.8807    90.6873
  842.0000   102.0342     0.2681    10.9732     2.5271     0.0266   -26.7766     9.3816     8.6715     8.0035   458.2737    90.9847
  842.5000   102.0357     0.2784    10.9731     2.5151     0.0225   -26.6811     9.4045     8.6681     7.9811   457.8977    90.7880
  843.0000   101.4493     0.2784    10.9728     2.5090     0.0185   -26.5766     9.4274     8.6648     7.9587   398.7527    90.3939
  843.5000   101.4509     0.2729    11.0127     2.5070     0.0145   -26.5728     9.4521     8.6614     7.9364   398.1032    89.9999
  844.0000    99.6876     0.2617    11.0124     2.5130     0.0145   -26.5719     9.4531     8.6580     7.9141   397.6999    89.9022
  844.5000    99.1007     0.2594    11.0123     2.5211     0.0145   -26.8300     9.4547     8.6547     7.8919   397.5495    90.0020
  845.0000    97.9262     0.2594    11.0120     2.5291     0.0155   -27.1253     9.4567     8.6513     7.8697   396.8727    90.2991
  845.5000    97.9278     0.2602    10.9719     2.5432     0.0357   -27.3111     9.4580     8.6479     7.8477   396.7975    90.6952
  846.0000    99.6955     0.2594    10.9716     2.5412     0.0477   -27.1168     9.4292     8.6446     7.8257   401.2306    91.3876
  846.5000   100.2863     0.2626    10.9715     2.5271     0.0518   -26.1644     9.4005     8.6427     7.8037   405.6636    91.4874
  847.0000   100.8762     0.2697    10.9712     2.5171     0.0538   -25.9693     9.3719     8.6439     7.7818   410.0967    91.4882
  847.5000   100.8786     0.2872    10.9712     2.5090     0.0337   -25.9627     9.3434     8.6454     7.7600   414.5298    91.2917
  848.0000   103.2334     0.2777    10.9308     2.5090     0.0246   -25.9608     9.3149     8.6469     7.7382   418.9628    90.9964
  848.5000   103.8239     0.2753    10.9307     2.5090     0.0146   -25.9552     9.2865     8.6045     7.7165   423.3959    90.5036
  849.0000   103.8254     0.2753    10.9304     2.5050     0.0118   -25.9505     9.2583     8.5623     7.6903   427.8290    90.5047
  849.5000   103.2393     0.2777    10.9302     2.5070     0.0106   -25.9448     9.2301     8.5203     7.6914   432.6680    90.8018
  850.0000   103.8290     0.2634    10.8501     2.5211     0.0106   -25.9401     9.2020     8.4785     7.6231   432.3672    91.1979
  850.5000   103.8312     0.2614    10.8498     2.5291     0.0206   -26.1064     9.1740     8.4369     7.4644   431.9176    91.4672
  851.0000   103.8263     0.2619    10.8496     2.5331     0.0297   -26.1122     9.1539     8.4006     7.0965   428.8468    91.7868
  851.5000   103.8241     0.2619    10.8494     2.5392     0.0297   -26.2929     9.1481     8.3645     7.0976   425.7759    91.9825
  852.0000   103.8227     0.2651    10.8492     2.5512     0.0317   -26.4719     9.0691     8.3286     7.0745   422.7051    92.2769
  852.5000   103.8205     0.2778    10.8490     2.5612     0.0357   -26.8421     9.0726     8.2928     7.0516   419.6342    92.3737
  853.0000   101.4655     0.2906    10.8488     2.5612     0.0378   -26.6440     8.9943     8.2571     7.0287   416.5634    92.4706
  853.5000   100.2865     0.3001    10.8986     2.5512     0.0418   -26.6352     8.9836     8.2216     7.0059   413.4926    92.4691
