~VERSION INFORMATION
 VERS.               2.00:   CWLS LOG ASCII STANDARD - VERSION 2.00
 WRAP.                 NO:   ONE LINE PER DEPTH STEP
~WELL INFORMATION
#MNEM.UNIT      DATA TYPE    INFORMATION
#----------   ------------   ------------------------------
 STRT.F            0.0000:   START DEPTH
 STOP.F         5649.5000:   STOP DEPTH
 STEP.F            0.5000:   STEP LENGTH
 NULL.          -999.2500:   NO VALUE
 COMP.    FENIX & SCISSON:   COMPANY
 WELL.    FENIX WX #17-21:   WELL
 FLD .        TEAPOT DOME:   FIELD
 LOC .      S21 T39N R78W:   LOCATION
 STAT.            WYOMING:   STATE
 COUN.            NATRONA:   COUNTY
 SRVC.       SCHLUMBERGER:   SERVICE COMPANY
 DATE.        03-SEP-1978:   LOGDATE
 APIN.     49025107090000:   API NUMBER
~CURVE INFORMATION
#MNEM.UNIT       API CODE    CURVE DESCRIPTION
#----------   ------------   ------------------------------
 DEPT.F                  :
 GRD .GAPI   45 310 01 00:   GAMMA RAY
 NPHI.DEC    42 890 03 00:   NEUTRON POROSITY SANDSTONE
 CALD.IN     45 280 60 00:   CALIPER FROM DENSITY LOG
 RHOB.G/C3   45 350 01 00:   BULK DENSITY
 DRHO.G/C3   45 356 01 00:   DENSITY CORRECTION
 SPR .MV     07 010 01 00:   SPONTANEOUS POTENTIAL
 SFL .OHMM   07 220 01 00:   SHALLOW FOCUSED LOG RESISTIVITY
 ILM .OHMM   07 120 44 00:   INDUCTION LOG MEDIUM RESISTIVITY
 ILD .OHMM   07 120 46 00:   DEEP INDUCTION RESISTIVITY
 TENR.LBS    07 635 01 00:   TENSION FROM RESISTIVITY
 DT  .US/F   60 520 00 00:   DELTA TIME
~PARAMETER INFORMATION
#MNEM.UNIT          VALUE    DESCRIPTION
#----------   ------------   ------------------------------
 EKB .F         5001.0000:   KELLY BUSHING
 EGL .F            0.0000:   GROUND LEVEL
 EDF .F            0.0000:   DRILLING FLOOR
 EPD .F            0.0000:   PERMANENT DATUM
 TD  .F         5655.0000:   TOTAL DEPTH
 DATE.        03-SEP-1978:   DATE LOGGED
 CLNT.            A2DTECH:   CLIENT CODE
 SL  . 750' FSL & 490' FWL:   SURFACE LOCATION
 PD  .                 GL:   PERMANENT DATUM
 EPD .F              4997:   ELEVATION PERMANENT DATUM
 LMF .                 KB:   LOG MEASURED FROM
 DMF .                 KB:   DRILLING MEASURED FROM
 DAPD.F                10:   FEET ABOVE PERMANENT DATUM
 EGL .F              4997:   ELEVATION GROUND LEVEL
 DD  .F              5655:   DEPTH DRILLER
 DL  .F              5642:   DEPTH LOGGER
 BLI .F              5636:   BOTTOM LOG INTERVAL
 TLI .F               502:   TOP LOG INTERVAL
 CS1 .IN            9.625:   CASING SIZE
 CBD1.      9.625" @ 501':   CASING DRILLER 1
 CBL1.F               502:   CASING LOGGER 1
 BS1 .IN             8.75:   BIT SIZE
 BSD1.F              5655:   DEPTH DRILLED WITH BIT1
 DFT .                FGM:   TYPE FLUID IN HOLE
 DFD .                9.4:   DENSITY
 DFV .                 63:   VISCOSITY
 DFPH.                 12:   PH
 DFL .                  8:   FLUID LOSS
 MSS .            MUD PIT:   SOURCE OF SAMPLE
 RMS .OHMM            .78:   RM
 MST .F                88:   RM MEAS. TEMP.
 RMF .OHMM            .63:   RMF
 MFST.F                88:   RMF MEAS. TEMP.
 MFSS.               MEAS:   SOURCE RMF.
 RMB .OHMM            .43:   RM. AT BHT
 BHT .F               160:   BHT.
 TCS .HRS            1000:   TIME CIRC. STOPPED
 TLAB.HRS            1530:   TIME LOGGER AT BOTTOM
 MRT .F               160:   MAXIMUM RECORDED TEMP.
 LUN .               8043:   LOGGING UNIT NUMBER
 LUL .               CSPR:   LOGGING UNIT LOCATION
 ENGI.             LARSON:   RECORDED BY
 WITN.           MCGINLEY:   WITNESSED BY
 ORIG.      2.5" 5" PRINT:   ORIGIN OF DATA
 UWI .     49025107090000:   UNIQUE WELL ID
 DICO. A2D TECHNOLOGIES, INC.:   DIGITIZING COMPANY
~A  DEPTH      GRD       NPHI       CALD       RHOB       DRHO        SPR        SFL        ILM        ILD       TENR         DT
# ...
 3233.0000   154.1394     0.3642     9.7337     2.4355     0.0040   -30.1295     3.9473     3.9243     3.5405  1161.1024    93.7419
 3233.5000   155.3219     0.3511     9.7333     2.4375     0.0035   -29.9400     3.9117     3.9117     3.5405  1141.4174    93.4477
 3234.0000   158.8694     0.3379     9.6929     2.4667     0.0176   -29.9412     4.0196     3.8764     3.5405  1161.1024    93.1534
 3234.5000   159.4604     0.3247     9.6928     2.4687     0.0215   -29.7516     4.0931     3.8764     3.5405  1161.1024    92.6620
 3235.0000   155.3212     0.3115     9.6922     2.4667     0.0217   -29.9436     4.0562     3.8473     3.5405  1141.4174    92.1705
 3235.5000   152.3649     0.2979     9.6917     2.4647     0.0156   -29.9451     4.0196     3.8184     3.5405  1152.8760    92.1724
 3236.0000   150.0000     0.3121     9.6514     2.4849    -0.0025   -30.1371     3.9833     3.7897     3.5405  1180.7874    92.1740
 3236.5000   149.2776     0.3212     9.6509     2.5090    -0.0066   -29.9475     4.1304     3.7612     3.5085  1121.7323    89.8089
 3237.0000   149.8642     0.3212     9.6506     2.5595    -0.0032   -29.7578     4.2829     3.7046     3.4455  1141.4174    85.8659
 3237.5000   144.8281     0.3143     9.6500     2.5998     0.0121   -29.5682     4.4010     3.6381     3.3530  1141.4174    83.3038
 3238.0000   144.8236     0.3060     9.6496     2.6089     0.0504   -28.9972     4.2443     3.5085     3.2928  1141.4174    83.9956
 3238.5000   146.5902     0.3076     9.6493     2.5665     0.0423   -28.9982     3.9833     3.4222     3.2336  1141.4174    89.2237
 3239.0000   149.8410     0.3169     9.6488     2.4617     0.0202   -28.9993     3.7724     3.3381     3.1185  1141.4174    91.4934
 3239.5000   149.2431     0.3261     9.6485     2.4516     0.0101   -29.1276     3.5085     3.2560     3.0074  1141.4174    94.6508
 3240.0000   155.3192     0.3353     9.6082     2.4536     0.0060   -29.2558     3.3422     3.1759     2.9534  1141.4174    96.0331
 3240.5000   157.0921     0.3445     9.6077     2.4536     0.0101   -29.3840     3.1469     3.0903     2.9003  1141.4174    96.7251
 3241.0000   166.3142     0.3469     9.6472     2.4496     0.0040   -29.5122     3.2336     2.9803     2.8742  1141.4174    97.4171
 3241.5000   172.4563     0.3505     9.6469     2.4415    -0.0004   -29.6405     3.2631     2.9534     2.7970  1161.1024    97.6163
 3242.0000   171.8650     0.3533     9.6464     2.4335    -0.0040   -29.7707     3.2045     2.9336     2.7718  1161.1024    97.4207
 3242.5000   167.4057     0.3534     9.6461     2.4284    -0.0020   -29.9629     3.1469     2.9140     2.7718  1161.1024    97.4223
 3243.0000   162.9465     0.3505     9.6458     2.4203    -0.0020   -29.9631     3.0348     2.9003     2.7718  1161.1024    97.6212
 3243.5000   158.4872     0.3478     9.6452     2.4163    -0.0020   -29.8919     3.0074     2.8482     2.7970  1161.1024    97.7215
 3244.0000   155.9084     0.3486     9.6448     2.4224     0.0060   -29.8206     3.0348     2.7970     2.7468  1161.1024    97.1313
 3244.5000   161.1648     0.3518     9.6445     2.4244     0.0081   -29.7768     3.1662     2.6974     2.5779  1141.4174    95.7525
 3245.0000   166.4213     0.3518     9.6440     2.4163     0.0101   -29.7777     3.3032     2.5779     2.4414  1153.3372    94.3732
 3245.5000   171.6777     0.3369     9.6437     2.4062     0.0040   -29.7794     3.4462     2.5546     2.3332  1161.1024    93.3885
 3246.0000   176.9342     0.3191     9.6432     2.4002     0.0040   -30.1774     3.5085     2.4186     2.2298  1161.1024    91.1215
 3246.5000   182.4893     0.3199     9.6697     2.3961     0.0242   -30.5754     2.7899     2.2899     2.0739  1161.1024    91.1231
 3247.0000   184.2603     0.3374     9.6424     2.3800     0.0323   -31.1210     2.2185     2.1504     2.0000  1141.4174    93.3936
 3247.5000   184.8500     0.3549     9.6821     2.3639     0.0343   -31.1218     1.5944     2.1504     1.9820  1161.1024    96.7489
 3248.0000   179.5325     0.3671     9.7216     2.3820     0.0198   -31.1228     1.5944     2.1700     2.0182  1161.1024    97.3423
 3248.5000   168.9002     0.3640     9.7213     2.4163     0.0121   -30.7558     2.0409     2.2887     2.1118  1161.1024    96.0617
 3249.0000   162.4027     0.3584     9.7210     2.4425     0.0282   -30.3889     2.6125     2.4139     2.1898  1161.1024    94.2877
 3249.5000   142.9198     0.3472     9.7205     2.4445     0.0222   -29.9807     3.6053     2.4861     2.2913  1161.1024    91.4290
 3250.0000   137.0078     0.3424     9.6001     2.4415    -0.0081   -29.7908     3.9117     2.4861     2.3332  1161.1024    90.5428
 3250.5000   144.0941     0.3288     9.5996     2.4355    -0.0081   -29.7922     3.0902     2.4737     2.3132  1144.2731    92.2213
 3251.0000   148.2281     0.3296     9.6007     2.4254     0.0282   -29.7935     2.9266     2.4635     2.3121  1143.1757    97.1552
 3251.5000   151.7348     0.3657     9.6011     2.3548     0.0484   -29.7952     2.3329     2.5086     2.3758  1142.0781   103.6676
 3252.0000   151.7256     0.4019     9.6415     2.2581     0.0524   -29.9870     1.9998     2.6011     2.4634  1142.1305   106.3329
 3252.5000   141.7292     0.4312     9.6819     2.1935     0.0242   -29.7972     1.9998     2.6248     2.5543  1142.2014   109.2941
 3253.0000   139.9561     0.4024     9.6825     2.1935    -0.0091   -29.7984     2.5029     2.7757     2.6486  1142.5559   107.2242
 3253.5000   139.9552     0.3737     9.6027     2.2157    -0.0181   -29.7996     3.3221     2.9353     2.7463  1142.6978   103.9708
 3254.0000   142.3182     0.3449     9.5230     2.4103    -0.0060   -29.8011     3.6044     3.0897     2.8476  1142.8395    95.7842
 3254.5000   145.2723     0.3121     9.4871     2.4244    -0.0040   -29.8023     3.8405     3.2037     2.9527  1143.0167    92.7275
 3255.0000   149.7090     0.3089     9.4840     2.4244    -0.0060   -29.8035     4.0184     3.2919     3.0616  1143.2115    92.3345
 3255.5000   149.7089     0.3008     9.4843     2.4244    -0.0060   -29.9958     4.2046     3.3407     3.0688  1143.4065    92.2377
 3256.0000   149.7089     0.3008     9.4848     2.4264    -0.0060   -29.9973     4.1289     3.3902     3.0760  1143.6014    92.1406
 3256.5000   149.7089     0.2944     9.5651     2.4244    -0.0060   -29.9985     3.9459     3.4442     3.0832  1143.7963    92.4382
 3257.0000   152.7880     0.3121     9.5656     2.4284     0.0000   -29.9997     3.8749     3.4442     3.0904  1143.9912    93.0317
 3257.5000   156.9177     0.3210     9.5659     2.4375     0.0040   -30.1919     3.8747     3.4441     3.0976  1144.1862    93.7239
 3258.0000   157.5001     0.3299     9.5664     2.4465     0.0161   -30.1939     3.9455     3.4531     3.1049  1144.4344    94.1202
 3258.5000   152.7558     0.3388     9.5667     2.4879     0.0262   -30.3856     3.8745     3.4621     3.1121  1164.1519    94.4181
 3259.0000   149.1173     0.3505     9.5672     2.4798     0.0403   -30.5779     3.8395     3.4751     3.1170  1164.4000    94.7157
 3259.5000   149.1171     0.3513     9.5675     2.4758     0.0302   -30.5783     3.6692     3.4750     3.1169  1164.6121    95.1120
 3260.0000   146.1597     0.3376     9.5680     2.4536     0.0141   -29.9652     3.8046     3.4750     3.1168  1164.7891    94.6203
 3260.5000   139.6526     0.3240     9.5283     2.4516     0.0081   -29.2450     3.8391     3.3741     3.0607  1164.8245    93.9312
 3261.0000   136.1026     0.3103     9.5288     2.4496     0.0020   -29.2460     3.9461     3.2761     3.0330  1165.1431    93.2424
 3261.5000   134.9180     0.3018     9.5291     2.4496    -0.0020   -29.2465     4.0560     3.1810     2.9785  1165.3555    91.8252
 3262.0000   136.6920     0.3018     9.5296     2.4315    -0.0020   -29.5737     4.1650     3.0887     2.8723  1165.5325    95.2190
 3262.5000   139.0576     0.3262     9.4899     2.4153     0.0242   -29.9010     3.4120     2.9990     2.7450  1165.7095    98.3783
 3263.0000   140.5314     0.3506     9.4905     2.3851     0.0242   -30.2282     2.9514     2.8722     2.6713  1165.8865   100.1561
