~VERSION INFORMATION
 VERS.               2.00:   CWLS LOG ASCII STANDARD - VERSION 2.00
 WRAP.                 NO:   ONE LINE PER DEPTH STEP
~WELL INFORMATION
#MNEM.UNIT      DATA TYPE    INFORMATION
#----------   ------------   ------------------------------
 STRT.F            0.0000:   START DEPTH
 STOP.F         5649.5000:   STOP DEPTH
 STEP.F            0.5000:   STEP LENGTH
 NULL.          -999.2500:   NO VALUE
 COMP.    FENIX & SCISSON:   COMPANY
 WELL.    FENIX WX #17-21:   WELL
 FLD .        TEAPOT DOME:   FIELD
 LOC .      S21 T39N R78W:   LOCATION
 STAT.            WYOMING:   STATE
 COUN.            NATRONA:   COUNTY
 SRVC.       SCHLUMBERGER:   SERVICE COMPANY
 DATE.        03-SEP-1978:   LOGDATE
 APIN.     49025107090000:   API NUMBER
~CURVE INFORMATION
#MNEM.UNIT       API CODE    CURVE DESCRIPTION
#----------   ------------   ------------------------------
 DEPT.F                  :
 GRD .GAPI   45 310 01 00:   GAMMA RAY
 NPHI.DEC    42 890 03 00:   NEUTRON POROSITY SANDSTONE
 CALD.IN     45 280 60 00:   CALIPER FROM DENSITY LOG
 RHOB.G/C3   45 350 01 00:   BULK DENSITY
 DRHO.G/C3   45 356 01 00:   DENSITY CORRECTION
 SPR .MV     07 010 01 00:   SPONTANEOUS POTENTIAL
 SFL .OHMM   07 220 01 00:   SHALLOW FOCUSED LOG RESISTIVITY
 ILM .OHMM   07 120 44 00:   INDUCTION LOG MEDIUM RESISTIVITY
 ILD .OHMM   07 120 46 00:   DEEP INDUCTION RESISTIVITY
 TENR.LBS    07 635 01 00:   TENSION FROM RESISTIVITY
 DT  .US/F   60 520 00 00:   DELTA TIME
~PARAMETER INFORMATION
#MNEM.UNIT          VALUE    DESCRIPTION
#----------   ------------   ------------------------------
 EKB .F         5001.0000:   KELLY BUSHING
 EGL .F            0.0000:   GROUND LEVEL
 EDF .F            0.0000:   DRILLING FLOOR
 EPD .F            0.0000:   PERMANENT DATUM
 TD  .F         5655.0000:   TOTAL DEPTH
 DATE.        03-SEP-1978:   DATE LOGGED
 CLNT.            A2DTECH:   CLIENT CODE
 SL  . 750' FSL & 490' FWL:   SURFACE LOCATION
 PD  .                 GL:   PERMANENT DATUM
 EPD .F              4997:   ELEVATION PERMANENT DATUM
 LMF .                 KB:   LOG MEASURED FROM
 DMF .                 KB:   DRILLING MEASURED FROM
 DAPD.F                10:   FEET ABOVE PERMANENT DATUM
 EGL .F              4997:   ELEVATION GROUND LEVEL
 DD  .F              5655:   DEPTH DRILLER
 DL  .F              5642:   DEPTH LOGGER
 BLI .F              5636:   BOTTOM LOG INTERVAL
 TLI .F               502:   TOP LOG INTERVAL
 CS1 .IN            9.625:   CASING SIZE
 CBD1.      9.625" @ 501':   CASING DRILLER 1
 CBL1.F               502:   CASING LOGGER 1
 BS1 .IN             8.75:   BIT SIZE
 BSD1.F              5655:   DEPTH DRILLED WITH BIT1
 DFT .                FGM:   TYPE FLUID IN HOLE
 DFD .                9.4:   DENSITY
 DFV .                 63:   VISCOSITY
 DFPH.                 12:   PH
 DFL .                  8:   FLUID LOSS
 MSS .            MUD PIT:   SOURCE OF SAMPLE
 RMS .OHMM            .78:   RM
 MST .F                88:   RM MEAS. TEMP.
 RMF .OHMM            .63:   RMF
 MFST.F                88:   RMF MEAS. TEMP.
 MFSS.               MEAS:   SOURCE RMF.
 RMB .OHMM            .43:   RM. AT BHT
 BHT .F               160:   BHT.
 TCS .HRS            1000:   TIME CIRC. STOPPED
 TLAB.HRS            1530:   TIME LOGGER AT BOTTOM
 MRT .F               160:   MAXIMUM RECORDED TEMP.
 LUN .               8043:   LOGGING UNIT NUMBER
 LUL .               CSPR:   LOGGING UNIT LOCATION
 ENGI.             LARSON:   RECORDED BY
 WITN.           MCGINLEY:   WITNESSED BY
 ORIG.      2.5" 5" PRINT:   ORIGIN OF DATA
 UWI .     49025107090000:   UNIQUE WELL ID
 DICO. A2D TECHNOLOGIES, INC.:   DIGITIZING COMPANY
~A  DEPTH      GRD       NPHI       CALD       RHOB       DRHO        SPR        SFL        ILM        ILD       TENR         DT
# ...
 1525.0000   121.0624     0.3139     9.3936     2.5656     0.0248   -25.5901     6.7505     6.1858     5.6067   600.2716    94.4033
 1525.5000   119.2902     0.3204     9.3526     2.5474     0.0166   -25.7827     6.7490     6.1717     5.5817   600.4564    94.5008
 1526.0000   117.5180     0.3287     9.3518     2.5494     0.0125   -26.0313     6.6859     6.1576     5.5567   602.3041    94.4999
 1526.5000   115.7458     0.3295     9.3184     2.5383     0.0125   -26.2799     6.6844     6.1435     5.5244   603.2278    94.4005
 1527.0000   114.5669     0.3263     9.3101     2.5695     0.0185   -26.5285     6.7122     6.1295     5.5235   603.4126    94.0060
 1527.5000   116.1857     0.3199     9.3090     2.5674     0.0205   -26.7771     6.7401     6.1155     5.4219   605.1785    94.1034
 1528.0000   117.8044     0.3103     9.2683     2.5472     0.0204   -26.7792     6.7681     6.0989     5.4210   605.9992    94.2007
 1528.5000   119.4231     0.3095     9.2672     2.5411     0.0163   -26.7821     6.7962     6.0976     5.4202   606.7380    94.1993
 1529.0000   120.1819     0.3103     9.2669     2.5370     0.0143   -26.7918     6.8244     6.0960     5.4102   608.0198    94.4940
 1529.5000   120.1819     0.3110     9.2255     2.5370     0.0162   -26.8056     6.8528     6.0816     5.4002   608.9544    94.6898
 1530.0000   119.0008     0.3110     9.3045     2.5531     0.0162   -26.8100     6.8812     6.0672     5.3903   609.8778    94.6889
 1530.5000   118.4102     0.3094     9.2236     2.5591     0.0161   -27.0084     6.9147     6.0528     5.3803   610.9858    94.4909
 1531.0000   117.8197     0.3102     9.1826     2.5631     0.0181   -27.0099     6.9131     6.0385     5.3704   611.9090    93.9980
 1531.5000   117.8197     0.3134     9.1819     2.5631     0.0160   -26.8150     6.9116     6.0243     5.3618   612.4630    93.5050
 1532.0000   114.8669     0.3182     9.1808     2.5671     0.0139   -26.6202     6.9109     6.0100     5.3604   613.8926    93.2089
 1532.5000   113.6858     0.3197     9.1801     2.5872     0.0240   -26.4660     6.8789     5.9958     5.4080   614.8632    92.9127
 1533.0000   112.5047     0.3165     9.2189     2.5932     0.0280   -26.4704     6.8425     5.9816     5.4153   615.6020    93.0100
 1533.5000   112.5047     0.3205     9.2181     2.5992     0.0279   -26.6045     6.7793     5.9713     5.4225   616.7284    93.3043
 1534.0000   111.9142     0.3245     9.2170     2.5821     0.0259   -26.7387     6.7778     6.0243     5.4298   617.6326    93.4023
 1534.5000   111.9142     0.3388     9.2562     2.5406     0.0127   -26.8728     6.7757     6.0313     5.4371   618.5555    93.6960
 1535.0000   113.6858     0.3437     9.2317     2.5385     0.0146   -27.0069     6.7119     6.0384     5.4444   618.7400    93.7934
 1535.5000   115.4575     0.3596     9.2145     2.5324     0.0166   -27.0847     6.7104     6.0454     5.4477   620.5857    93.3987
 1536.0000   117.2291     0.3466     9.2137     2.5223     0.0206   -26.8981     6.7086     6.0524     5.4958   621.5084    93.0041
 1536.5000   115.4575     0.3337     9.2924     2.5243     0.0518   -26.7803     6.7071     6.0594     5.4949   622.2466    92.9048
 1537.0000   113.0953     0.3188     9.2913     2.5444     0.0760   -26.6625     6.7050     6.0665     5.4809   623.5382    92.8054
 1537.5000   112.5047     0.3172     9.3170     2.5444     0.0881   -26.5447     6.7030     6.0735     5.4669   624.4608    92.9029
 1538.0000   116.6386     0.3148     9.3692     2.5221     0.0880   -26.4269     6.7009     6.0806     5.4529   625.3837    93.4923
 1538.5000   117.8197     0.3044     9.3684     2.5160     0.0678   -26.3091     6.6987     6.0876     5.4384   626.3062    94.0816
 1539.0000   119.0008     0.2996     9.4072     2.5120     0.0294   -26.1913     6.6972     6.0947     5.4372   627.4130    94.5726
 1539.5000   119.5913     0.2988     9.4463     2.5160     0.0112   -26.0735     6.6951     6.1018     5.4361   627.7820    94.8669
 1540.0000   117.2291     0.3171     9.4456     2.5139     0.0141   -26.0073     6.5730     6.1124     5.4340   688.2880    94.0788
 1540.5000   116.0480     0.3355     9.4843     2.5159     0.0186   -26.2013     6.3940     6.1117     5.4326   669.5324    93.2906
 1541.0000   113.6858     0.3315     9.4832     2.5259     0.0181   -26.3985     6.3933     6.1107     5.4317   630.9177    92.7975
 1541.5000   113.0953     0.3251     9.5223     2.5521     0.0301   -26.5957     6.4497     6.1545     5.4968   632.1179    92.6987
 1542.0000   116.6386     0.3194     9.5607     2.5672     0.0583   -26.7929     6.5384     6.1986     5.5626   633.1308    92.5988
 1542.5000   117.8197     0.3170     9.5422     2.5944     0.0855   -26.9901     6.6283     6.2430     5.6292   633.8684    92.5978
 1543.0000   119.2913     0.3194     9.5236     2.5520     0.0834   -27.1873     6.7420     6.2877     5.6966   646.0148    92.4001
 1543.5000   118.7008     0.3202     9.5186     2.5318     0.0517   -27.3991     6.7409     6.3328     5.7781   675.4268    92.2021
 1544.0000   115.7480     0.3146     9.5175     2.5297     0.0177   -27.2139     6.8000     6.3781     5.8300   774.7082    92.2996
 1544.5000   115.7480     0.3042     9.5168     2.5357     0.0197   -27.1139     6.7993     6.4378     5.9887   716.0597    92.8890
 1545.0000   118.1978     0.3082     9.5157     2.5397     0.0197   -27.0390     6.8189     6.4368     5.9868   638.8469    93.2817
 1545.5000   120.6476     0.3161     9.5551     2.5356     0.0176   -27.2374     6.8386     6.4357     6.0400   639.9530    93.2807
 1546.0000   123.4252     0.3233     9.5536     2.5235     0.0135   -27.5899     6.9164     6.4337     6.0214   699.8840    92.7876
 1546.5000   123.4252     0.3177     9.5529     2.5214     0.0074   -28.0193     7.1058     6.4318     6.0030   681.1347    92.5899
 1547.0000   120.1284     0.3169     9.5518     2.5234     0.0019   -27.8312     7.2345     6.4298     5.9846   642.7177    92.6873
 1547.5000   115.7480     0.3089     9.5507     2.5274     0.0002   -27.3408     7.4301     6.4278     5.9662   657.9151    92.7848
 1548.0000   115.7480     0.3097     9.5101     2.5354     0.0002   -26.8503     7.1933     6.4259     5.9479   723.4148    92.7838
 1548.5000   118.4102     0.3136     9.5495     2.5354     0.0062   -26.3290     6.9640     6.4239     5.9297   645.6663    92.7829
 1549.0000   118.4102     0.3176     9.5481     2.5333     0.0102   -26.3334     6.8424     6.4221     5.8660   686.4725    92.6833
 1549.5000   118.4102     0.3120     9.4274     2.5313     0.0162   -26.4000     6.8409     6.3625     5.8651   686.8405    92.5840
 1550.0000   120.1819     0.3064     9.3872     2.5353     0.0171   -26.4666     6.8387     6.3618     5.8100   687.9447    92.3862
 1550.5000   120.1819     0.3064     9.4747     2.5296     0.0252   -26.5332     6.8367     6.3222     5.8200   688.9243    92.1885
 1551.0000   119.6011     0.3088     9.4663     2.5211     0.0171   -26.5482     6.8489     6.3591     5.8308   688.7011    92.0891
 1551.5000   119.0176     0.3120     9.4365     2.5170     0.0111   -26.5493     6.8611     6.3581     5.8415   649.7435    92.2848
 1552.0000   117.8411     0.3200     9.4265     2.5432     0.0069   -26.3635     6.8734     6.3577     5.8522   709.1102    92.2838
 1552.5000   117.8481     0.3240     9.3866     2.5512     0.0150   -26.3664     6.8856     6.3566     5.8630   650.5631    92.2829
 1553.0000   118.4457     0.3200     9.3866     2.5492     0.0186   -26.3670     6.8956     6.3559     5.8738   670.5999    91.9867
 1553.5000   119.0409     0.3177     9.3866     2.5431     0.0169   -26.6891     6.9573     6.3653     5.8846   670.9972    91.5922
 1554.0000   119.0478     0.3137     9.3866     2.5280     0.0108   -27.1415     7.0202     6.3749     5.8954   671.3446    91.0007
 1554.5000   118.4620     0.3089     9.3866     2.5451     0.0218   -27.1433     7.1656     6.3844     5.9062   671.7169    90.7045
 1555.0000   118.4690     0.3057     9.3866     2.5692     0.0279   -27.1445     7.3139     6.3939     5.9087   671.7914    90.5068
