~VERSION INFORMATION
 VERS.               2.00:   CWLS LOG ASCII STANDARD - VERSION 2.00
 WRAP.                 NO:   ONE LINE PER DEPTH STEP
~WELL INFORMATION
#MNEM.UNIT      DATA TYPE    INFORMATION
#----------   ------------   ------------------------------
 STRT.F            0.0000:   START DEPTH
 STOP.F         5649.5000:   STOP DEPTH
 STEP.F            0.5000:   STEP LENGTH
 NULL.          -999.2500:   NO VALUE
 COMP.    FENIX & SCISSON:   COMPANY
 WELL.    FENIX WX #17-21:   WELL
 FLD .        TEAPOT DOME:   FIELD
 LOC .      S21 T39N R78W:   LOCATION
 STAT.            WYOMING:   STATE
 COUN.            NATRONA:   COUNTY
 SRVC.       SCHLUMBERGER:   SERVICE COMPANY
 DATE.        03-SEP-1978:   LOGDATE
 APIN.     49025107090000:   API NUMBER
~CURVE INFORMATION
#MNEM.UNIT       API CODE    CURVE DESCRIPTION
#----------   ------------   ------------------------------
 DEPT.F                  :
 GRD .GAPI   45 310 01 00:   GAMMA RAY
 NPHI.DEC    42 890 03 00:   NEUTRON POROSITY SANDSTONE
 CALD.IN     45 280 60 00:   CALIPER FROM DENSITY LOG
 RHOB.G/C3   45 350 01 00:   BULK DENSITY
 DRHO.G/C3   45 356 01 00:   DENSITY CORRECTION
 SPR .MV     07 010 01 00:   SPONTANEOUS POTENTIAL
 SFL .OHMM   07 220 01 00:   SHALLOW FOCUSED LOG RESISTIVITY
 ILM .OHMM   07 120 44 00:   INDUCTION LOG MEDIUM RESISTIVITY
 ILD .OHMM   07 120 46 00:   DEEP INDUCTION RESISTIVITY
 TENR.LBS    07 635 01 00:   TENSION FROM RESISTIVITY
 DT  .US/F   60 520 00 00:   DELTA TIME
~PARAMETER INFORMATION
#MNEM.UNIT          VALUE    DESCRIPTION
#----------   ------------   ------------------------------
 EKB .F         5001.0000:   KELLY BUSHING
 EGL .F            0.0000:   GROUND LEVEL
 EDF .F            0.0000:   DRILLING FLOOR
 EPD .F            0.0000:   PERMANENT DATUM
 TD  .F         5655.0000:   TOTAL DEPTH
 DATE.        03-SEP-1978:   DATE LOGGED
 CLNT.            A2DTECH:   CLIENT CODE
 SL  . 750' FSL & 490' FWL:   SURFACE LOCATION
 PD  .                 GL:   PERMANENT DATUM
 EPD .F              4997:   ELEVATION PERMANENT DATUM
 LMF .                 KB:   LOG MEASURED FROM
 DMF .                 KB:   DRILLING MEASURED FROM
 DAPD.F                10:   FEET ABOVE PERMANENT DATUM
 EGL .F              4997:   ELEVATION GROUND LEVEL
 DD  .F              5655:   DEPTH DRILLER
 DL  .F              5642:   DEPTH LOGGER
 BLI .F              5636:   BOTTOM LOG INTERVAL
 TLI .F               502:   TOP LOG INTERVAL
 CS1 .IN            9.625:   CASING SIZE
 CBD1.      9.625" @ 501':   CASING DRILLER 1
 CBL1.F               502:   CASING LOGGER 1
 BS1 .IN             8.75:   BIT SIZE
 BSD1.F              5655:   DEPTH DRILLED WITH BIT1
 DFT .                FGM:   TYPE FLUID IN HOLE
 DFD .                9.4:   DENSITY
 DFV .                 63:   VISCOSITY
 DFPH.                 12:   PH
 DFL .                  8:   FLUID LOSS
 MSS .            MUD PIT:   SOURCE OF SAMPLE
 RMS .OHMM            .78:   RM
 MST .F                88:   RM MEAS. TEMP.
 RMF .OHMM            .63:   RMF
 MFST.F                88:   RMF MEAS. TEMP.
 MFSS.               MEAS:   SOURCE RMF.
 RMB .OHMM            .43:   RM. AT BHT
 BHT .F               160:   BHT.
 TCS .HRS            1000:   TIME CIRC. STOPPED
 TLAB.HRS            1530:   TIME LOGGER AT BOTTOM
 MRT .F               160:   MAXIMUM RECORDED TEMP.
 LUN .               8043:   LOGGING UNIT NUMBER
 LUL .               CSPR:   LOGGING UNIT LOCATION
 ENGI.             LARSON:   RECORDED BY
 WITN.           MCGINLEY:   WITNESSED BY
 ORIG.      2.5" 5" PRINT:   ORIGIN OF DATA
 UWI .     49025107090000:   UNIQUE WELL ID
 DICO. A2D TECHNOLOGIES, INC.:   DIGITIZING COMPANY
~A  DEPTH      GRD       NPHI       CALD       RHOB       DRHO        SPR        SFL        ILM        ILD       TENR         DT
# ...
 5276.5000   119.1570     0.1462     9.2340     2.6781     0.0117   -39.6816    48.8254    25.6493    44.3175  1585.2495    64.4264
 5277.0000   121.5215     0.1604     9.2341     2.6902     0.0157   -40.2587    45.1752    24.7316    41.2402  1585.4840    64.7217
 5277.5000   122.1097     0.1732     9.2342     2.6903     0.0198   -40.4526    41.7979    23.8467    38.3766  1585.7184    64.8198
 5278.0000   123.8813     0.1756     9.2344     2.6601     0.0218   -40.6466    39.2566    22.5795    35.7118  1585.9529    65.0165
 5278.5000   123.8766     0.1692     9.2345     2.6441    -0.0008   -41.2232    39.2554    21.5750    33.3390  1586.1874    65.7062
 5279.0000   126.2411     0.1636     9.2346     2.6381    -0.0028   -41.4167    40.1974    20.8030    33.3379  1586.4219    66.1001
 5279.5000   129.2008     0.1644     9.2347     2.6321    -0.0048   -42.2961    40.6880    20.2412    32.2844  1586.6562    66.3954
 5280.0000   135.1226     0.1748     9.2349     2.6301    -0.0047   -43.1754    37.6874    19.8740    31.2642  1586.8907    66.4936
 5280.5000   141.0468     0.1889     9.2349     2.6342    -0.0047   -44.2969    34.9081    19.6912    30.2763  1587.1252    66.3945
 5281.0000   142.2255     0.2042     9.2351     2.6362    -0.0027   -44.4898    32.3337    19.8664    29.3392  1587.3597    65.8024
 5281.5000   141.9184     0.2026     9.2352     2.6443    -0.0006   -44.8753    30.9745    20.2264    29.0695  1587.5942    64.9143
 5282.0000   140.1350     0.1915     9.1554     2.6584     0.0034   -45.2613    30.9724    21.3536    29.3324  1587.8287    63.9277
 5282.5000   139.5398     0.1803     9.2355     2.6725     0.0075   -45.4554    34.5802    22.5437    32.6667  1588.0631    62.6453
 5283.0000   130.4512     0.1692     9.2356     2.6806     0.0095   -45.6495    42.9062    23.8001    36.3801  1588.2816    61.6586
 5283.5000   121.3626     0.1580     9.2357     2.6826     0.0161   -45.6523    44.4911    25.1266    40.5156  1588.4581    60.8691
 5284.0000   112.2741     0.1493     9.1160     2.6766     0.0116   -45.2724    49.6565    26.8135    44.0796  1588.6914    60.0797
 5284.5000   104.8337     0.1400     9.2346     2.6747     0.0076   -44.5102    55.4215    28.6137    48.4591  1588.9248    59.2902
 5285.0000   101.8622     0.1307     9.2361     2.6747     0.0056   -44.1303    61.8559    30.5347    53.2738  1589.1581    58.5007
 5285.5000   101.2646     0.1214     9.2362     2.6707     0.0077   -43.7503    69.0373    32.5848    58.5668  1589.3915    57.7113
 5286.0000   104.2220     0.1120     9.2364     2.6647     0.0077   -43.1800    77.0524    34.7724    64.3856  1589.6249    56.6258
 5286.5000   104.5102     0.1048     9.2365     2.6627     0.0117   -43.1816    86.1652    37.1069    70.7827  1589.8582    56.1321
 5287.0000   103.9102     0.1032     9.2366     2.6688     0.0178   -43.1849    93.4798    39.4936    77.8152  1590.0916    55.9343
 5287.5000    99.7530     0.1024     9.2368     2.6849     0.0219   -43.1876   106.1205    39.8496    85.5465  1590.3250    55.9338
 5288.0000    96.1909     0.0952     9.2369     2.6970     0.0219   -43.1905   121.5686    43.6215    94.0460  1590.5583    55.9334
 5288.5000    87.8835     0.0936     9.2371     2.7031     0.0139   -43.1934   139.2664    42.4451   104.1798  1590.7917    56.1298
 5289.0000    84.3215     0.0936     9.2372     2.7051     0.0038   -43.1964   152.4677    42.0551   108.0227  1591.0250    56.1292
 5289.5000    78.3856     0.0976     9.2373     2.7152     0.0019   -43.5814   147.4577    40.5488   124.8588  1591.2584    53.9589
 5290.0000    61.1872     0.1110     9.2374     2.7313     0.0059   -44.1589   141.7493    39.8160   123.7314  1591.4589    53.1693
 5290.5000    32.1264     0.1199     9.2376     2.7655     0.0100   -44.9272   123.7036    42.8517   114.6597  1591.6796    52.8728
 5291.0000    23.5284     0.1175     9.2377     2.7756     0.0241   -45.1214   177.4865    47.7130   106.9769  1591.7238    52.7735
 5291.5000    18.7806     0.1109     9.1979     2.7776     0.0281   -45.3156   201.8451    48.1447   135.6073  1591.9921    53.1676
 5292.0000    17.5901     0.1032     9.1980     2.7736     0.0226   -45.8926   507.0945    48.5757   171.9002  1592.2606    53.4628
 5292.5000    17.5831     0.1032     9.1980     2.7515     0.0166   -45.8959   960.5446    48.5727   205.4759  1592.5291    53.8566
 5293.0000    17.5784     0.1048     9.1982     2.7496     0.0106   -45.8988   452.4780    48.5623   218.9182  1592.9604    54.2505
 5293.5000    16.3855     0.1056     9.1584     2.7516     0.0066   -46.2844   253.0766    48.5520   246.2818  1593.0488    54.4472
 5294.0000    18.7524     0.1056     9.1585     2.7516     0.0047   -46.2872   253.0702    48.5434   267.2067  1593.2695    54.1506
 5294.5000    19.9311     0.1040     9.1586     2.7416     0.0047   -47.0569   306.1131    48.9812   297.8941  1593.4460    52.9664
 5295.0000    21.1122     0.0989     9.1187     2.7416     0.0047   -47.6340   308.8648    49.8686   308.8724  1595.4406    50.9559
 5295.5000    23.4766     0.0937     9.1188     2.7557     0.0068   -47.4443   308.8268    50.5028   300.5643  1597.4349    50.1663
 5296.0000    27.6221     0.0865     9.0789     2.7678     0.0128   -47.0647   439.6497    51.2235   246.2012  1599.4293    52.6687
 5296.5000    29.9866     0.0865     9.1192     2.7819     0.0349   -46.8761   593.3225    51.2171   196.1417  1601.4237    53.7534
 5297.0000    30.2724     0.0968     9.1192     2.7830     0.0410   -46.6874   442.6092    50.2882   185.7348  1603.4181    55.5280
 5297.5000    32.6393     0.1111     9.1194     2.7769     0.0430   -46.6908   330.1795    48.9301   168.1379  1605.4125    57.0069
 5298.0000    37.9689     0.1218     9.1195     2.7730     0.0410   -46.5021   246.3087    45.9103   152.2081  1607.4070    57.2036
 5298.5000    44.4829     0.1325     9.1196     2.7365     0.0210   -46.1220   183.7424    43.8670   137.7876  1609.4014    57.3017
 5299.0000    42.1066     0.1432     9.1198     2.6887     0.0130   -46.1236   137.5930    41.9145   124.7333  1611.3958    57.3011
 5299.5000    39.7304     0.1550     9.1199     2.6867     0.0090   -46.1264   115.7874    41.5292   112.9158  1613.3903    57.2019
 5300.0000    33.7945     0.1506     9.1200     2.7088     0.0266   -45.6383   124.4142    41.5225   102.2179  1615.3846    56.9055
 5300.5000    31.7964     0.1398     9.1201     2.7142     0.0206   -45.1502   136.3047    41.5147    92.5336  1617.3790    56.6518
 5301.0000    29.6560     0.1434     9.1200     2.7209     0.0226   -44.7569   140.0611    40.0402    88.1739  1619.3058    56.3137
 5301.5000    27.8820     0.1446     9.1200     2.7158     0.0346   -44.4169   135.0638    37.5756    83.4996  1621.2325    55.3274
 5302.0000    29.6677     0.1522     9.1200     2.6977     0.0406   -44.4185   119.6522    35.9086    81.9958  1623.1594    54.4397
 5302.5000    31.4510     0.1589     9.1200     2.6535     0.0346   -43.8475    98.5766    36.2354    87.1813  1625.0862    53.4534
 5303.0000    33.2367     0.1379     9.1200     2.6455     0.0185   -43.1623    84.2533    40.0381    92.6948  1627.0129    52.5658
 5303.5000    36.2058     0.1170     9.1200     2.6696     0.0185   -42.4771    81.9892    46.5734    98.5569  1628.9398    51.4809
 5304.0000    38.5844     0.0960     9.1600     2.7168     0.0070   -41.7919   156.1369    56.0077   104.7898  1630.8666    51.6783
 5304.5000    38.9614     0.0816     9.1600     2.7188     0.0029   -41.3702   254.4708    52.0859   111.4169  1632.7935    52.8621
 5305.0000    42.1546     0.0808     9.1600     2.7328    -0.0036   -41.1805   414.7349    49.3255   117.8480  1634.7202    55.0322
 5305.5000    45.3478     0.0816     9.1600     2.7248    -0.0036   -40.8004   550.9648    51.6136   118.9181  1636.6470    56.5118
 5306.0000    48.5410     0.0987     9.1600     2.7127    -0.0036   -40.2201   311.0842    49.3239   117.8402  1637.3708    57.6955
 5306.5000    51.7342     0.1374     9.1600     2.7298     0.0144   -39.6399   216.2453    45.0453   114.6733  1636.4659    58.9778
