~VERSION INFORMATION
 VERS.               2.00:   CWLS LOG ASCII STANDARD - VERSION 2.00
 WRAP.                 NO:   ONE LINE PER DEPTH STEP
~WELL INFORMATION
#MNEM.UNIT      DATA TYPE    INFORMATION
#----------   ------------   ------------------------------
 STRT.F            0.0000:   START DEPTH
 STOP.F         5649.5000:   STOP DEPTH
 STEP.F            0.5000:   STEP LENGTH
 NULL.          -999.2500:   NO VALUE
 COMP.    FENIX & SCISSON:   COMPANY
 WELL.    FENIX WX #17-21:   WELL
 FLD .        TEAPOT DOME:   FIELD
 LOC .      S21 T39N R78W:   LOCATION
 STAT.            WYOMING:   STATE
 COUN.            NATRONA:   COUNTY
 SRVC.       SCHLUMBERGER:   SERVICE COMPANY
 DATE.        03-SEP-1978:   LOGDATE
 APIN.     49025107090000:   API NUMBER
~CURVE INFORMATION
#MNEM.UNIT       API CODE    CURVE DESCRIPTION
#----------   ------------   ------------------------------
 DEPT.F                  :
 GRD .GAPI   45 310 01 00:   GAMMA RAY
 NPHI.DEC    42 890 03 00:   NEUTRON POROSITY SANDSTONE
 CALD.IN     45 280 60 00:   CALIPER FROM DENSITY LOG
 RHOB.G/C3   45 350 01 00:   BULK DENSITY
 DRHO.G/C3   45 356 01 00:   DENSITY CORRECTION
 SPR .MV     07 010 01 00:   SPONTANEOUS POTENTIAL
 SFL .OHMM   07 220 01 00:   SHALLOW FOCUSED LOG RESISTIVITY
 ILM .OHMM   07 120 44 00:   INDUCTION LOG MEDIUM RESISTIVITY
 ILD .OHMM   07 120 46 00:   DEEP INDUCTION RESISTIVITY
 TENR.LBS    07 635 01 00:   TENSION FROM RESISTIVITY
 DT  .US/F   60 520 00 00:   DELTA TIME
~PARAMETER INFORMATION
#MNEM.UNIT          VALUE    DESCRIPTION
#----------   ------------   ------------------------------
 EKB .F         5001.0000:   KELLY BUSHING
 EGL .F            0.0000:   GROUND LEVEL
 EDF .F            0.0000:   DRILLING FLOOR
 EPD .F            0.0000:   PERMANENT DATUM
 TD  .F         5655.0000:   TOTAL DEPTH
 DATE.        03-SEP-1978:   DATE LOGGED
 CLNT.            A2DTECH:   CLIENT CODE
 SL  . 750' FSL & 490' FWL:   SURFACE LOCATION
 PD  .                 GL:   PERMANENT DATUM
 EPD .F              4997:   ELEVATION PERMANENT DATUM
 LMF .                 KB:   LOG MEASURED FROM
 DMF .                 KB:   DRILLING MEASURED FROM
 DAPD.F                10:   FEET ABOVE PERMANENT DATUM
 EGL .F              4997:   ELEVATION GROUND LEVEL
 DD  .F              5655:   DEPTH DRILLER
 DL  .F              5642:   DEPTH LOGGER
 BLI .F              5636:   BOTTOM LOG INTERVAL
 TLI .F               502:   TOP LOG INTERVAL
 CS1 .IN            9.625:   CASING SIZE
 CBD1.      9.625" @ 501':   CASING DRILLER 1
 CBL1.F               502:   CASING LOGGER 1
 BS1 .IN             8.75:   BIT SIZE
 BSD1.F              5655:   DEPTH DRILLED WITH BIT1
 DFT .                FGM:   TYPE FLUID IN HOLE
 DFD .                9.4:   DENSITY
 DFV .                 63:   VISCOSITY
 DFPH.                 12:   PH
 DFL .                  8:   FLUID LOSS
 MSS .            MUD PIT:   SOURCE OF SAMPLE
 RMS .OHMM            .78:   RM
 MST .F                88:   RM MEAS. TEMP.
 RMF .OHMM            .63:   RMF
 MFST.F                88:   RMF MEAS. TEMP.
 MFSS.               MEAS:   SOURCE RMF.
 RMB .OHMM            .43:   RM. AT BHT
 BHT .F               160:   BHT.
 TCS .HRS            1000:   TIME CIRC. STOPPED
 TLAB.HRS            1530:   TIME LOGGER AT BOTTOM
 MRT .F               160:   MAXIMUM RECORDED TEMP.
 LUN .               8043:   LOGGING UNIT NUMBER
 LUL .               CSPR:   LOGGING UNIT LOCATION
 ENGI.             LARSON:   RECORDED BY
 WITN.           MCGINLEY:   WITNESSED BY
 ORIG.      2.5" 5" PRINT:   ORIGIN OF DATA
 UWI .     49025107090000:   UNIQUE WELL ID
 DICO. A2D TECHNOLOGIES, INC.:   DIGITIZING COMPANY
~A  DEPTH      GRD       NPHI       CALD       RHOB       DRHO        SPR        SFL        ILM        ILD       TENR         DT
# ...
 4941.0000   100.9102     0.1468    10.0138     2.6483    -0.0044   -20.7462    19.3803    13.5300    16.2147  1709.8394    64.7202
 4941.5000   103.2919     0.1555    10.0145     2.6523    -0.0024   -20.7896    19.4343    13.5302    16.0704  1709.8055    64.9146
 4942.0000   106.8548     0.1587    10.0151     2.6614     0.0017   -20.8330    18.9144    13.4389    15.6414  1709.7719    65.1091
 4942.5000   109.8295     0.1723    10.0156     2.6442     0.0017   -20.8764    18.1915    13.3481    15.4520  1709.7382    65.3035
 4943.0000   109.8375     0.1715    10.0561     2.6442    -0.0004   -20.9199    17.4962    13.2580    15.2650  1709.7043    65.2035
 4943.5000   107.4794     0.1635    10.0565     2.6462    -0.0004   -20.9633    16.8274    12.8212    15.0802  1709.6707    65.1027
 4944.0000   105.1171     0.1603    10.0572     2.6503    -0.0004   -21.0067    16.0783    12.5926    14.8976  1709.6414    64.9036
 4944.5000   103.9438     0.1587    10.0576     2.6502    -0.0004   -21.0501    15.9346    12.5939    14.7173  1706.3235    64.7057
 4945.0000   103.9518     0.1587    10.0583     2.6462    -0.0024   -21.0924    15.7925    12.8251    14.5573  1703.0059    64.6045
 4945.5000   103.9637     0.1587    10.0587     2.6442    -0.0065   -21.0926    15.7940    12.9429    14.6910  1699.6880    64.5041
 4946.0000   103.9716     0.1587    10.0594     2.6401    -0.0065   -20.9600    15.7943    13.1805    14.6924  1696.3702    64.6980
 4946.5000   104.5762     0.1579    10.0200     2.6401    -0.0105   -20.8275    16.5076    13.1820    14.4305  1693.0525    65.0890
 4947.0000   106.3624     0.1587    10.0206     2.6462    -0.0025   -20.6950    17.2531    13.1833    14.1730  1689.7347    65.6765
 4947.5000   109.9310     0.1635    10.0609     2.6482    -0.0005   -20.5624    18.2620    12.9481    13.9201  1686.4170    66.3623
 4948.0000   120.6092     0.1753    10.0616     2.6603     0.0116   -20.4299    17.3107    12.4890    13.6718  1683.0992    67.0481
 4948.5000   123.5860     0.1870    10.0620     2.6643     0.0197   -20.3382    16.4089    12.0462    13.4278  1679.7815    67.5374
 4949.0000   123.5945     0.1962    10.0627     2.6663     0.0217   -20.3386    15.5542    11.4110    13.1885  1676.4637    67.7318
 4949.5000   122.4217     0.1930    10.0633     2.6623     0.0197   -20.4997    14.7439    11.3094    13.1890  1673.1460    66.8448
 4950.0000   104.0550     0.1890    10.0239     2.6421     0.0196   -20.6607    14.0535    11.3103    13.4539  1669.8282    65.7616
 4950.5000    99.9118     0.1778    10.0543     2.6378    -0.0040   -20.8218    13.8148    11.6779    13.7241  1666.5105    64.6784
 4951.0000    96.3591     0.1690    10.0632     2.6351    -0.0040   -20.8603    13.6749    12.0626    14.0493  1663.3854    63.8897
 4951.5000    96.3638     0.1634    10.1026     2.6351    -0.0040   -20.8988    15.4017    12.4599    14.3061  1660.2603    63.6910
 4952.0000    97.5566     0.1499    10.0624     2.6724    -0.0065   -20.9373    17.3465    12.8703    14.6984  1657.1351    63.4923
 4952.5000    96.9684     0.1483    10.0619     2.6765    -0.0025   -20.9758    19.2806    13.2942    14.8317  1654.0100    63.2949
 4953.0000    96.3825     0.1458    10.0219     2.6825    -0.0045   -21.0143    19.1052    13.7321    15.5747  1650.8849    62.9966
 4953.5000    95.7943     0.1426    10.0611     2.6825    -0.0044   -21.0528    18.7606    14.1717    16.3550  1670.1423    62.6993
 4954.0000    94.0227     0.1402    10.0608     2.6664     0.0016   -21.0913    18.7589    14.2992    17.1360  1672.0833    62.5989
 4954.5000    94.0274     0.1378    10.0603     2.6523    -0.0044   -21.1298    19.1008    14.5590    17.2908  1674.0242    62.7941
 4955.0000    95.8131     0.1330    10.0600     2.6543    -0.0024   -21.1683    19.7402    14.6900    17.2887  1675.9652    63.0860
 4955.5000    96.4106     0.1338    10.0595     2.6705     0.0017   -21.2068    20.4009    14.6886    17.2871  1677.9062    63.4774
 4956.0000   102.9394     0.1410    10.0594     2.6947     0.0077   -21.2453    21.0838    14.6870    17.1311  1679.8472    63.6714
 4956.5000   104.7227     0.1504    10.0189     2.6927     0.0138   -21.2681    21.4765    14.4222    16.7482  1681.7882    64.0619
 4957.0000   105.9155     0.1617    10.0584     2.6665     0.0078   -21.2677    19.9749    14.2910    16.3738  1683.7291    64.7477
 4957.5000   106.5154     0.1577    10.0579     2.6484     0.0078   -21.6442    18.7331    13.9069    16.0078  1685.6700    65.1387
 4958.0000   110.0774     0.1617    10.0576     2.6302    -0.0043   -21.3807    17.5686    13.5331    15.6420  1687.6111    65.3331
 4958.5000   111.8630     0.1617    10.0572     2.6282    -0.0023   -21.1172    16.5128    13.0505    14.9480  1689.5521    65.0361
 4959.0000   111.2748     0.1625    10.0570     2.6302    -0.0023   -20.8537    16.3625    12.8151    14.6785  1691.4930    64.9357
 4959.5000   110.6890     0.1649    10.0564     2.6323    -0.0022   -20.5902    16.3611    12.4707    14.4139  1693.4341    64.8349
 4960.0000   111.8794     0.1681    10.0560     2.6464    -0.0022   -20.3032    16.6584    12.0261    14.0684  1695.3750    65.3241
 4960.5000   114.8508     0.1728    10.0556     2.6525     0.0003   -20.3017    16.8081    11.9164    13.7313  1697.3160    66.9927
 4961.0000   119.0057     0.1880    10.0552     2.6605     0.0023   -20.5217    16.8066    11.5960    13.4021  1699.2570    67.4819
 4961.5000   118.4198     0.1992    10.0548     2.6606     0.0084   -20.7417    16.2075    11.3869    13.0809  1701.1980    67.0867
 4962.0000   111.9028     0.2071    10.0544     2.6626     0.0125   -20.9618    15.6297    11.1815    12.6917  1703.1390    66.2001
 4962.5000   105.9810     0.2063    10.0141     2.6566     0.0145   -21.1818    14.5366    11.1806    12.6910  1705.0800    65.2148
 4963.0000   104.7999     0.1896    10.0536     2.6465     0.0185   -21.4018    13.5196    11.5861    12.8061  1707.0209    64.6230
 4963.5000    98.8781     0.1728    10.0532     2.6445    -0.0041   -21.6218    13.8905    12.0062    13.2813  1708.9619    64.1295
 4964.0000    96.5113     0.1584    10.0529     2.6566    -0.0041   -21.8418    14.6647    12.4416    13.7741  1710.1683    63.6359
 4964.5000    97.1112     0.1464    10.0524     2.6707    -0.0041   -21.9989    16.3460    12.8927    14.2851  1710.1747    63.5351
 4965.0000    99.4874     0.1384    10.0521     2.6869     0.0019   -21.9971    18.7210    13.3602    14.8152  1707.9534    63.5330
 4965.5000   101.2731     0.1384    10.0117     2.6990     0.0060   -21.9956    19.2347    13.7599    15.3649  1705.7321    63.6291
 4966.0000   101.2801     0.1424    10.0513     2.7030     0.0146   -21.9934    19.5844    14.1374    15.9349  1703.5106    64.0201
 4966.5000   101.8776     0.1535    10.0508     2.7071     0.0187   -21.9909    19.5827    14.2646    16.3394  1701.2892    64.3128
 4967.0000   105.4419     0.1607    10.0505     2.7091     0.0207   -21.9901    19.2297    14.2633    16.3380  1699.0679    64.5072
 4967.5000   107.2252     0.1647    10.0500     2.7051     0.0227   -22.4665    18.8826    14.1332    16.3374  1696.8466    64.7999
 4968.0000   109.6038     0.1711    10.0497     2.6930     0.0227   -23.1263    18.3750    13.8782    15.8264  1694.6251    64.8960
 4968.5000   109.6085     0.1735    10.0094     2.6809     0.0127   -23.1259    17.8811    13.6279    15.1914  1692.4037    65.0900
 4969.0000   109.6155     0.1743    10.0489     2.6769     0.0061   -22.8191    17.5586    13.3824    15.1906  1690.1823    65.3827
 4969.5000   110.2130     0.1750    10.0882     2.6729    -0.0019   -22.5124    17.5561    13.2602    14.9166  1687.9611    65.7737
 4970.0000   111.4058     0.1790    10.0879     2.6648    -0.0060   -22.2056    17.2401    13.0208    14.9150  1685.7396    65.9681
 4970.5000   110.8176     0.1886    10.0874     2.6648    -0.0039   -21.7849    17.0832    12.7859    14.9136  1683.5182    65.7694
 4971.0000   109.0460     0.1862    10.0473     2.6709     0.0021   -21.7838    16.9277    12.7840    14.9122  1681.2968    65.6690
