~VERSION INFORMATION
 VERS.               2.00:   CWLS LOG ASCII STANDARD - VERSION 2.00
 WRAP.                 NO:   ONE LINE PER DEPTH STEP
~WELL INFORMATION
#MNEM.UNIT      DATA TYPE    INFORMATION
#----------   ------------   ------------------------------
 STRT.F            0.0000:   START DEPTH
 STOP.F         5649.5000:   STOP DEPTH
 STEP.F            0.5000:   STEP LENGTH
 NULL.          -999.2500:   NO VALUE
 COMP.    FENIX & SCISSON:   COMPANY
 WELL.    FENIX WX #17-21:   WELL
 FLD .        TEAPOT DOME:   FIELD
 LOC .      S21 T39N R78W:   LOCATION
 STAT.            WYOMING:   STATE
 COUN.            NATRONA:   COUNTY
 SRVC.       SCHLUMBERGER:   SERVICE COMPANY
 DATE.        03-SEP-1978:   LOGDATE
 APIN.     49025107090000:   API NUMBER
~CURVE INFORMATION
#MNEM.UNIT       API CODE    CURVE DESCRIPTION
#----------   ------------   ------------------------------
 DEPT.F                  :
 GRD .GAPI   45 310 01 00:   GAMMA RAY
 NPHI.DEC    42 890 03 00:   NEUTRON POROSITY SANDSTONE
 CALD.IN     45 280 60 00:   CALIPER FROM DENSITY LOG
 RHOB.G/C3   45 350 01 00:   BULK DENSITY
 DRHO.G/C3   45 356 01 00:   DENSITY CORRECTION
 SPR .MV     07 010 01 00:   SPONTANEOUS POTENTIAL
 SFL .OHMM   07 220 01 00:   SHALLOW FOCUSED LOG RESISTIVITY
 ILM .OHMM   07 120 44 00:   INDUCTION LOG MEDIUM RESISTIVITY
 ILD .OHMM   07 120 46 00:   DEEP INDUCTION RESISTIVITY
 TENR.LBS    07 635 01 00:   TENSION FROM RESISTIVITY
 DT  .US/F   60 520 00 00:   DELTA TIME
~PARAMETER INFORMATION
#MNEM.UNIT          VALUE    DESCRIPTION
#----------   ------------   ------------------------------
 EKB .F         5001.0000:   KELLY BUSHING
 EGL .F            0.0000:   GROUND LEVEL
 EDF .F            0.0000:   DRILLING FLOOR
 EPD .F            0.0000:   PERMANENT DATUM
 TD  .F         5655.0000:   TOTAL DEPTH
 DATE.        03-SEP-1978:   DATE LOGGED
 CLNT.            A2DTECH:   CLIENT CODE
 SL  . 750' FSL & 490' FWL:   SURFACE LOCATION
 PD  .                 GL:   PERMANENT DATUM
 EPD .F              4997:   ELEVATION PERMANENT DATUM
 LMF .                 KB:   LOG MEASURED FROM
 DMF .                 KB:   DRILLING MEASURED FROM
 DAPD.F                10:   FEET ABOVE PERMANENT DATUM
 EGL .F              4997:   ELEVATION GROUND LEVEL
 DD  .F              5655:   DEPTH DRILLER
 DL  .F              5642:   DEPTH LOGGER
 BLI .F              5636:   BOTTOM LOG INTERVAL
 TLI .F               502:   TOP LOG INTERVAL
 CS1 .IN            9.625:   CASING SIZE
 CBD1.      9.625" @ 501':   CASING DRILLER 1
 CBL1.F               502:   CASING LOGGER 1
 BS1 .IN             8.75:   BIT SIZE
 BSD1.F              5655:   DEPTH DRILLED WITH BIT1
 DFT .                FGM:   TYPE FLUID IN HOLE
 DFD .                9.4:   DENSITY
 DFV .                 63:   VISCOSITY
 DFPH.                 12:   PH
 DFL .                  8:   FLUID LOSS
 MSS .            MUD PIT:   SOURCE OF SAMPLE
 RMS .OHMM            .78:   RM
 MST .F                88:   RM MEAS. TEMP.
 RMF .OHMM            .63:   RMF
 MFST.F                88:   RMF MEAS. TEMP.
 MFSS.               MEAS:   SOURCE RMF.
 RMB .OHMM            .43:   RM. AT BHT
 BHT .F               160:   BHT.
 TCS .HRS            1000:   TIME CIRC. STOPPED
 TLAB.HRS            1530:   TIME LOGGER AT BOTTOM
 MRT .F               160:   MAXIMUM RECORDED TEMP.
 LUN .               8043:   LOGGING UNIT NUMBER
 LUL .               CSPR:   LOGGING UNIT LOCATION
 ENGI.             LARSON:   RECORDED BY
 WITN.           MCGINLEY:   WITNESSED BY
 ORIG.      2.5" 5" PRINT:   ORIGIN OF DATA
 UWI .     49025107090000:   UNIQUE WELL ID
 DICO. A2D TECHNOLOGIES, INC.:   DIGITIZING COMPANY
~A  DEPTH      GRD       NPHI       CALD       RHOB       DRHO        SPR        SFL        ILM        ILD       TENR         DT
# ...
 2196.0000   112.1329     0.2641    11.1431     2.5468     0.0080   -31.0531     6.2710     5.6841     5.3352   824.8608    86.4342
 2196.5000   112.7347     0.2649    11.2221     2.5528     0.0059   -31.0536     6.6296     5.8761     5.4330   824.8528    86.5333
 2197.0000   110.9605     0.2705    11.2218     2.5568     0.0098   -31.0541     6.6300     6.0564     5.5879   824.8448    87.5219
 2197.5000   109.7775     0.2739    11.2213     2.5568     0.0098   -30.8300     6.6300     6.0567     5.7890   805.1910    88.7082
 2198.0000   106.8126     0.2821    11.2212     2.5578     0.0118   -30.6059     6.5171     6.0570     5.7370   805.1801    89.4003
 2198.5000   108.6045     0.2920    11.1807     2.5557     0.0097   -30.4864     6.4061     5.9413     5.6344   805.1723    89.4006
 2199.0000   111.5902     0.2920    11.1406     2.5557     0.0137   -30.6373     6.2811     5.7900     5.5338   824.8112    89.2032
 2199.5000   111.5971     0.2872    11.0604     2.5526     0.0157   -30.7883     6.2814     5.7902     5.5341   903.3896    88.9070
 2200.0000   115.7740     0.2824    11.0999     2.5404     0.0157   -30.9393     6.2815     5.8798     5.5343   903.3791    88.2155
 2200.5000   115.7846     0.2776    11.0494     2.5170     0.0123   -31.0902     6.4230     5.9708     5.6470   871.8367    87.9193
 2201.0000   115.1858     0.2731    11.0197     2.5162    -0.0005   -31.2198     6.5586     6.0551     5.7504   844.7712    87.7220
 2201.5000   113.9989     0.2686    11.0195     2.5263    -0.0010   -31.2601     6.6970     6.1406     5.8556   825.9065    87.6235
 2202.0000   109.8358     0.2641    10.9795     2.5364     0.0051   -30.8326     6.8383     6.2222     5.8934   826.2784    87.5249
 2202.5000   108.6496     0.2596    10.9793     2.5506     0.0173   -30.3131     6.9826     6.2214     5.8928   865.9411    87.3276
 2203.0000   108.6525     0.2552    10.9791     2.5567     0.0193   -30.3150     6.9975     6.2208     5.8026   846.7418    87.2290
 2203.5000   109.2513     0.2544    11.0187     2.5527     0.0274   -30.5072     6.7803     6.1039     5.7137   847.1136    87.3282
 2204.0000   111.0384     0.2600    10.9787     2.5527     0.0295   -30.5550     6.5699     5.9892     5.6262   847.4853    87.9214
 2204.5000   111.0421     0.2680    10.9785     2.5568     0.0275   -30.6028     6.3659     5.8766     5.5401   847.8571    88.4158
 2205.0000   111.0445     0.2656    10.9783     2.5568     0.0275   -30.6507     6.1058     5.7311     5.4283   848.2288    89.0090
 2205.5000   111.6429     0.2712    10.9781     2.5508     0.0174   -30.6985     6.1053     5.7307     5.3790   828.8819    89.4045
 2206.0000   112.2400     0.2760    10.9779     2.5488     0.0074   -30.7463     6.1602     5.7300     5.3788   849.0466    89.6024
 2206.5000   112.2435     0.2895    10.9778     2.5327     0.0014   -30.7941     6.2157     5.7896     5.4779   849.4183    89.7015
 2207.0000   112.8405     0.2895    10.9775     2.5287    -0.0007   -30.8419     6.3373     5.8498     5.5789   849.6413    89.7016
 2207.5000   113.4385     0.2831    10.9375     2.5246    -0.0006   -30.9114     6.4612     5.9106     5.6817   830.5182    89.0104
 2208.0000   115.2245     0.2775    10.9373     2.5267    -0.0006   -30.9124     6.5875     5.9918     5.7792   830.8901    88.2202
 2208.5000   114.6334     0.2592    10.9372     2.5328     0.0014   -30.9149     6.7163     6.0458     5.7785   831.2620    87.4300
 2209.0000   114.0423     0.2520    10.9767     2.5470    -0.0006   -30.8657     6.8476     6.0455     5.7781   831.7082    86.9362
 2209.5000   113.4502     0.2496    10.9766     2.5551     0.0257   -30.8165     6.9855     6.0783     5.7306   831.9313    86.7389
 2210.0000   111.6708     0.2440    10.9365     2.5470     0.0338   -30.7673     6.9214     6.1112     5.6835   832.4519    87.0357
 2210.5000   111.0789     0.2583    10.9363     2.5430     0.0217   -30.7345     6.9209     6.1443     5.6207   832.8237    87.6288
 2211.0000   111.0826     0.2711    10.9362     2.5309     0.0137   -30.7360     6.9203     6.1776     5.6203   833.1955    88.0244
 2211.5000   111.0850     0.2807    10.8563     2.5128     0.0056   -30.7835     6.9821     6.2075     5.6779   833.5673    88.5187
 2212.0000   109.3064     0.2751    10.8562     2.5067     0.0016   -30.8310     6.9820     6.2633     5.7362   853.6552    87.5309
 2212.5000   108.1208     0.2679    10.8561     2.5108    -0.0004   -30.8784     6.9808     6.2624     5.7951   854.0268    86.4443
 2213.0000   106.9370     0.2599    10.8557     2.5290    -0.0004   -30.9392     6.9796     6.2616     5.8771   834.7571    85.5555
 2213.5000   106.9397     0.2591    10.8555     2.5614    -0.0003   -31.1304     6.9786     6.2608     5.8767   835.1651    85.2594
 2214.0000   108.7255     0.2551    10.8156     2.5674     0.0279   -30.9655     6.9777     6.2600     5.7706   835.5007    85.2597
 2214.5000   110.5097     0.2543    10.8154     2.5594     0.0259   -30.8006     6.9774     6.2029     5.7705   835.8724    85.5564
 2215.0000   111.7010     0.2567    10.8152     2.5534     0.0219   -30.6357     6.7888     6.2023     5.6284   836.0211    86.1495
 2215.5000   111.7034     0.2638    10.8152     2.5473     0.0251   -30.4707     6.6052     6.0905     5.4899   895.6113    86.9402
 2216.0000   110.5196     0.2766    10.8546     2.5433     0.0346   -30.3058     6.4267     5.9091     5.3548   837.0621    88.4225
 2216.5000   111.7094     0.2878    10.8544     2.5312     0.0306   -30.1409     6.2529     5.7331     5.2230   837.4338    89.6083
 2217.0000   114.6812     0.2902    10.8543     2.5293     0.0266   -30.5769     6.0328     5.5111     5.0804   837.8055    89.7074
 2217.5000   117.0579     0.2838    10.8540     2.5353     0.0246   -30.3891     5.9781     5.5110     5.0799   857.8169    89.3125
 2218.0000   120.6225     0.2798    10.9335     2.5515     0.0287   -30.3915     5.9776     5.4957     5.0336   858.2627    89.4116
 2218.5000   120.9187     0.2766    10.8537     2.5576     0.0347   -30.3940     5.9772     5.4805     5.0335   858.6342    89.7082
 2219.0000   120.3262     0.2750    10.8535     2.5576     0.0428   -30.3964     5.9571     5.4653     5.0329   859.0057    90.1037
 2219.5000   117.1077     0.2702    10.9328     2.5496     0.0328   -30.2091     5.9372     5.4502     5.0322   859.3773    90.2028
 2220.0000   113.8893     0.2662    10.9326     2.5375     0.0187   -30.4009     5.9172     5.4351     5.0314   859.7488    89.6103
 2220.5000   110.6709     0.2614    10.9324     2.5295     0.0126   -30.7855     5.8974     5.4201     5.0307   860.1946    88.6227
 2221.0000   107.4524     0.2590    10.9322     2.5335     0.0127   -30.9779     5.8776     5.4073     5.0300   860.5794    87.6351
 2221.5000   103.1373     0.2566    10.9718     2.5416     0.0167   -31.0360     5.8651     5.4067     5.0291   860.9375    86.9439
 2222.0000   105.2183     0.2550    11.0114     2.5437     0.0208   -31.0942     5.8649     5.2950     5.0286   861.3090    86.6478
 2222.5000   106.4087     0.2693    10.9317     2.5397     0.0249   -31.1524     5.6679     5.1856     4.9380   881.1696    87.6360
 2223.0000   106.4117     0.2845    10.9314     2.5236     0.0143   -31.2106     5.4776     5.0784     4.8009   862.0519    89.2168
 2223.5000   109.3809     0.2885    10.9313     2.5095     0.0123   -31.2687     5.2116     4.9735     4.6675   862.4977    89.9086
 2224.0000   112.3484     0.2853    10.9311     2.5095     0.0022   -31.3269     5.2115     4.8474     4.5379   862.8691    90.2052
 2224.5000   113.5378     0.2853    10.9707     2.5196     0.0002   -31.3789     5.1640     4.7602     4.4118   863.2406    90.3043
 2225.0000   112.9472     0.2852    11.0102     2.5217     0.0022   -31.3814     5.0707     4.7171     4.2893   863.6120    90.2058
 2225.5000   112.3578     0.2836    10.9703     2.5136     0.0003   -31.1930     5.0700     4.5887     4.1552   844.1983    90.0085
 2226.0000   109.9890     0.2796    10.9303     2.5096     0.0023   -30.8143     5.0694     4.4637     4.0436   844.7186    90.0088
