~VERSION INFORMATION
 VERS.               2.00:   CWLS LOG ASCII STANDARD - VERSION 2.00
 WRAP.                 NO:   ONE LINE PER DEPTH STEP
~WELL INFORMATION
#MNEM.UNIT      DATA TYPE    INFORMATION
#----------   ------------   ------------------------------
 STRT.F            0.0000:   START DEPTH
 STOP.F         5649.5000:   STOP DEPTH
 STEP.F            0.5000:   STEP LENGTH
 NULL.          -999.2500:   NO VALUE
 COMP.    FENIX & SCISSON:   COMPANY
 WELL.    FENIX WX #17-21:   WELL
 FLD .        TEAPOT DOME:   FIELD
 LOC .      S21 T39N R78W:   LOCATION
 STAT.            WYOMING:   STATE
 COUN.            NATRONA:   COUNTY
 SRVC.       SCHLUMBERGER:   SERVICE COMPANY
 DATE.        03-SEP-1978:   LOGDATE
 APIN.     49025107090000:   API NUMBER
~CURVE INFORMATION
#MNEM.UNIT       API CODE    CURVE DESCRIPTION
#----------   ------------   ------------------------------
 DEPT.F                  :
 GRD .GAPI   45 310 01 00:   GAMMA RAY
 NPHI.DEC    42 890 03 00:   NEUTRON POROSITY SANDSTONE
 CALD.IN     45 280 60 00:   CALIPER FROM DENSITY LOG
 RHOB.G/C3   45 350 01 00:   BULK DENSITY
 DRHO.G/C3   45 356 01 00:   DENSITY CORRECTION
 SPR .MV     07 010 01 00:   SPONTANEOUS POTENTIAL
 SFL .OHMM   07 220 01 00:   SHALLOW FOCUSED LOG RESISTIVITY
 ILM .OHMM   07 120 44 00:   INDUCTION LOG MEDIUM RESISTIVITY
 ILD .OHMM   07 120 46 00:   DEEP INDUCTION RESISTIVITY
 TENR.LBS    07 635 01 00:   TENSION FROM RESISTIVITY
 DT  .US/F   60 520 00 00:   DELTA TIME
~PARAMETER INFORMATION
#MNEM.UNIT          VALUE    DESCRIPTION
#----------   ------------   ------------------------------
 EKB .F         5001.0000:   KELLY BUSHING
 EGL .F            0.0000:   GROUND LEVEL
 EDF .F            0.0000:   DRILLING FLOOR
 EPD .F            0.0000:   PERMANENT DATUM
 TD  .F         5655.0000:   TOTAL DEPTH
 DATE.        03-SEP-1978:   DATE LOGGED
 CLNT.            A2DTECH:   CLIENT CODE
 SL  . 750' FSL & 490' FWL:   SURFACE LOCATION
 PD  .                 GL:   PERMANENT DATUM
 EPD .F              4997:   ELEVATION PERMANENT DATUM
 LMF .                 KB:   LOG MEASURED FROM
 DMF .                 KB:   DRILLING MEASURED FROM
 DAPD.F                10:   FEET ABOVE PERMANENT DATUM
 EGL .F              4997:   ELEVATION GROUND LEVEL
 DD  .F              5655:   DEPTH DRILLER
 DL  .F              5642:   DEPTH LOGGER
 BLI .F              5636:   BOTTOM LOG INTERVAL
 TLI .F               502:   TOP LOG INTERVAL
 CS1 .IN            9.625:   CASING SIZE
 CBD1.      9.625" @ 501':   CASING DRILLER 1
 CBL1.F               502:   CASING LOGGER 1
 BS1 .IN             8.75:   BIT SIZE
 BSD1.F              5655:   DEPTH DRILLED WITH BIT1
 DFT .                FGM:   TYPE FLUID IN HOLE
 DFD .                9.4:   DENSITY
 DFV .                 63:   VISCOSITY
 DFPH.                 12:   PH
 DFL .                  8:   FLUID LOSS
 MSS .            MUD PIT:   SOURCE OF SAMPLE
 RMS .OHMM            .78:   RM
 MST .F                88:   RM MEAS. TEMP.
 RMF .OHMM            .63:   RMF
 MFST.F                88:   RMF MEAS. TEMP.
 MFSS.               MEAS:   SOURCE RMF.
 RMB .OHMM            .43:   RM. AT BHT
 BHT .F               160:   BHT.
 TCS .HRS            1000:   TIME CIRC. STOPPED
 TLAB.HRS            1530:   TIME LOGGER AT BOTTOM
 MRT .F               160:   MAXIMUM RECORDED TEMP.
 LUN .               8043:   LOGGING UNIT NUMBER
 LUL .               CSPR:   LOGGING UNIT LOCATION
 ENGI.             LARSON:   RECORDED BY
 WITN.           MCGINLEY:   WITNESSED BY
 ORIG.      2.5" 5" PRINT:   ORIGIN OF DATA
 UWI .     49025107090000:   UNIQUE WELL ID
 DICO. A2D TECHNOLOGIES, INC.:   DIGITIZING COMPANY
~A  DEPTH      GRD       NPHI       CALD       RHOB       DRHO        SPR        SFL        ILM        ILD       TENR         DT
# ...
 4239.5000    59.7566     0.1021     9.6007     2.6274     0.0510   -32.5352    19.0456    14.2515    19.2191  1467.3621    66.0479
 4240.0000    62.9848     0.0965     9.6081     2.6254     0.0510   -32.9182    20.8515    12.5531    15.4619  1467.7312    63.8024
 4240.5000    70.3655     0.1101     9.6079     2.6132     0.0752   -33.1097    25.9155    10.3833    12.9814  1468.1002    63.7275
 4241.0000    77.7462     0.2061     9.6074     2.4057     0.0812   -32.9182    25.9144     8.5885    10.8987  1468.4692    64.4012
 4241.5000    85.1269     0.2984    10.2976     2.1611     0.0872   -32.1522    16.7735     7.1040     9.1503  1468.8383    79.3713
 4242.0000    92.3961     0.2984    10.9878     2.0118     0.0503   -31.9607    16.6222     5.8761     7.6255  1469.2073    81.7909
 4242.5000    90.9221     0.3464    11.5469     2.0340     0.0084   -31.5777     6.4194     4.5496     7.0923  1469.5764    92.4885
 4243.0000    90.9268     0.2888    11.4673     2.2288     0.0387   -31.1948     5.4534     4.5496     5.9678  1469.9454    91.8933
 4243.5000    93.3054     0.2888    10.3171     2.3851     0.1245   -31.1948     5.3554     4.7604     4.8037  1470.3145    89.9197
 4244.0000    94.4959     0.2993    10.3168     2.3549     0.2404   -30.8118     5.7060     4.5496     4.5496  1470.6835    90.1137
 4244.5000    93.9101     0.3312    10.9116     2.2270     0.2424   -30.8118     5.8632     4.0441     4.1975  1471.0525    91.2923
 4245.0000    92.7290     0.3584    11.5064     2.0992     0.2403   -30.8965     5.2118     3.5624     3.8727  1471.5300    96.0139
 4245.5000    89.7716     0.3814    12.1011     1.9938     0.2013   -31.0033     5.2592     3.2246     3.5730  1471.7303   101.7216
 4246.0000    88.5905     0.4216    13.5471     1.9176     0.1622   -31.1948     4.3876     3.0265     3.2835  1471.7972   106.2477
 4246.5000    89.1905     0.4541    14.5223     1.9116     0.1232   -31.3863     3.7614     2.7895     3.2246  1470.2209   107.0309
 4247.0000    89.1952     0.4549    15.8511     1.6130     0.0842   -31.7692     3.2836     2.5023     3.1382  1468.6447   103.4819
 4247.5000    90.9809     0.4413    15.8109     1.6150     0.0505   -31.7692     3.0819     2.4574     3.0819  1467.0684    98.0427
 4248.0000    92.1714     0.3888    15.5335     1.7711     0.0485   -31.7692     3.0541     2.5023     3.0266  1465.4919    92.6036
 4248.5000    94.5500     0.3670    13.4344     1.9396     0.1997   -31.7692     3.2541     2.6421     2.9723  1463.9156    87.1250
 4249.0000    96.3333     0.3551    13.4329     1.9335     0.1936   -31.5481     3.4358     2.8407     2.9190  1462.3394    88.1081
 4249.5000    97.5262     0.3840    13.5511     1.9121     0.1432   -31.3270     3.6277     2.8666     2.9190  1460.7631    91.8662
 4250.0000   102.8668     0.4014    14.6813     1.8952     0.1472   -31.1059     3.7615     2.8666     2.9190  1459.1869    95.6242
 4250.5000   101.3786     0.3969    15.1469     2.1089     0.1673   -30.8847     3.5816     2.8667     2.9447  1457.6106   100.1062
 4251.0000   100.4781     0.3958    15.4076     1.9959     0.1866   -30.8118     3.4245     2.9182     2.9717  1455.7394    99.7094
 4251.5000   100.4704     0.4243    15.0119     1.9858     0.1995   -30.6203     3.2743     2.9179     3.0531  1453.8682    99.5096
 4252.0000    97.4947     0.4398    14.7747     1.9475     0.1995   -30.6203     3.2232     2.9709     3.1368  1451.9971    94.7172
 4252.5000    96.8942     0.3862    13.0356     1.8346     0.1264   -30.6203     3.4337     3.0523     3.1937  1450.1259    92.2523
 4253.0000    86.2132     0.2968    12.8775     2.1773     0.0256   -30.4288     3.6581     3.1360     3.3112  1448.2548    90.6742
 4253.5000    82.0567     0.2510    12.2451     2.2025    -0.0006   -30.4288     3.9325     3.2513     3.5920  1446.3835    81.7095
 4254.0000    71.3773     0.1707    11.2174     2.3446    -0.0062   -30.2373     4.2277     3.5270     3.6908  1444.5125    72.2542
 4254.5000    68.9997     0.1372    10.9407     2.5200    -0.0002   -30.4288     5.7111     4.2956     4.6386  1442.6414    70.0848
 4255.0000    64.8409     0.1196    10.5059     2.5744     0.0119   -30.4288     7.7149     5.2318     5.8298  1440.7701    69.0961
 4255.5000    62.4636     0.1132    10.3874     2.5824     0.0240   -30.8118    10.4218     6.3720     7.3269  1438.8989    68.1081
 4256.0000    57.7128     0.1029    10.3874     2.5915     0.0300   -30.8118    13.3503     7.7607     9.2084  1437.0278    67.5139
 4256.5000    55.3360     0.0981    10.4269     2.5854     0.0280   -31.3863    13.8417     9.4521    11.9738  1435.9609    67.3135
 4257.0000    52.3636     0.0957    10.5059     2.5874     0.0179   -31.5777    14.6134    11.5468    13.3470  1435.9882    67.2136
 4257.5000    51.7616     0.0933    10.5059     2.5854     0.0214   -30.8967    15.2891    12.7555    13.4680  1475.3696    67.2080
 4258.0000    51.7553     0.0949    10.3826     2.5853     0.0213   -30.4288    16.2886    13.4667    13.8377  1475.3864    67.2038
 4258.5000    51.7459     0.1005    10.4012     2.5631     0.0153   -30.6203    16.8878    13.4654    13.8364  1475.4088    67.4956
 4259.0000    52.3321     0.1005    10.4198     2.5591     0.0132   -31.2014    17.0400    13.4639    13.8349  1475.4480    67.9843
 4259.5000    52.9151     0.1133    10.4383     2.5571     0.0112   -31.7692    16.2838    12.9835    13.7088  1475.4705    68.9652
 4260.0000    54.6860     0.1197    10.4569     2.5570     0.0172   -31.7692    15.5621    12.5202    13.4619  1475.4999    69.6508
 4260.5000    58.2309     0.1285    10.4669     2.5449     0.0097   -31.2323    14.3673    12.1838    12.7876  1475.5294    70.7301
 4261.0000    59.4091     0.1396    10.4669     2.5328     0.0096   -30.6953    13.2642    11.5654    12.1470  1475.5590    71.9079
 4261.5000    60.5841     0.1428    10.5064     2.5187     0.0056   -30.2373    12.2458    10.9784    11.5386  1475.5884    72.2981
 4262.0000    61.1699     0.1444    10.5064     2.5186     0.0056   -30.6203    11.3056    10.4211    10.5357  1475.6179    72.2945
 4262.5000    60.5677     0.1444    10.5064     2.5206     0.0015   -30.8118    10.7275     9.8922    10.2523  1475.6475    71.8972
 4263.0000    60.5611     0.1420    10.5455     2.5347    -0.0005   -31.3675    10.6296     9.5345    10.1594  1475.6769    71.4008
 4263.5000    61.1435     0.1412    10.5455     2.5589     0.0030   -31.7692    10.6286     9.3623     9.8854  1475.7064    71.1020
 4264.0000    66.4672     0.1397    10.5059     2.5690     0.0030   -31.4158    10.6930     9.1932     9.6193  1475.7358    70.7047
 4264.5000    69.4181     0.1389    10.5186     2.5669     0.0029   -31.0624    10.7577     9.0274     9.3602  1475.7654    70.6027
 4265.0000    71.7767     0.1413    10.5312     2.5649     0.0029   -30.7090    10.8195     9.0041     9.2748  1475.7949    70.6983
 4265.5000    75.6114     0.1484    10.5438     2.5750     0.0029   -30.4288    10.8185     8.9808     9.2744  1475.8243    70.6941
 4266.0000    75.6044     0.1484    10.5564     2.5830     0.0049   -30.4288    10.7202     8.9576     9.1893  1475.8539    70.7883
 4266.5000    75.0053     0.1453    10.5690     2.6011     0.0129   -30.4288    10.4814     8.9345     9.1883  1475.8834    70.5879
 4267.0000    73.2185     0.1421    10.5817     2.6031     0.0129   -30.4793    10.3361     8.9114     9.1876  1475.9246    70.3875
 4267.5000    72.6195     0.1405    10.5943     2.6011     0.0129   -30.5297    10.3349     8.8884     9.1864  1475.9413    70.2855
 4268.0000    71.4249     0.1381    10.6069     2.5829     0.0013   -30.5801    10.5420     8.8579     9.2689  1475.9637    70.2820
 4268.5000    71.4180     0.1373    10.6195     2.5769     0.0013   -30.8118    10.7533     8.8574     9.2682  1476.7504    70.3769
 4269.0000    71.9997     0.1373    10.6322     2.5809     0.0073   -31.0033    10.9688     8.8565     9.2671  1477.5371    70.3727
 4269.5000    73.1767     0.1365    10.6448     2.5869     0.0113   -31.4198    11.1076     8.8558     9.3505  1478.3239    70.4683
