~VERSION INFORMATION
 VERS.               2.00:   CWLS LOG ASCII STANDARD - VERSION 2.00
 WRAP.                 NO:   ONE LINE PER DEPTH STEP
~WELL INFORMATION
#MNEM.UNIT      DATA TYPE    INFORMATION
#----------   ------------   ------------------------------
 STRT.F            0.0000:   START DEPTH
 STOP.F         5649.5000:   STOP DEPTH
 STEP.F            0.5000:   STEP LENGTH
 NULL.          -999.2500:   NO VALUE
 COMP.    FENIX & SCISSON:   COMPANY
 WELL.    FENIX WX #17-21:   WELL
 FLD .        TEAPOT DOME:   FIELD
 LOC .      S21 T39N R78W:   LOCATION
 STAT.            WYOMING:   STATE
 COUN.            NATRONA:   COUNTY
 SRVC.       SCHLUMBERGER:   SERVICE COMPANY
 DATE.        03-SEP-1978:   LOGDATE
 APIN.     49025107090000:   API NUMBER
~CURVE INFORMATION
#MNEM.UNIT       API CODE    CURVE DESCRIPTION
#----------   ------------   ------------------------------
 DEPT.F                  :
 GRD .GAPI   45 310 01 00:   GAMMA RAY
 NPHI.DEC    42 890 03 00:   NEUTRON POROSITY SANDSTONE
 CALD.IN     45 280 60 00:   CALIPER FROM DENSITY LOG
 RHOB.G/C3   45 350 01 00:   BULK DENSITY
 DRHO.G/C3   45 356 01 00:   DENSITY CORRECTION
 SPR .MV     07 010 01 00:   SPONTANEOUS POTENTIAL
 SFL .OHMM   07 220 01 00:   SHALLOW FOCUSED LOG RESISTIVITY
 ILM .OHMM   07 120 44 00:   INDUCTION LOG MEDIUM RESISTIVITY
 ILD .OHMM   07 120 46 00:   DEEP INDUCTION RESISTIVITY
 TENR.LBS    07 635 01 00:   TENSION FROM RESISTIVITY
 DT  .US/F   60 520 00 00:   DELTA TIME
~PARAMETER INFORMATION
#MNEM.UNIT          VALUE    DESCRIPTION
#----------   ------------   ------------------------------
 EKB .F         5001.0000:   KELLY BUSHING
 EGL .F            0.0000:   GROUND LEVEL
 EDF .F            0.0000:   DRILLING FLOOR
 EPD .F            0.0000:   PERMANENT DATUM
 TD  .F         5655.0000:   TOTAL DEPTH
 DATE.        03-SEP-1978:   DATE LOGGED
 CLNT.            A2DTECH:   CLIENT CODE
 SL  . 750' FSL & 490' FWL:   SURFACE LOCATION
 PD  .                 GL:   PERMANENT DATUM
 EPD .F              4997:   ELEVATION PERMANENT DATUM
 LMF .                 KB:   LOG MEASURED FROM
 DMF .                 KB:   DRILLING MEASURED FROM
 DAPD.F                10:   FEET ABOVE PERMANENT DATUM
 EGL .F              4997:   ELEVATION GROUND LEVEL
 DD  .F              5655:   DEPTH DRILLER
 DL  .F              5642:   DEPTH LOGGER
 BLI .F              5636:   BOTTOM LOG INTERVAL
 TLI .F               502:   TOP LOG INTERVAL
 CS1 .IN            9.625:   CASING SIZE
 CBD1.      9.625" @ 501':   CASING DRILLER 1
 CBL1.F               502:   CASING LOGGER 1
 BS1 .IN             8.75:   BIT SIZE
 BSD1.F              5655:   DEPTH DRILLED WITH BIT1
 DFT .                FGM:   TYPE FLUID IN HOLE
 DFD .                9.4:   DENSITY
 DFV .                 63:   VISCOSITY
 DFPH.                 12:   PH
 DFL .                  8:   FLUID LOSS
 MSS .            MUD PIT:   SOURCE OF SAMPLE
 RMS .OHMM            .78:   RM
 MST .F                88:   RM MEAS. TEMP.
 RMF .OHMM            .63:   RMF
 MFST.F                88:   RMF MEAS. TEMP.
 MFSS.               MEAS:   SOURCE RMF.
 RMB .OHMM            .43:   RM. AT BHT
 BHT .F               160:   BHT.
 TCS .HRS            1000:   TIME CIRC. STOPPED
 TLAB.HRS            1530:   TIME LOGGER AT BOTTOM
 MRT .F               160:   MAXIMUM RECORDED TEMP.
 LUN .               8043:   LOGGING UNIT NUMBER
 LUL .               CSPR:   LOGGING UNIT LOCATION
 ENGI.             LARSON:   RECORDED BY
 WITN.           MCGINLEY:   WITNESSED BY
 ORIG.      2.5" 5" PRINT:   ORIGIN OF DATA
 UWI .     49025107090000:   UNIQUE WELL ID
 DICO. A2D TECHNOLOGIES, INC.:   DIGITIZING COMPANY
~A  DEPTH      GRD       NPHI       CALD       RHOB       DRHO        SPR        SFL        ILM        ILD       TENR         DT
# ...
 1860.5000   143.2354     0.3320     9.5164     2.4245     0.0277   -28.4876    11.2563    10.5165     9.1334   734.9370    90.8484
 1861.0000   140.2915     0.3312     9.5161     2.4224     0.0307   -28.2994    12.2347    10.4894     9.0476   735.3249    90.2583
 1861.5000   134.9922     0.3150     9.5554     2.4194     0.0307   -28.3028    13.8521    10.4650     8.9626   716.2173    90.2575
 1862.0000   129.6924     0.3010     9.5153     2.4325     0.0307   -28.3054    13.8515    10.3684     8.8899   716.4499    90.8459
 1862.5000   129.6917     0.3010     9.5146     2.4425     0.0306   -28.4306    12.7110    10.2727     8.8887   716.9153    91.5326
 1863.0000   133.2238     0.3218     9.5143     2.4425     0.0205   -28.5559    11.6644    10.0644     8.8054   717.1482    92.7103
 1863.5000   133.8121     0.3369     9.5137     2.4425     0.0136   -28.6812    10.7039     9.8604     8.7245   770.3458    93.7897
 1864.0000   134.9891     0.3289     9.5133     2.4465     0.0205   -28.8065     9.7223     9.6605     8.6440   777.0338    93.9852
 1864.5000   134.9886     0.3195     9.5130     2.4645     0.0325   -28.9025     9.8089     9.3737     8.6428   777.3444    93.8866
 1865.0000   129.0987     0.3058     9.4752     2.4746     0.0345   -28.9034    10.2336     9.2884     8.6281   729.5710    93.5908
 1865.5000   126.1533     0.3058     9.4321     2.4806     0.0465   -28.4022    10.6766     9.2867     8.6134   719.3198    93.2954
 1866.0000   119.0845     0.3094     9.4317     2.4786     0.0445   -27.9011    11.2265     9.3221     8.5987   719.7077    93.0982
 1866.5000   119.0835     0.3114     9.4312     2.4705     0.0344   -27.5840    11.2245     9.3576     8.5841   739.7481    92.7044
 1867.0000   119.6711     0.3102     9.4308     2.4604     0.0223   -27.5849    11.2220     9.3639     8.5695   740.1361    92.8019
 1867.5000   116.1359     0.3090     9.4702     2.4503     0.0142   -28.1336    11.1184     9.3618     8.5510   740.5241    92.8993
 1868.0000   114.9563     0.3078     9.5099     2.4443     0.0122   -28.7434    10.9165     9.4448     8.5502   740.9124    93.2913
 1868.5000   113.7765     0.3066     9.4293     2.4422     0.0103   -28.9377    10.6217     9.4435     8.5479   701.9938    93.5851
 1869.0000   112.0080     0.3054     9.4290     2.4462     0.0101   -28.7486    10.3344     9.5264     8.5459   721.9574    93.7807
 1869.5000   110.8279     0.3042     9.4284     2.4522     0.0063   -28.6139    10.4265     9.5826     8.5444   722.4831    93.3873
 1870.0000   115.5399     0.3051     9.4281     2.4522     0.0080   -28.4792    10.7449     9.6392     8.5760   722.8883    92.5024
 1870.5000   119.6626     0.3083     9.4275     2.4532     0.0160   -28.3446    11.0732     9.6961     8.6077   723.2762    92.1088
 1871.0000   120.8400     0.3154     9.3870     2.4492     0.0210   -28.2099    11.4114     9.7780     8.6395   723.3538    92.1080
 1871.5000   121.4279     0.3224     9.3468     2.4300     0.0210   -28.0125    11.7600     9.7771     8.6715   724.2847    92.5000
 1872.0000   124.3732     0.3274     9.3462     2.4139     0.0189   -28.0143    12.2554     9.7745     8.6894   724.5175    93.1864
 1872.5000   127.9076     0.3235     9.3458     2.4139     0.0149   -28.0185    12.1433     9.7731     8.6874   724.8278    93.6766
 1873.0000   130.8534     0.3179     9.3054     2.4299     0.0028   -28.0194    11.8170     9.6941     8.6863   725.2936    94.0684
 1873.5000   133.2098     0.3179     9.3451     2.4420     0.0088   -27.8371    11.1778     9.6157     8.6843   725.6815    93.9696
 1874.0000   132.0306     0.3219     9.3444     2.4581     0.0148   -28.0322    10.5732     9.5380     8.6250   726.2246    93.8706
 1874.5000   128.4936     0.3315     9.3440     2.4681     0.0369   -28.2265    10.2155     9.4609     8.5661   726.4574    93.7715
 1875.0000   127.3138     0.3339     9.3434     2.4661     0.0328   -28.4251    10.3065     9.3844     8.5077   726.8454    93.4761
 1875.5000   127.3130     0.3331     9.3431     2.4499     0.0308   -28.6237    10.9113     9.3085     8.4424   728.9182    92.8862
 1876.0000   126.7225     0.3299     9.3425     2.4338     0.0247   -28.8223    11.5516     9.2406     8.3649   730.9910    92.9836
 1876.5000   126.1323     0.3259     9.3024     2.4358     0.0106   -29.0088    12.0119     9.2385     8.3641   733.0638    93.1792
 1877.0000   126.1312     0.3203     9.3324     2.4458     0.0085   -28.8222    11.7943     9.2365     8.4088   735.1366    93.2764
 1877.5000   126.7199     0.3459     9.3412     2.4458     0.0206   -28.4801    11.5795     9.2344     8.4538   737.2095    93.2756
 1878.0000   126.7189     0.3395     9.3406     2.4378     0.0185   -28.2581    10.6707     9.2770     8.4990   739.2823    92.9803
 1878.5000   125.8286     0.3323     9.3403     2.4377     0.0135   -28.2615    10.1703     9.3198     8.5444   741.3551    92.3904
 1879.0000   121.7426     0.3268     9.3397     2.4458     0.0094   -28.4907     9.8318     9.3628     8.5901   743.4279    91.8987
 1879.5000   117.6565     0.3124     9.3393     2.4498     0.0074   -28.7198    10.2442     9.4060     8.6360   745.5007    91.6034
 1880.0000   113.5704     0.3124     9.3390     2.4578     0.0073   -28.8505    10.6740     9.4494     8.6822   747.5736    91.3079
 1880.5000   105.7765     0.3140     9.2985     2.4577     0.0093   -28.6621    11.1218     9.5610     8.7286   749.6464    91.0125
 1881.0000   104.0061     0.3109     9.3379     2.4577     0.0128   -28.2829    11.6650     9.6458     8.7753   751.3926    90.9136
 1881.5000   102.8253     0.3053     9.3375     2.4517     0.0113   -28.2854    11.6629     9.6436     8.8089   751.7809    90.7165
 1882.0000   102.8231     0.3021     9.3369     2.4496     0.0112   -27.8001    11.6608     9.6423     8.8069   752.1691    90.5193
 1882.5000   107.2490     0.3021     9.3366     2.4516     0.0112   -27.1544    11.5525     9.6397     8.8054   752.5574    90.5184
 1883.0000   111.9659     0.3212     9.3360     2.4616     0.0165   -27.1569    11.4453     9.6375     8.8030   733.2870    90.6158
 1883.5000   117.8619     0.3212     9.3355     2.4616     0.0172   -27.5126    11.3397     9.6362     8.7113   733.7228    91.3023
 1884.0000   128.4773     0.3428     9.3351     2.4556     0.0232   -27.8682    10.9339     9.5170     8.6206   734.0632    92.3815
 1884.5000   131.4255     0.3452     9.3347     2.4515     0.0231   -28.2239    10.5297     9.3992     8.5308   714.8694    92.7734
 1885.0000   132.6046     0.3396     9.3341     2.4415     0.0231   -28.7041    10.1405     9.2830     8.4420   754.7320    92.2816
 1885.5000   130.2442     0.3364     9.3735     2.4334     0.0169   -28.8968     9.8908     9.1681     8.3541   754.9650    91.9863
 1886.0000   129.0638     0.3245     9.3733     2.4354     0.0150   -28.9019     9.7995     9.0318     8.2500   755.3533    91.8873
 1886.5000   129.6528     0.3221     9.4126     2.4374     0.0129   -28.9054     9.8805     8.9488     8.1742   755.6639    92.2792
 1887.0000   134.0711     0.3189     9.4122     2.4454     0.0129   -28.8507     9.9623     8.9476     8.1723   756.1299    92.5730
 1887.5000   132.3013     0.3173     9.4116     2.4454     0.0129   -28.7961    10.0447     9.0647     8.1719   736.9353    92.2776
 1888.0000   128.9499     0.3149     9.4113     2.4433     0.0149   -28.7415    10.1503     9.1833     8.3683   737.3237    91.4913
 1888.5000   125.5985     0.3150     9.4109     2.4393     0.0128   -28.6868    10.3344     9.3035     8.7011   737.7118    91.0979
 1889.0000   122.2471     0.3166     9.4361     2.4372     0.0142   -28.6322    10.7131     9.4253     8.6991   738.1000    90.6062
 1889.5000   118.8957     0.3046     9.4498     2.4392     0.0168   -28.5534    11.2199     9.5210     8.6968   738.2553    90.1146
 1890.0000   117.2552     0.3022     9.4494     2.4493     0.0228   -28.5551    11.7507     9.6927     8.6964   738.8764    89.8193
 1890.5000   117.2542     0.2991     9.4089     2.4533     0.0247   -28.5568    12.0427     9.6910     8.6258   739.3422    89.7202
