~VERSION INFORMATION
 VERS.               2.00:   CWLS LOG ASCII STANDARD - VERSION 2.00
 WRAP.                 NO:   ONE LINE PER DEPTH STEP
~WELL INFORMATION
#MNEM.UNIT      DATA TYPE    INFORMATION
#----------   ------------   ------------------------------
 STRT.F            0.0000:   START DEPTH
 STOP.F         5649.5000:   STOP DEPTH
 STEP.F            0.5000:   STEP LENGTH
 NULL.          -999.2500:   NO VALUE
 COMP.    FENIX & SCISSON:   COMPANY
 WELL.    FENIX WX #17-21:   WELL
 FLD .        TEAPOT DOME:   FIELD
 LOC .      S21 T39N R78W:   LOCATION
 STAT.            WYOMING:   STATE
 COUN.            NATRONA:   COUNTY
 SRVC.       SCHLUMBERGER:   SERVICE COMPANY
 DATE.        03-SEP-1978:   LOGDATE
 APIN.     49025107090000:   API NUMBER
~CURVE INFORMATION
#MNEM.UNIT       API CODE    CURVE DESCRIPTION
#----------   ------------   ------------------------------
 DEPT.F                  :
 GRD .GAPI   45 310 01 00:   GAMMA RAY
 NPHI.DEC    42 890 03 00:   NEUTRON POROSITY SANDSTONE
 CALD.IN     45 280 60 00:   CALIPER FROM DENSITY LOG
 RHOB.G/C3   45 350 01 00:   BULK DENSITY
 DRHO.G/C3   45 356 01 00:   DENSITY CORRECTION
 SPR .MV     07 010 01 00:   SPONTANEOUS POTENTIAL
 SFL .OHMM   07 220 01 00:   SHALLOW FOCUSED LOG RESISTIVITY
 ILM .OHMM   07 120 44 00:   INDUCTION LOG MEDIUM RESISTIVITY
 ILD .OHMM   07 120 46 00:   DEEP INDUCTION RESISTIVITY
 TENR.LBS    07 635 01 00:   TENSION FROM RESISTIVITY
 DT  .US/F   60 520 00 00:   DELTA TIME
~PARAMETER INFORMATION
#MNEM.UNIT          VALUE    DESCRIPTION
#----------   ------------   ------------------------------
 EKB .F         5001.0000:   KELLY BUSHING
 EGL .F            0.0000:   GROUND LEVEL
 EDF .F            0.0000:   DRILLING FLOOR
 EPD .F            0.0000:   PERMANENT DATUM
 TD  .F         5655.0000:   TOTAL DEPTH
 DATE.        03-SEP-1978:   DATE LOGGED
 CLNT.            A2DTECH:   CLIENT CODE
 SL  . 750' FSL & 490' FWL:   SURFACE LOCATION
 PD  .                 GL:   PERMANENT DATUM
 EPD .F              4997:   ELEVATION PERMANENT DATUM
 LMF .                 KB:   LOG MEASURED FROM
 DMF .                 KB:   DRILLING MEASURED FROM
 DAPD.F                10:   FEET ABOVE PERMANENT DATUM
 EGL .F              4997:   ELEVATION GROUND LEVEL
 DD  .F              5655:   DEPTH DRILLER
 DL  .F              5642:   DEPTH LOGGER
 BLI .F              5636:   BOTTOM LOG INTERVAL
 TLI .F               502:   TOP LOG INTERVAL
 CS1 .IN            9.625:   CASING SIZE
 CBD1.      9.625" @ 501':   CASING DRILLER 1
 CBL1.F               502:   CASING LOGGER 1
 BS1 .IN             8.75:   BIT SIZE
 BSD1.F              5655:   DEPTH DRILLED WITH BIT1
 DFT .                FGM:   TYPE FLUID IN HOLE
 DFD .                9.4:   DENSITY
 DFV .                 63:   VISCOSITY
 DFPH.                 12:   PH
 DFL .                  8:   FLUID LOSS
 MSS .            MUD PIT:   SOURCE OF SAMPLE
 RMS .OHMM            .78:   RM
 MST .F                88:   RM MEAS. TEMP.
 RMF .OHMM            .63:   RMF
 MFST.F                88:   RMF MEAS. TEMP.
 MFSS.               MEAS:   SOURCE RMF.
 RMB .OHMM            .43:   RM. AT BHT
 BHT .F               160:   BHT.
 TCS .HRS            1000:   TIME CIRC. STOPPED
 TLAB.HRS            1530:   TIME LOGGER AT BOTTOM
 MRT .F               160:   MAXIMUM RECORDED TEMP.
 LUN .               8043:   LOGGING UNIT NUMBER
 LUL .               CSPR:   LOGGING UNIT LOCATION
 ENGI.             LARSON:   RECORDED BY
 WITN.           MCGINLEY:   WITNESSED BY
 ORIG.      2.5" 5" PRINT:   ORIGIN OF DATA
 UWI .     49025107090000:   UNIQUE WELL ID
 DICO. A2D TECHNOLOGIES, INC.:   DIGITIZING COMPANY
~A  DEPTH      GRD       NPHI       CALD       RHOB       DRHO        SPR        SFL        ILM        ILD       TENR         DT
# ...
  488.0000    64.8479     0.4406  -999.2500  -999.2500  -999.2500  -999.2500  -999.2500  -999.2500  -999.2500  -999.2500  -999.2500
  488.5000    64.8405     0.4398  -999.2500  -999.2500  -999.2500  -999.2500  -999.2500  -999.2500  -999.2500  -999.2500  -999.2500
  489.0000    64.8295     0.4478  -999.2500  -999.2500  -999.2500  -999.2500  -999.2500  -999.2500  -999.2500  -999.2500  -999.2500
  489.5000    64.8221     0.4661  -999.2500  -999.2500  -999.2500  -999.2500  -999.2500  -999.2500  -999.2500  -999.2500  -999.2500
  490.0000    65.4034     0.4669  -999.2500  -999.2500  -999.2500  -999.2500  -999.2500  -999.2500  -999.2500  -999.2500  -999.2500
  490.5000    65.3961     0.4566  -999.2500  -999.2500  -999.2500  -999.2500  -999.2500  -999.2500  -999.2500  -999.2500  -999.2500
  491.0000    65.3851     0.4566  -999.2500  -999.2500  -999.2500  -999.2500  -999.2500  -999.2500  -999.2500  -999.2500  -999.2500
  491.5000    65.3777     0.4598  -999.2500  -999.2500  -999.2500  -999.2500  -999.2500  -999.2500  -999.2500  -999.2500  -999.2500
  492.0000    64.7705     0.4677  -999.2500  -999.2500  -999.2500  -999.2500  -999.2500  -999.2500  -999.2500  -999.2500  -999.2500
  492.5000    65.0289     0.4693  -999.2500  -999.2500  -999.2500  -999.2500  -999.2500  -999.2500  -999.2500  -999.2500  -999.2500
  493.0000    65.2873     0.4685  -999.2500  -999.2500  -999.2500  -999.2500  -999.2500  -999.2500  -999.2500  -999.2500  -999.2500
  493.5000    65.5457     0.4558  -999.2500  -999.2500  -999.2500  -999.2500  -999.2500  -999.2500  -999.2500  -999.2500  -999.2500
  494.0000    65.8041     0.4407  -999.2500  -999.2500  -999.2500  -999.2500  -999.2500  -999.2500  -999.2500  -999.2500  -999.2500
  494.5000    66.0625     0.4439  -999.2500  -999.2500  -999.2500  -999.2500  -999.2500  -999.2500  -999.2500  -999.2500  -999.2500
  495.0000    66.3209     0.4463  -999.2500  -999.2500  -999.2500  -999.2500  -999.2500  -999.2500  -999.2500  -999.2500  -999.2500
  495.5000    67.0821     0.4495  -999.2500  -999.2500  -999.2500  -999.2500  -999.2500  -999.2500  -999.2500   312.1037  -999.2500
  496.0000    68.2485     0.4526  -999.2500  -999.2500  -999.2500  -999.2500  -999.2500  -999.2500  -999.2500   309.0152  -999.2500
  496.5000    69.4148     0.4613  -999.2500  -999.2500  -999.2500  -999.2500  -999.2500  -999.2500  -999.2500   305.9266  -999.2500
  497.0000    70.5812     0.4670  -999.2500  -999.2500  -999.2500  -999.2500  -999.2500  -999.2500  -999.2500   302.8381  -999.2500
  497.5000    71.1912     0.4614  -999.2500  -999.2500  -999.2500  -999.2500  -999.2500  -999.2500  -999.2500   299.7495  -999.2500
  498.0000    70.5912     0.4543  -999.2500  -999.2500  -999.2500  -999.2500  -999.2500  -999.2500  -999.2500   296.6610  -999.2500
  498.5000    69.9913     0.4479  -999.2500  -999.2500  -999.2500  -999.2500  -999.2500  -999.2500  -999.2500   293.5725  -999.2500
  499.0000    69.3876     0.4535  -999.2500  -999.2500  -999.2500  -999.2500  -999.2500  -999.2500  -999.2500   290.4839  -999.2500
  499.5000    67.0054     0.4614  -999.2500  -999.2500  -999.2500  -999.2500  -999.2500  -999.2500  -999.2500   287.3954  -999.2500
  500.0000    61.8639     0.4672     9.2269  -999.2500    -0.2429  -999.2500  -999.2500  -999.2500  -999.2500   284.3069  -999.2500
  500.5000    59.3511     0.4769     9.2277     2.0142    -0.2469  -999.2500  -999.2500  -999.2500  -999.2500   254.5212   110.2595
  501.0000    57.7031     0.4829     9.2282     2.0163    -0.2500    -1.1151  -999.2500  -999.2500  -999.2500   254.2124   116.4811
  501.5000    56.9226     0.4821     9.2285     2.1955    -0.1231    -2.2565  -999.2500  -999.2500  -999.2500   253.9248   115.3944
  502.0000    65.5242     0.4582     9.3092     2.4464    -0.1109    -4.4361     0.2112  -999.2500  -999.2500   253.5521    99.9876
  502.5000    74.1257     0.4343    10.8740     2.4546     0.1042    -6.6158     2.9932  -999.2500  -999.2500   253.1048    94.7534
  503.0000    82.7272     0.4026    11.6446     2.4282     0.1062    -8.7955     4.4524     3.7197  1195.4150   252.7320    95.1484
  503.5000    88.3613     0.3947    11.8679     2.4039     0.1083   -10.9752     6.6230     3.8919    67.3009   252.3593    97.4197
  504.0000    88.5596     0.3915    11.9805     2.3837     0.1354   -12.1488    11.1198     4.8877     2.3452   251.9865    94.7533
  504.5000    88.7580     0.4050    11.8613     2.4060     0.1571   -14.8123    11.0196     6.1382     1.9047   251.5392    93.7658
  505.0000    90.1530     0.4074    11.6054     2.4142     0.1591   -15.3817     7.4695     8.1771     7.8359   251.1664    93.5683
  505.5000    90.1572     0.4106    11.3496     2.4081     0.1103   -16.7113     7.4700    26.4153   129.1813   270.6650    93.8645
  506.0000    91.3464     0.3935    11.0937     2.4062     0.0616   -18.2325    11.0251   133.9701   150.6619   270.0688    94.3582
  506.5000    93.1302     0.3741    10.8379     2.4224     0.0031   -19.0072    19.8554    56.6068  1026.1841   269.6962    94.6545
  507.0000    95.5060     0.3494    10.5507     2.4570     0.0011   -19.0055    16.2517    23.9183    77.8952   289.1956    94.8519
  507.5000    97.2901     0.3478    10.5311     2.4610     0.0083   -19.3816    13.3020    10.6369    18.3059   268.8764    94.8519
  508.0000    97.2946     0.3319    10.4520     2.4712     0.0156   -19.7578    10.5429     9.3726     9.7849   268.5038    94.0620
  508.5000    97.8910     0.3343    10.4018     2.4672     0.0215   -20.6898     9.8074     9.0406     6.8913   268.2057    94.5556
  509.0000   100.8621     0.3399    10.3736     2.4591     0.0215   -20.6872     9.0417     9.0412     7.1309   287.3333    94.7530
  509.5000   102.0519     0.3614    10.3345     2.4551     0.0171   -21.0971     8.9609    17.9891     7.3789   286.9608    94.6543
  510.0000   104.4301     0.3733    10.2556     2.4531     0.0127   -21.5070     9.5320    14.9304     7.6356   286.5884    94.1606
  510.5000    97.3128     0.3677    10.2393     2.4593     0.0075   -21.9169     9.9919    12.3917     7.8971   286.2159    94.0619
  511.0000    97.9108     0.3272    10.2230     2.4816     0.0054   -22.3268     9.9031     9.3805     7.9699   285.7689    93.8644
  511.5000    99.1007     0.3232    10.2176     2.4918     0.0120   -22.7367     9.7233     9.0474     7.9708   285.3754    93.4695
  512.0000   102.6676     0.3288    10.2183     2.4959     0.0186   -23.1465     9.5466     8.8058     7.9719   285.0239    93.2721
  512.5000   102.0757     0.3407    10.2188     2.4959     0.0238   -23.7022     9.3732     8.7570     7.9729   284.6513    92.9759
  513.0000   101.4870     0.3399    10.2196     2.4940     0.0259   -23.8904     9.2030     8.7084     7.9739   284.5768    92.7785
  513.5000   101.4901     0.3249    10.2410     2.4940     0.0266   -24.2675     9.0521     8.6602     7.9749   283.8318    92.4823
  514.0000   101.4949     0.3098    10.2606     2.4961     0.0274   -24.6447     8.8908     8.6122     7.9760   283.4592    92.1862
  514.5000    99.7189     0.2986    10.2611     2.4981     0.0281   -25.0218     8.8910     8.5645     7.9770   283.3102    91.9888
  515.0000    99.1284     0.2986    10.2619     2.5083     0.0288   -25.0166     8.8924     8.5002     7.9780   302.3658    91.7914
  515.5000    96.7586     0.2936    10.2988     2.5104     0.0296   -25.0123     8.8938     8.4240     7.9069   262.6150    91.7914
  516.0000    96.7616     0.2987    10.2629     2.5094     0.0303   -25.5802     8.8952     8.4252     7.9075   262.3913    91.9888
  516.5000    97.3598     0.3114    10.2785     2.5054     0.0310   -25.7666     8.8969     8.4261     7.7945   262.0931    92.4824
  517.0000    92.0197     0.3090    10.2941     2.5034     0.0262   -26.1430     8.8978     8.3514     7.6831   261.6674    92.8772
  517.5000    90.8365     0.3066    10.3047     2.4994     0.0242   -26.1387     8.8989     8.3033     7.5734   261.2417    93.1733
  518.0000    93.2142     0.3019    10.3054     2.4873     0.0242   -26.3251     8.8997     8.2554     7.4652   260.8159    93.6668
