~VERSION INFORMATION
 VERS.               2.00:   CWLS LOG ASCII STANDARD - VERSION 2.00
 WRAP.                 NO:   ONE LINE PER DEPTH STEP
~WELL INFORMATION
#MNEM.UNIT      DATA TYPE    INFORMATION
#----------   ------------   ------------------------------
 STRT.F            0.0000:   START DEPTH
 STOP.F         5649.5000:   STOP DEPTH
 STEP.F            0.5000:   STEP LENGTH
 NULL.          -999.2500:   NO VALUE
 COMP.    FENIX & SCISSON:   COMPANY
 WELL.    FENIX WX #17-21:   WELL
 FLD .        TEAPOT DOME:   FIELD
 LOC .      S21 T39N R78W:   LOCATION
 STAT.            WYOMING:   STATE
 COUN.            NATRONA:   COUNTY
 SRVC.       SCHLUMBERGER:   SERVICE COMPANY
 DATE.        03-SEP-1978:   LOGDATE
 APIN.     49025107090000:   API NUMBER
~CURVE INFORMATION
#MNEM.UNIT       API CODE    CURVE DESCRIPTION
#----------   ------------   ------------------------------
 DEPT.F                  :
 GRD .GAPI   45 310 01 00:   GAMMA RAY
 NPHI.DEC    42 890 03 00:   NEUTRON POROSITY SANDSTONE
 CALD.IN     45 280 60 00:   CALIPER FROM DENSITY LOG
 RHOB.G/C3   45 350 01 00:   BULK DENSITY
 DRHO.G/C3   45 356 01 00:   DENSITY CORRECTION
 SPR .MV     07 010 01 00:   SPONTANEOUS POTENTIAL
 SFL .OHMM   07 220 01 00:   SHALLOW FOCUSED LOG RESISTIVITY
 ILM .OHMM   07 120 44 00:   INDUCTION LOG MEDIUM RESISTIVITY
 ILD .OHMM   07 120 46 00:   DEEP INDUCTION RESISTIVITY
 TENR.LBS    07 635 01 00:   TENSION FROM RESISTIVITY
 DT  .US/F   60 520 00 00:   DELTA TIME
~PARAMETER INFORMATION
#MNEM.UNIT          VALUE    DESCRIPTION
#----------   ------------   ------------------------------
 EKB .F         5001.0000:   KELLY BUSHING
 EGL .F            0.0000:   GROUND LEVEL
 EDF .F            0.0000:   DRILLING FLOOR
 EPD .F            0.0000:   PERMANENT DATUM
 TD  .F         5655.0000:   TOTAL DEPTH
 DATE.        03-SEP-1978:   DATE LOGGED
 CLNT.            A2DTECH:   CLIENT CODE
 SL  . 750' FSL & 490' FWL:   SURFACE LOCATION
 PD  .                 GL:   PERMANENT DATUM
 EPD .F              4997:   ELEVATION PERMANENT DATUM
 LMF .                 KB:   LOG MEASURED FROM
 DMF .                 KB:   DRILLING MEASURED FROM
 DAPD.F                10:   FEET ABOVE PERMANENT DATUM
 EGL .F              4997:   ELEVATION GROUND LEVEL
 DD  .F              5655:   DEPTH DRILLER
 DL  .F              5642:   DEPTH LOGGER
 BLI .F              5636:   BOTTOM LOG INTERVAL
 TLI .F               502:   TOP LOG INTERVAL
 CS1 .IN            9.625:   CASING SIZE
 CBD1.      9.625" @ 501':   CASING DRILLER 1
 CBL1.F               502:   CASING LOGGER 1
 BS1 .IN             8.75:   BIT SIZE
 BSD1.F              5655:   DEPTH DRILLED WITH BIT1
 DFT .                FGM:   TYPE FLUID IN HOLE
 DFD .                9.4:   DENSITY
 DFV .                 63:   VISCOSITY
 DFPH.                 12:   PH
 DFL .                  8:   FLUID LOSS
 MSS .            MUD PIT:   SOURCE OF SAMPLE
 RMS .OHMM            .78:   RM
 MST .F                88:   RM MEAS. TEMP.
 RMF .OHMM            .63:   RMF
 MFST.F                88:   RMF MEAS. TEMP.
 MFSS.               MEAS:   SOURCE RMF.
 RMB .OHMM            .43:   RM. AT BHT
 BHT .F               160:   BHT.
 TCS .HRS            1000:   TIME CIRC. STOPPED
 TLAB.HRS            1530:   TIME LOGGER AT BOTTOM
 MRT .F               160:   MAXIMUM RECORDED TEMP.
 LUN .               8043:   LOGGING UNIT NUMBER
 LUL .               CSPR:   LOGGING UNIT LOCATION
 ENGI.             LARSON:   RECORDED BY
 WITN.           MCGINLEY:   WITNESSED BY
 ORIG.      2.5" 5" PRINT:   ORIGIN OF DATA
 UWI .     49025107090000:   UNIQUE WELL ID
 DICO. A2D TECHNOLOGIES, INC.:   DIGITIZING COMPANY
~A  DEPTH      GRD       NPHI       CALD       RHOB       DRHO        SPR        SFL        ILM        ILD       TENR         DT
# ...
 1159.0000   101.7029     0.3343    10.7332     2.4944     0.0771   -27.4663     7.0856     6.7899     6.2834   484.8885    94.1267
 1159.5000   101.1171     0.3257    10.7959     2.4964     0.0630   -28.0328     7.0860     6.7464     6.2621   500.2352    93.5352
 1160.0000    99.9407     0.3198    10.9148     2.5104     0.0650   -27.8413     7.0754     6.7031     6.2408   499.7809    92.9437
 1160.5000    99.9547     0.3206    10.9536     2.5144     0.1032   -27.6487     7.0648     6.6559     6.2196   499.0995    93.3367
 1161.0000   100.5593     0.3341    10.9929     2.5124     0.1072   -27.2283     7.0543     6.5969     6.1985   498.5334    93.9265
 1161.5000   102.9543     0.3333    10.9919     2.5104     0.0932   -26.8080     7.0437     6.5976     6.1775   497.9639    94.1226
 1162.0000   103.5589     0.3276    10.7519     2.5143     0.0549   -26.3101     7.0335     6.5995     6.1565   497.3961    93.6295
 1162.5000   103.5729     0.3219    10.6716     2.5183     0.0429   -26.3091     7.0349     6.6015     6.1409   496.8282    93.0381
 1163.0000   103.5823     0.3133    10.5512     2.5283     0.0469   -26.5616     7.0368     6.6035     6.1418   496.1469    93.2342
 1163.5000   106.5725     0.3133    10.5505     2.5343     0.0650   -26.8142     7.0390     6.6054     6.1497   476.1218    93.7256
 1164.0000   109.5579     0.3125    10.6293     2.5394     0.0810   -27.0597     7.0393     6.6074     6.1575   534.3800    94.0200
 1164.5000   110.1672     0.3125    10.6688     2.5142     0.0710   -27.0571     7.0674     6.6094     6.1654   533.8121    93.5269
 1165.0000   109.5814     0.3125    10.6277     2.5001     0.0649   -27.0566     7.0956     6.6114     6.1733   493.9892    93.4277
 1165.5000   109.0002     0.3125    10.6274     2.5001     0.0669   -26.8608     7.1109     6.6133     6.1812   493.2649    93.8207
 1166.0000   106.6287     0.3196    10.4668     2.5121     0.0750   -26.8592     7.1127     6.6153     6.1891   492.6264    94.2136
 1166.5000   107.8332     0.3284    10.5199     2.5121     0.0951   -26.8572     7.0504     6.6169     6.1970   492.0586    94.4097
 1167.0000   109.0377     0.3268    10.5448     2.5100     0.0806   -27.4230     7.0519     6.6183     6.2049   502.1487    94.3105
 1167.5000   109.6423     0.3182    10.5442     2.5140     0.0779   -27.4214     7.0616     6.6152     6.1020   510.6073    93.6204
 1168.0000   107.2755     0.3096    10.4636     2.5401     0.0820   -27.4210     7.0714     6.6121     6.1030   490.2415    93.0290
 1168.5000   106.0944     0.2997    10.5725     2.5521     0.0840   -27.0345     7.0812     6.6090     6.0734   509.4717    92.4376
 1169.0000   104.9180     0.2952    10.5815     2.5601     0.0890   -26.6527     7.0911     6.6059     6.0439   489.1059    91.6493
 1169.5000   104.9274     0.2912    10.5809     2.5561     0.0940   -26.6501     7.1009     6.6028     6.0146   488.5381    91.9438
 1170.0000   105.5367     0.2904    10.5401     2.5500     0.0980   -26.6490     7.1107     6.5997     5.9854   487.9703    92.6321
 1170.5000   104.9508     0.3082    10.5674     2.5500     0.1443   -26.6964     7.1206     6.5966     5.9564   487.2889    92.8280
 1171.0000   103.7745     0.3167    10.5784     2.5500     0.1463   -26.7437     7.1329     6.5936     5.9275   486.4939    91.6460
 1171.5000   102.5934     0.3253    10.5376     2.5499     0.1503   -26.7910     7.1340     6.5905     5.8977   466.4689    91.7436
 1172.0000   100.2266     0.3338    10.4573     2.5419     0.1604   -26.6366     7.1183     6.5874     5.8992   466.0146    93.4162
 1172.5000   100.8312     0.3423    10.4569     2.5278     0.1624   -26.6340     7.1027     6.5843     5.9008   465.5604    95.2857
 1173.0000   103.8213     0.3509    10.4955     2.4936     0.1483   -26.4413     7.0871     6.5809     5.9020   471.5857    95.8755
 1173.5000   103.8354     0.3602    10.5344     2.4594     0.1473   -26.2485     7.0716     6.5816     5.9035   477.6111    95.3823
 1174.0000   103.8448     0.3435    10.5338     2.4643     0.1090   -26.2458     7.0560     6.5243     5.9190   483.6364    94.3972
 1174.5000   102.6684     0.3291    10.5328     2.4562     0.0909   -26.4330     7.0406     6.5369     5.9345   489.6617    93.6090
 1175.0000   101.4873     0.3307    10.5724     2.5106     0.0929   -26.4304     6.8933     6.5495     5.9501   495.6871    92.7223
 1175.5000   101.5014     0.3411    10.5711     2.5367     0.1473   -26.2375     7.0212     6.5622     5.9657   501.7124    92.8199
 1176.0000   100.9155     0.3403    10.6103     2.5488     0.1533   -26.6155     7.0223     6.5749     5.9813   507.7378    93.0160
 1176.5000   100.9296     0.3270    10.4898     2.5609     0.1241   -26.4226     7.0889     6.5876     5.9970   513.7631    92.6213
 1177.0000   102.1294     0.3115    10.4497     2.5416     0.1100   -26.4189     7.0900     6.6003     6.0127   519.0489    91.9315
 1177.5000   103.3339     0.3123    10.2586     2.5306     0.1044   -26.4169     7.1202     6.6131     6.0799   518.4810    91.9307
 1178.0000   102.4481     0.3199    10.1689     2.5184     0.1079   -26.4154     7.1506     6.6259     6.0809   517.7997    92.4221
 1178.5000   101.2717     0.3275    10.2078     2.5205     0.1180   -26.5010     7.1811     6.6387     6.0831   536.9162    92.8150
 1179.0000   100.9858     0.3352    10.2075     2.5386     0.1281   -26.5866     7.2118     6.6515     6.0844   496.9797    92.7158
 1179.5000   102.1903     0.3386    10.2859     2.5486     0.1351   -26.6722     7.2306     6.6641     6.0861   511.9512    92.3211
 1180.0000   103.6947     0.3187    10.3251     2.5492     0.1412   -26.7578     7.2325     6.6659     6.0879   515.5284    92.3203
 1180.5000   101.0233     0.3179    10.2445     2.5626     0.1492   -26.8434     7.1691     6.6677     6.0896   514.8470    92.3196
 1181.0000   101.0374     0.3210    10.2442     2.5787     0.1593   -26.9678     7.1703     6.6695     6.0913   455.6803    92.3188
 1181.5000   101.0468     0.3250    10.2827     2.5646     0.1653   -26.9668     7.1714     6.6714     6.0931   454.6583    92.1211
 1182.0000   105.8226     0.3242    10.4016     2.5364     0.1089   -26.2021     7.1519     6.6732     6.0948   454.0904    92.6125
 1182.5000   106.4272     0.3134    10.4405     2.5162     0.0948   -26.7707     7.1325     6.6750     6.0968   493.0049    93.7927
 1183.0000   107.6317     0.3067    10.4800     2.5433     0.1048   -27.1475     7.1131     6.6768     6.0431   492.2372    94.0870
 1183.5000   109.7219     0.3075    10.5584     2.5423     0.1169   -27.1465     7.0938     6.6786     6.0446   491.6422    93.2989
 1184.0000   100.5125     0.3238    10.5976     2.5030     0.0957   -27.5247     7.0746     6.6805     6.0462   491.0744    92.7076
 1184.5000    98.7362     0.3441    10.5967     2.5070     0.0816   -27.3318     7.0558     6.6823     6.0475   529.8753    92.6083
 1185.0000    98.7502     0.3449    10.5559     2.5230     0.0836   -26.7574     7.0577     6.6841     6.0569   489.9387    92.7060
 1185.5000    99.9547     0.3358    10.4520     2.5351     0.0836   -26.3739     7.0588     6.6859     6.0664   489.2573    92.7052
 1186.0000   104.1307     0.3234    10.3950     2.5391     0.0856   -25.9904     7.0613     6.6878     6.0759   488.6895    92.5074
 1186.5000   105.3352     0.3250    10.3943     2.5330     0.0856   -25.7984     7.1271     6.6896     6.0854   488.1217    92.2114
 1187.0000   105.9397     0.3257    10.3934     2.5330     0.0876   -25.7931     7.1279     6.6914     6.0949   487.5539    92.1121
 1187.5000   105.3586     0.3257    10.4187     2.5330     0.0817   -26.1725     7.1678     6.6932     6.1044   486.9113    92.1114
 1188.0000   103.5823     0.3122    10.3918     2.5390     0.0856   -25.9795     7.2080     6.6949     6.1150   486.3047    92.1106
 1188.5000   102.4059     0.3138    10.3514     2.5430     0.0799   -25.9769     7.2484     6.6966     6.1160   485.7369    91.9130
 1189.0000   101.8201     0.3222    10.3106     2.5510     0.0775   -25.9743     7.2891     6.6973     6.1176   498.3229    91.6168
