~VERSION INFORMATION
 VERS.               2.00:   CWLS LOG ASCII STANDARD - VERSION 2.00
 WRAP.                 NO:   ONE LINE PER DEPTH STEP
~WELL INFORMATION
#MNEM.UNIT      DATA TYPE    INFORMATION
#----------   ------------   ------------------------------
 STRT.F            0.0000:   START DEPTH
 STOP.F         5649.5000:   STOP DEPTH
 STEP.F            0.5000:   STEP LENGTH
 NULL.          -999.2500:   NO VALUE
 COMP.    FENIX & SCISSON:   COMPANY
 WELL.    FENIX WX #17-21:   WELL
 FLD .        TEAPOT DOME:   FIELD
 LOC .      S21 T39N R78W:   LOCATION
 STAT.            WYOMING:   STATE
 COUN.            NATRONA:   COUNTY
 SRVC.       SCHLUMBERGER:   SERVICE COMPANY
 DATE.        03-SEP-1978:   LOGDATE
 APIN.     49025107090000:   API NUMBER
~CURVE INFORMATION
#MNEM.UNIT       API CODE    CURVE DESCRIPTION
#----------   ------------   ------------------------------
 DEPT.F                  :
 GRD .GAPI   45 310 01 00:   GAMMA RAY
 NPHI.DEC    42 890 03 00:   NEUTRON POROSITY SANDSTONE
 CALD.IN     45 280 60 00:   CALIPER FROM DENSITY LOG
 RHOB.G/C3   45 350 01 00:   BULK DENSITY
 DRHO.G/C3   45 356 01 00:   DENSITY CORRECTION
 SPR .MV     07 010 01 00:   SPONTANEOUS POTENTIAL
 SFL .OHMM   07 220 01 00:   SHALLOW FOCUSED LOG RESISTIVITY
 ILM .OHMM   07 120 44 00:   INDUCTION LOG MEDIUM RESISTIVITY
 ILD .OHMM   07 120 46 00:   DEEP INDUCTION RESISTIVITY
 TENR.LBS    07 635 01 00:   TENSION FROM RESISTIVITY
 DT  .US/F   60 520 00 00:   DELTA TIME
~PARAMETER INFORMATION
#MNEM.UNIT          VALUE    DESCRIPTION
#----------   ------------   ------------------------------
 EKB .F         5001.0000:   KELLY BUSHING
 EGL .F            0.0000:   GROUND LEVEL
 EDF .F            0.0000:   DRILLING FLOOR
 EPD .F            0.0000:   PERMANENT DATUM
 TD  .F         5655.0000:   TOTAL DEPTH
 DATE.        03-SEP-1978:   DATE LOGGED
 CLNT.            A2DTECH:   CLIENT CODE
 SL  . 750' FSL & 490' FWL:   SURFACE LOCATION
 PD  .                 GL:   PERMANENT DATUM
 EPD .F              4997:   ELEVATION PERMANENT DATUM
 LMF .                 KB:   LOG MEASURED FROM
 DMF .                 KB:   DRILLING MEASURED FROM
 DAPD.F                10:   FEET ABOVE PERMANENT DATUM
 EGL .F              4997:   ELEVATION GROUND LEVEL
 DD  .F              5655:   DEPTH DRILLER
 DL  .F              5642:   DEPTH LOGGER
 BLI .F              5636:   BOTTOM LOG INTERVAL
 TLI .F               502:   TOP LOG INTERVAL
 CS1 .IN            9.625:   CASING SIZE
 CBD1.      9.625" @ 501':   CASING DRILLER 1
 CBL1.F               502:   CASING LOGGER 1
 BS1 .IN             8.75:   BIT SIZE
 BSD1.F              5655:   DEPTH DRILLED WITH BIT1
 DFT .                FGM:   TYPE FLUID IN HOLE
 DFD .                9.4:   DENSITY
 DFV .                 63:   VISCOSITY
 DFPH.                 12:   PH
 DFL .                  8:   FLUID LOSS
 MSS .            MUD PIT:   SOURCE OF SAMPLE
 RMS .OHMM            .78:   RM
 MST .F                88:   RM MEAS. TEMP.
 RMF .OHMM            .63:   RMF
 MFST.F                88:   RMF MEAS. TEMP.
 MFSS.               MEAS:   SOURCE RMF.
 RMB .OHMM            .43:   RM. AT BHT
 BHT .F               160:   BHT.
 TCS .HRS            1000:   TIME CIRC. STOPPED
 TLAB.HRS            1530:   TIME LOGGER AT BOTTOM
 MRT .F               160:   MAXIMUM RECORDED TEMP.
 LUN .               8043:   LOGGING UNIT NUMBER
 LUL .               CSPR:   LOGGING UNIT LOCATION
 ENGI.             LARSON:   RECORDED BY
 WITN.           MCGINLEY:   WITNESSED BY
 ORIG.      2.5" 5" PRINT:   ORIGIN OF DATA
 UWI .     49025107090000:   UNIQUE WELL ID
 DICO. A2D TECHNOLOGIES, INC.:   DIGITIZING COMPANY
~A  DEPTH      GRD       NPHI       CALD       RHOB       DRHO        SPR        SFL        ILM        ILD       TENR         DT
# ...
 3904.0000    96.2439     0.2776     9.7305     2.5323     0.0500   -32.4661     4.3582     4.0902     3.7593  1356.7164    85.9487
 3904.5000    86.6857     0.2528     9.7698     2.5707     0.0520   -32.6572     4.5187     4.2409     4.0896  1354.7830    83.9716
 3905.0000    77.1276     0.2280     9.7698     2.5747     0.0662   -32.6572     4.9472     4.4775     4.3180  1352.8496    81.9946
 3905.5000    67.5694     0.2032     9.6905     2.5626     0.0520   -32.6572     5.3190     4.8140     4.4370  1350.9163    79.6222
 3906.0000    58.0112     0.1824     9.6111     2.5525     0.0399   -32.8482     5.9300     5.1293     5.9297  1348.9828    77.6452
 3906.5000    48.4530     0.1160     9.5317     2.5565     0.0338   -32.8482     6.3760     6.5940     6.0932  1347.0494    71.3227
 3907.0000    40.0974     0.1128     9.4921     2.5707     0.0298   -32.8482    11.9199     8.4769     7.9941  1345.1160    66.8764
 3907.5000    40.0906     0.1006     9.4921     2.5969     0.0480   -32.8482    18.4202    10.8975    10.4879  1343.1826    65.7883
 3908.0000    41.2724     0.0888     9.4921     2.5969     0.0540   -32.8482    25.3000    12.8148    12.2467  1341.2491    65.3916
 3908.5000    48.7269     0.0936     9.4524     2.5788     0.0500   -32.6572    25.2995    13.2875    12.2460  1339.3158    64.2663
 3909.0000    56.1814     0.1051     9.4524     2.5444     0.0399   -32.4186    22.2817    13.0479    11.7023  1337.3824    67.7583
 3909.5000    63.6359     0.1167     9.4921     2.5303     0.0298   -32.1801    17.2832    12.8131    11.1831  1335.2736    71.1140
 3910.0000    72.5762     0.1313     9.5317     2.5222     0.0217   -31.9415    12.0236    11.4502    10.0377  1335.1527    73.0874
 3910.5000    75.5290     0.1460     9.6111     2.5222     0.0177   -31.7017     9.5835    10.2324     9.0097  1335.0016    73.7770
 3911.0000    79.0730     0.1607     9.6508     2.5202     0.0157   -31.3196     8.8316     9.1440     8.0870  1334.9109    74.1702
 3911.5000    81.4340     0.1754     9.6508     2.5161     0.0157   -31.3196     8.0651     8.1714     7.2587  1339.1353    74.4647
 3912.0000    81.4319     0.1912     9.6508     2.5202     0.0177   -31.7017     7.6374     7.3023     6.4866  1343.3597    74.9564
 3912.5000    79.6553     0.1920     9.6114     2.5242     0.0177   -31.5097     7.1669     6.6652     6.2551  1347.5841    75.0534
 3913.0000    73.7416     0.1734     9.5717     2.5485     0.0258   -31.3177     6.9739     6.4857     6.1421  1351.8085    75.0523
 3913.5000    67.8263     0.1548     9.5321     2.5545     0.0359   -31.1285     7.0369     6.4852     6.1417  1356.0330    74.5561
 3914.0000    60.7293     0.1362     9.4182     2.5444     0.0439   -31.3196     7.2306     6.5441     6.3407  1360.2573    71.5917
 3914.5000    63.0900     0.1176     9.4527     2.5222     0.0460   -31.5734     8.8274     6.7951     6.5461  1364.4817    68.5281
 3915.0000    66.0435     0.1080     9.4527     2.5081     0.0151   -31.8928    11.0738     7.1639     6.8462  1368.7061    66.8475
 3915.5000    68.4047     0.1136     9.4527     2.5040     0.0059   -31.8928    11.3789     7.2289     6.8458  1372.9305    66.0558
 3916.0000    87.0321     0.1272     9.4924     2.5242     0.0056   -31.8928    11.3783     7.2942     6.7835  1377.1549    64.6329
 3916.5000    93.8250     0.1328     9.5251     2.5404     0.0056   -31.6449    11.1730     7.1626     6.6610  1381.3793    65.5582
 3917.0000   104.5671     0.1592     9.5321     2.5404     0.0056   -31.3971    10.3900     6.7946     6.3651  1385.6038    67.6303
 3917.5000   113.3355     0.2027     9.6114     2.5283     0.0015   -31.1285     8.5867     6.4456     5.9189  1391.8187    72.7637
 3918.0000   111.5609     0.2236     9.6511     2.5262    -0.0025   -30.9374     7.1367     6.1144     5.4050  1391.7588    75.6258
 3918.5000   103.4216     0.2408     9.6511     2.5273    -0.0045   -30.9374     5.5535     5.8003     5.0718  1391.6093    78.0929
 3919.0000    94.1145     0.2352     9.6511     2.5432    -0.0045   -30.9374     5.7313     5.5023     5.0256  1391.5793    79.6711
 3919.5000    92.3375     0.2296     9.6908     2.5591     0.0035   -31.2718     5.9148     5.3064     5.0253  1389.0035    78.8793
 3920.0000    91.1518     0.2240     9.7305     2.5737     0.0157   -31.7017     6.1042     5.3060     5.0247  1386.4279    77.0009
 3920.5000    91.1499     0.2176     9.7305     2.5778     0.0313   -31.7017     6.2997     5.3057     5.0245  1383.8521    77.0979
 3921.0000    90.5556     0.2232     9.8098     2.5818     0.0454   -31.5241     6.3610     5.3050     5.0696  1381.2762    77.6886
 3921.5000    90.5537     0.2394     9.8892     2.5899     0.0475   -31.3465     6.3033     5.3049     5.1621  1378.7004    78.2794
 3922.0000    88.7762     0.2557    10.0083     2.5980     0.0454   -31.1689     5.8080     5.5939     5.3041  1376.1248    78.5738
 3922.5000    88.7743     0.2752    10.0479     2.5747     0.0338   -30.9374     5.8077     5.8606     5.4999  1373.5490    78.4730
 3923.0000    88.1798     0.2744    10.0479     2.5687     0.0278   -30.9374     5.9675     5.9138     5.6512  1370.9731    78.0762
 3923.5000    88.1779     0.2482     9.9686     2.5606     0.0197   -30.8956     6.4164     6.1352     5.7545  1368.3975    77.4816
 3924.0000    90.5416     0.2144     9.8098     2.5626     0.0157   -30.8538     6.9622     6.3648     5.8593  1365.8217    76.9864
 3924.5000    91.1315     0.2136     9.7834     2.5727     0.0096   -30.8120     7.6928     6.6030     6.0753  1363.2458    75.7993
 3925.0000    94.9707     0.2176     9.7702     2.5828     0.0076   -30.7701     7.7624     6.7741     6.0749  1360.6702    76.1925
 3925.5000    96.1533     0.2285     9.7702     2.5889     0.0056   -30.7283     7.6221     6.7736     6.0744  1358.0944    77.1782
 3926.0000    97.8954     0.2393     9.7702     2.5828     0.0035   -30.6865     7.6220     6.6175     5.9648  1355.5186    78.5589
 3926.5000    99.6981     0.2502     9.7702     2.5626     0.0015   -30.6447     7.2202     6.4650     5.9102  1352.9429    79.7421
 3927.0000    99.1047     0.2600     9.7702     2.5586     0.0035   -30.6029     6.8396     6.3160     5.8034  1349.4510    79.9378
 3927.5000    88.4579     0.2592     9.7702     2.5646     0.0015   -30.5552     6.6496     6.1837     5.6985  1349.3606    78.4545
 3928.0000    79.5696     0.2284     9.7702     2.5707     0.0015   -30.5552     6.8327     6.2967     5.6468  1349.2391    76.8728
 3928.5000    78.3848     0.1864     9.7702     2.5929     0.0015   -30.5552     7.2806     7.1996     6.4364  1349.1788    74.4023
 3929.0000    74.5427     0.1840     9.7702     2.6010     0.0035   -30.4223     8.3423     8.2319     7.3364  1350.5104    68.3767
 3929.5000    70.7005     0.1614     9.7702     2.6232     0.0035   -30.2893    13.3761     9.4122     8.3622  1351.8420    67.1900
 3930.0000    66.8584     0.1288     9.7702     2.6353     0.0177   -30.1563    13.6208    10.7617     9.5315  1353.1737    66.1020
 3930.5000    62.9800     0.1280     9.7921     2.6353     0.0258   -29.9820    16.9368    11.8855    10.9525  1354.5052    65.4091
 3931.0000    62.3852     0.1296     9.8098     2.6232     0.0177   -29.9820    16.7830    12.3244    11.3572  1355.8370    64.1846
 3931.5000    62.3825     0.1397     9.8098     2.6050     0.0136   -29.9820    15.7483    12.6640    11.6700  1357.1686    64.1832
 3932.0000    68.2139     0.1497     9.8098     2.6030     0.0056   -29.8352    14.3803    12.6633    11.3557  1358.5002    64.5761
 3932.5000    74.0454     0.1598     9.8098     2.6070     0.0035   -29.6884    13.7416    11.7755    10.5593  1359.8319    65.3030
 3933.0000    79.8768     0.1696     9.8098     2.6030     0.0076   -29.5416    12.2712    10.7045     9.6722  1361.1635    66.3875
 3933.5000    85.7083     0.1887     9.8678     2.5949     0.0096   -29.4088    10.9582     9.7310     8.8596  1362.4951    69.0518
 3934.0000    94.3381     0.2078     9.8495     2.5767     0.0030   -29.5998     9.7857     8.8460     8.1153  1363.8268    71.7158
