~VERSION INFORMATION
 VERS.               2.00:   CWLS LOG ASCII STANDARD - VERSION 2.00
 WRAP.                 NO:   ONE LINE PER DEPTH STEP
~WELL INFORMATION
#MNEM.UNIT      DATA TYPE    INFORMATION
#----------   ------------   ------------------------------
 STRT.F            0.0000:   START DEPTH
 STOP.F         5649.5000:   STOP DEPTH
 STEP.F            0.5000:   STEP LENGTH
 NULL.          -999.2500:   NO VALUE
 COMP.    FENIX & SCISSON:   COMPANY
 WELL.    FENIX WX #17-21:   WELL
 FLD .        TEAPOT DOME:   FIELD
 LOC .      S21 T39N R78W:   LOCATION
 STAT.            WYOMING:   STATE
 COUN.            NATRONA:   COUNTY
 SRVC.       SCHLUMBERGER:   SERVICE COMPANY
 DATE.        03-SEP-1978:   LOGDATE
 APIN.     49025107090000:   API NUMBER
~CURVE INFORMATION
#MNEM.UNIT       API CODE    CURVE DESCRIPTION
#----------   ------------   ------------------------------
 DEPT.F                  :
 GRD .GAPI   45 310 01 00:   GAMMA RAY
 NPHI.DEC    42 890 03 00:   NEUTRON POROSITY SANDSTONE
 CALD.IN     45 280 60 00:   CALIPER FROM DENSITY LOG
 RHOB.G/C3   45 350 01 00:   BULK DENSITY
 DRHO.G/C3   45 356 01 00:   DENSITY CORRECTION
 SPR .MV     07 010 01 00:   SPONTANEOUS POTENTIAL
 SFL .OHMM   07 220 01 00:   SHALLOW FOCUSED LOG RESISTIVITY
 ILM .OHMM   07 120 44 00:   INDUCTION LOG MEDIUM RESISTIVITY
 ILD .OHMM   07 120 46 00:   DEEP INDUCTION RESISTIVITY
 TENR.LBS    07 635 01 00:   TENSION FROM RESISTIVITY
 DT  .US/F   60 520 00 00:   DELTA TIME
~PARAMETER INFORMATION
#MNEM.UNIT          VALUE    DESCRIPTION
#----------   ------------   ------------------------------
 EKB .F         5001.0000:   KELLY BUSHING
 EGL .F            0.0000:   GROUND LEVEL
 EDF .F            0.0000:   DRILLING FLOOR
 EPD .F            0.0000:   PERMANENT DATUM
 TD  .F         5655.0000:   TOTAL DEPTH
 DATE.        03-SEP-1978:   DATE LOGGED
 CLNT.            A2DTECH:   CLIENT CODE
 SL  . 750' FSL & 490' FWL:   SURFACE LOCATION
 PD  .                 GL:   PERMANENT DATUM
 EPD .F              4997:   ELEVATION PERMANENT DATUM
 LMF .                 KB:   LOG MEASURED FROM
 DMF .                 KB:   DRILLING MEASURED FROM
 DAPD.F                10:   FEET ABOVE PERMANENT DATUM
 EGL .F              4997:   ELEVATION GROUND LEVEL
 DD  .F              5655:   DEPTH DRILLER
 DL  .F              5642:   DEPTH LOGGER
 BLI .F              5636:   BOTTOM LOG INTERVAL
 TLI .F               502:   TOP LOG INTERVAL
 CS1 .IN            9.625:   CASING SIZE
 CBD1.      9.625" @ 501':   CASING DRILLER 1
 CBL1.F               502:   CASING LOGGER 1
 BS1 .IN             8.75:   BIT SIZE
 BSD1.F              5655:   DEPTH DRILLED WITH BIT1
 DFT .                FGM:   TYPE FLUID IN HOLE
 DFD .                9.4:   DENSITY
 DFV .                 63:   VISCOSITY
 DFPH.                 12:   PH
 DFL .                  8:   FLUID LOSS
 MSS .            MUD PIT:   SOURCE OF SAMPLE
 RMS .OHMM            .78:   RM
 MST .F                88:   RM MEAS. TEMP.
 RMF .OHMM            .63:   RMF
 MFST.F                88:   RMF MEAS. TEMP.
 MFSS.               MEAS:   SOURCE RMF.
 RMB .OHMM            .43:   RM. AT BHT
 BHT .F               160:   BHT.
 TCS .HRS            1000:   TIME CIRC. STOPPED
 TLAB.HRS            1530:   TIME LOGGER AT BOTTOM
 MRT .F               160:   MAXIMUM RECORDED TEMP.
 LUN .               8043:   LOGGING UNIT NUMBER
 LUL .               CSPR:   LOGGING UNIT LOCATION
 ENGI.             LARSON:   RECORDED BY
 WITN.           MCGINLEY:   WITNESSED BY
 ORIG.      2.5" 5" PRINT:   ORIGIN OF DATA
 UWI .     49025107090000:   UNIQUE WELL ID
 DICO. A2D TECHNOLOGIES, INC.:   DIGITIZING COMPANY
~A  DEPTH      GRD       NPHI       CALD       RHOB       DRHO        SPR        SFL        ILM        ILD       TENR         DT
# ...
 3568.5000   111.2668     0.3715    11.0869     2.1961     0.1475   -32.9629     4.5453     3.5606     3.1354  1228.9642    89.7521
 3569.0000   112.4485     0.3488    11.2062     2.2021     0.0587   -32.9641     4.8051     3.3373     2.9691  1225.2878    88.6701
 3569.5000   114.2211     0.3188    10.9282     2.2354     0.0546   -32.9653     4.2409     3.1281     2.7862  1222.6036    88.3762
 3570.0000   115.9944     0.3180    10.3323     2.3282     0.2500   -32.9665     3.7429     2.9691     2.6384  1235.5249    90.3493
 3570.5000   114.8098     0.3284    10.2927     2.4776     0.2500   -32.9678     3.1354     2.8116     2.4313  1242.3274    93.7023
 3571.0000   111.8511     0.3529    10.6507     2.4715     0.2500   -32.7777     2.9962     2.6384     2.3876  1242.3274    97.1542
 3571.5000   108.8916     0.3774    10.8097     2.3948     0.2483   -32.9702     2.9691     2.5909     2.3660  1242.3274    98.6345
 3572.0000   106.5240     0.3970    11.6551     1.9639     0.2483   -33.1627     2.9691     2.6868     2.4759  1242.3274   104.9445
 3572.5000   107.1135     0.4744    12.3413     1.9175     0.1848   -33.1639     3.4965     2.7862     2.6625  1183.1558   108.9875
 3573.0000   112.7283     0.5008    13.3551     1.7378     0.1214   -32.9738     4.0069     3.4386     3.0935  1123.9843   109.2840
 3573.5000   108.8850     0.5144    13.5539     1.7620     0.0580   -32.7838     5.2630     4.5917     3.5943  1222.6036    97.8940
 3574.0000   102.3755     0.4420    12.4014     1.8683    -0.0055   -32.5937     8.2119     4.6336     4.1762  1242.3274    86.5039
 3574.5000    99.4148     0.3697    11.5271     2.2634    -0.0426   -32.2126     9.4964     5.3219     4.8523  1242.3274    77.1206
 3575.0000    98.8207     0.3004    10.6529     2.3290    -0.0007   -32.2136    10.2121     6.4259     5.6074  1242.3274    74.6956
 3575.5000    99.4108     0.2996    10.0958     2.6094     0.0421   -31.8320     8.6718     6.4259     5.7623  1242.3274    74.8949
 3576.0000   100.5920     0.2621    10.0164     2.5832     0.0400   -31.8327     8.8079     6.3102     5.6586  1222.6036    75.0938
 3576.5000   101.7740     0.2536    10.0166     2.5609     0.0354   -31.7441     8.9114     5.9755     5.0742  1222.6036    75.9827
 3577.0000   104.7308     0.2445    10.0167     2.5508     0.0475   -31.6449     8.9114     5.5065     4.8489  1222.6036    78.0544
 3577.5000   107.0967     0.2445    10.0567     2.5508     0.0878   -31.8372     5.7623     5.2144     4.4215  1222.6036    81.1121
 3578.0000   115.3805     0.2628    10.0568     2.5507     0.1020   -32.2209     4.2699     4.5917     4.0317  1242.3274    83.4796
 3578.5000   115.9713     0.2811    10.2957     2.5467     0.1851   -32.2222     3.7600     3.9347     3.6763  1224.2512    86.5370
 3579.0000   115.9697     0.3163    10.4151     2.5265     0.1892   -32.2234     3.7260     3.8992     3.4336  1143.7081    93.9315
 3579.5000   115.3767     0.3387    10.4947     2.5103     0.2436   -32.4159     3.7943     3.6108     3.4025  1222.6036    95.7079
 3580.0000   118.3348     0.3610    10.6937     2.4961     0.2271   -32.4171     3.8290     3.4025     3.2494  1237.9595    96.5969
 3580.5000   119.5178     0.3834    10.9724     2.4840     0.2106   -32.6096     3.9347     3.3413     3.1032  1242.3274    95.9087
 3581.0000   118.9244     0.3978    11.1714     2.4218     0.1941   -32.8020     3.9706     3.2540     2.9636  1242.3274    95.0234
 3581.5000   117.7394     0.3962    11.3308     2.4164     0.1849   -32.8033     3.7600     3.1690     2.8302  1242.3274    94.3352
 3582.0000   111.2254     0.3962    11.3310     2.3660     0.2106   -32.9957     3.6590     3.0863     2.7029  1242.3274    95.1260
 3582.5000   110.0401     0.3969    11.4110     2.3157     0.2453   -32.8057     3.4649     2.9962     2.6146  1222.6036    97.5921
 3583.0000   108.8539     0.4091    11.8090     2.2653     0.2433   -32.0420     3.2220     2.8893     2.6146  1222.6036    98.8754
 3583.5000   106.4842     0.4241    11.8887     2.1358     0.1763   -31.8521     3.1640     2.8116     2.6146  1242.3274    99.4686
 3584.0000   105.8901     0.4233    12.0482     2.0632     0.1081   -32.0445     3.2811     2.7438     2.5675  1242.3274    96.8090
 3584.5000   105.8887     0.4144    12.0883     2.0016     0.1181   -32.6194     3.3717     2.6775     2.5213  1242.3274    94.6426
 3585.0000   106.4788     0.4057    12.1701     2.0016     0.1382   -32.8118     3.3717     2.6129     2.4535  1222.6036    94.4473
 3585.5000   106.4768     0.4145    12.2480     1.9386     0.1583   -33.0042     3.2811     2.5498     2.3876  1222.6036    95.9281
 3586.0000    99.9609     0.4512    12.2878     1.7717     0.0990   -32.6225     3.1929     2.4883     2.3446  1222.6036    94.0567
 3586.5000    96.1042     0.4976    12.4073     1.6723     0.0433   -32.2419     3.0790     2.4282     2.2815  1222.6036    91.1013
 3587.0000    94.9189     0.4928    12.1292     1.7116     0.0352   -32.2431     2.9157     2.3876     2.2001  1222.6036    90.0188
 3587.5000    94.9180     0.4752    11.5324     1.7529     0.0851   -32.2443     2.7610     2.3660     2.1802  1222.6036    94.8511
 3588.0000    94.3222     0.4816    11.4131     1.7529     0.1118   -32.6279     2.5443     2.3660     2.1216  1222.6036   101.4574
 3588.5000    93.1349     0.4840    15.5930     1.6379     0.0740   -32.6291     2.4985     2.3876     2.1216  1222.6036   105.1065
 3589.0000    92.5408     0.5663    16.0000     1.5047     0.0363   -32.6301     2.6146     2.4836     2.3876  1222.6036   102.5454
 3589.5000    90.7609     0.5584    15.7925     1.5047    -0.0013   -32.8225     2.8116     2.5909     2.3876  1222.6036    98.2103
 3590.0000    92.2439     0.5171    14.5986     1.6888    -0.0013   -32.2502     3.1354     2.5909     2.3660  1222.6036    97.1278
 3590.5000    90.1629     0.4759    11.7725     1.9604     0.1136   -32.0603     3.2220     2.4535     2.3234  1242.3274    96.0453
 3591.0000    91.9394     0.4376    11.0959     1.9604     0.1378   -31.8704     3.1929     2.4535     2.2815  1242.3274    96.0472
 3591.5000    94.4429     0.4456    11.7303     1.8695     0.1357   -32.0628     3.0511     2.4535     2.2609  1242.3274    98.0205
 3592.0000    96.9465     0.4618    13.6047     1.7786     0.1196   -32.6375     2.8116     2.5909     2.3234  1242.3274   101.5715
 3592.5000    99.4501     0.4779    14.0033     1.7344     0.1074   -33.0210     2.6868     2.5675     2.3876  1242.3274   101.0805
 3593.0000   102.0028     0.4872    13.8841     1.7344     0.0973   -32.6399     2.7610     2.4743     2.3660  1242.3274    99.5051
 3593.5000   106.1493     0.4711    13.7649     1.9400     0.1577   -31.8773     2.8116     2.3845     2.2609  1202.8798    98.2254
 3594.0000   106.1466     0.4550    13.7651     1.9198     0.1597   -31.8778     2.8893     2.2609     2.1410  1222.6036    98.5230
 3594.5000   107.9244     0.4320    13.8849     1.9037     0.1920   -31.8791     2.7361     2.2609     2.1216  1222.6036   100.5950
 3595.0000   112.0697     0.4344    13.9648     1.8573     0.1617   -31.8803     2.6868     2.3024     2.1216  1222.6036   101.7801
 3595.5000   110.8838     0.4514    14.2440     1.7807     0.1314   -31.8815     2.5696     2.3902     2.1802  1222.6036   102.6692
 3596.0000   106.5473     0.4684    14.1248     1.7041     0.1011   -32.2650     2.5675     2.5213     2.2609  1222.6036   102.4739
 3596.5000   102.2108     0.4854    13.9260     1.6172     0.0709   -32.6485     2.6625     2.5213     2.3024  1222.6036    98.1382
 3597.0000    97.8742     0.5000    13.6874     1.6232     0.0405   -32.6497     2.8893     2.5213     2.3234  1222.6036    94.8869
 3597.5000    93.0941     0.4984    13.2495     1.6988     0.0385   -32.4598     3.0236     2.4319     2.2609  1222.6036    92.8185
 3598.0000    93.0932     0.4741    12.3336     1.8026     0.1251   -31.8877     3.0790     2.3446     2.2001  1222.6036    93.2150
 3598.5000    96.5889     0.4408    11.7363     1.7945     0.1251   -31.8890     2.7368     2.3446     2.2001  1222.6036    97.0615
