~VERSION INFORMATION
 VERS.               2.00:   CWLS LOG ASCII STANDARD - VERSION 2.00
 WRAP.                 NO:   ONE LINE PER DEPTH STEP
~WELL INFORMATION
#MNEM.UNIT      DATA TYPE    INFORMATION
#----------   ------------   ------------------------------
 STRT.F            0.0000:   START DEPTH
 STOP.F         5649.5000:   STOP DEPTH
 STEP.F            0.5000:   STEP LENGTH
 NULL.          -999.2500:   NO VALUE
 COMP.    FENIX & SCISSON:   COMPANY
 WELL.    FENIX WX #17-21:   WELL
 FLD .        TEAPOT DOME:   FIELD
 LOC .      S21 T39N R78W:   LOCATION
 STAT.            WYOMING:   STATE
 COUN.            NATRONA:   COUNTY
 SRVC.       SCHLUMBERGER:   SERVICE COMPANY
 DATE.        03-SEP-1978:   LOGDATE
 APIN.     49025107090000:   API NUMBER
~CURVE INFORMATION
#MNEM.UNIT       API CODE    CURVE DESCRIPTION
#----------   ------------   ------------------------------
 DEPT.F                  :
 GRD .GAPI   45 310 01 00:   GAMMA RAY
 NPHI.DEC    42 890 03 00:   NEUTRON POROSITY SANDSTONE
 CALD.IN     45 280 60 00:   CALIPER FROM DENSITY LOG
 RHOB.G/C3   45 350 01 00:   BULK DENSITY
 DRHO.G/C3   45 356 01 00:   DENSITY CORRECTION
 SPR .MV     07 010 01 00:   SPONTANEOUS POTENTIAL
 SFL .OHMM   07 220 01 00:   SHALLOW FOCUSED LOG RESISTIVITY
 ILM .OHMM   07 120 44 00:   INDUCTION LOG MEDIUM RESISTIVITY
 ILD .OHMM   07 120 46 00:   DEEP INDUCTION RESISTIVITY
 TENR.LBS    07 635 01 00:   TENSION FROM RESISTIVITY
 DT  .US/F   60 520 00 00:   DELTA TIME
~PARAMETER INFORMATION
#MNEM.UNIT          VALUE    DESCRIPTION
#----------   ------------   ------------------------------
 EKB .F         5001.0000:   KELLY BUSHING
 EGL .F            0.0000:   GROUND LEVEL
 EDF .F            0.0000:   DRILLING FLOOR
 EPD .F            0.0000:   PERMANENT DATUM
 TD  .F         5655.0000:   TOTAL DEPTH
 DATE.        03-SEP-1978:   DATE LOGGED
 CLNT.            A2DTECH:   CLIENT CODE
 SL  . 750' FSL & 490' FWL:   SURFACE LOCATION
 PD  .                 GL:   PERMANENT DATUM
 EPD .F              4997:   ELEVATION PERMANENT DATUM
 LMF .                 KB:   LOG MEASURED FROM
 DMF .                 KB:   DRILLING MEASURED FROM
 DAPD.F                10:   FEET ABOVE PERMANENT DATUM
 EGL .F              4997:   ELEVATION GROUND LEVEL
 DD  .F              5655:   DEPTH DRILLER
 DL  .F              5642:   DEPTH LOGGER
 BLI .F              5636:   BOTTOM LOG INTERVAL
 TLI .F               502:   TOP LOG INTERVAL
 CS1 .IN            9.625:   CASING SIZE
 CBD1.      9.625" @ 501':   CASING DRILLER 1
 CBL1.F               502:   CASING LOGGER 1
 BS1 .IN             8.75:   BIT SIZE
 BSD1.F              5655:   DEPTH DRILLED WITH BIT1
 DFT .                FGM:   TYPE FLUID IN HOLE
 DFD .                9.4:   DENSITY
 DFV .                 63:   VISCOSITY
 DFPH.                 12:   PH
 DFL .                  8:   FLUID LOSS
 MSS .            MUD PIT:   SOURCE OF SAMPLE
 RMS .OHMM            .78:   RM
 MST .F                88:   RM MEAS. TEMP.
 RMF .OHMM            .63:   RMF
 MFST.F                88:   RMF MEAS. TEMP.
 MFSS.               MEAS:   SOURCE RMF.
 RMB .OHMM            .43:   RM. AT BHT
 BHT .F               160:   BHT.
 TCS .HRS            1000:   TIME CIRC. STOPPED
 TLAB.HRS            1530:   TIME LOGGER AT BOTTOM
 MRT .F               160:   MAXIMUM RECORDED TEMP.
 LUN .               8043:   LOGGING UNIT NUMBER
 LUL .               CSPR:   LOGGING UNIT LOCATION
 ENGI.             LARSON:   RECORDED BY
 WITN.           MCGINLEY:   WITNESSED BY
 ORIG.      2.5" 5" PRINT:   ORIGIN OF DATA
 UWI .     49025107090000:   UNIQUE WELL ID
 DICO. A2D TECHNOLOGIES, INC.:   DIGITIZING COMPANY
~A  DEPTH      GRD       NPHI       CALD       RHOB       DRHO        SPR        SFL        ILM        ILD       TENR         DT
# ...
 2531.5000   118.1915     0.2968    10.2471     2.5164     0.0285   -30.3753     4.2829     4.0196     3.7384   944.5669    92.4454
 2532.0000   122.0322     0.3183    10.2452     2.4982     0.0193   -30.3784     4.3613     4.0196     3.7724   983.9370    92.6441
 2532.5000   122.0369     0.3324    10.2430     2.4892     0.0092   -30.3821     4.5635     4.0931     3.9473   964.2520    93.2375
 2533.0000   119.6794     0.3477    10.2435     2.4832     0.0012   -30.3851     4.6051     4.3219     4.0931   964.2520    94.3248
 2533.5000   113.7811     0.3445    10.2437     2.4812    -0.0009   -30.3882     5.5933     4.9771     4.6049   964.2520    95.2147
 2534.0000   111.4236     0.3000    10.2438     2.4893    -0.0008   -30.0072     7.3118     5.7316     5.1807   964.2520    95.4132
 2534.5000   112.6117     0.2602    10.1866     2.4862    -0.0029   -29.6263     8.7533     6.6004     5.8285   964.2520    90.4760
 2535.0000   113.2069     0.2435    10.1293     2.4822    -0.0008   -29.4374     9.9513     7.5133     6.6178   964.2520    85.6374
 2535.5000   113.8044     0.2364    10.1251     2.4802    -0.0008   -29.0571     9.9513     7.8617     6.8622   964.2520    83.7618
 2536.0000   114.3997     0.2340    10.0049     2.4843     0.0012   -28.8682     9.9513     7.9333     7.1156   964.2520    80.9974
 2536.5000   114.9972     0.2332    10.0105     2.4944     0.0098   -29.0633     9.7725     8.1636     7.1156   983.9370    80.3071
 2537.0000   115.5924     0.2340    10.0160     2.4944     0.0098   -29.0676     9.4542     8.4006     7.1156   964.2520    80.3077
 2537.5000   116.1900     0.2396    10.0216     2.4944     0.0078   -29.0695     9.1716     8.5300     7.1156   944.5669    80.5062
 2538.0000   113.8325     0.2451    10.0271     2.4843     0.0038   -29.0732     9.6318     8.5300     7.1156   983.9370    80.9026
 2538.5000   106.1625     0.2467    10.0327     2.4783     0.0018   -29.4659    10.2257     8.5300     7.1156   983.9370    81.1011
 2539.0000   106.1672     0.2372    10.0382     2.4804     0.0018   -29.8587    10.1334     8.0785     6.9877   944.5669    81.1022
 2539.5000   106.7648     0.2316    10.0438     2.4945     0.0154   -30.2514     9.4054     7.7908     6.7389   944.5669    80.8069
 2540.0000   107.0695     0.2316    10.0493     2.5167     0.0255   -30.8153     8.7297     7.4455     6.4403   944.5669    80.7091
 2540.5000   109.4386     0.2372    10.0549     2.5430     0.0356   -31.0085     8.1026     7.0591     6.2109   964.2520    80.8088
 2541.0000   113.5794     0.2412    10.0604     2.5490     0.0356   -31.0122     7.5205     6.6928     5.9357   964.2520    81.2048
 2541.5000   116.5367     0.2526    10.0660     2.5410     0.0397   -30.8956     6.9802     6.3454     5.6215   964.2520    81.6996
 2542.0000   121.2680     0.2641    10.0715     2.5128     0.0276   -30.7790     6.4788     6.0161     5.2758   964.2520    82.5896
 2542.5000   121.2727     0.2755    10.0771     2.5007     0.0175   -30.6624     6.0993     5.7764     5.1810   955.3219    83.5782
 2543.0000   122.7513     0.2881    10.0826     2.5027     0.0175   -30.5458     6.0993     5.8290     5.2282   946.3919    85.3570
 2543.5000   122.1631     0.2825    10.0882     2.5249     0.0175   -30.4517     6.2109     5.8290     5.4213   964.2520    86.1481
 2544.0000   117.6648     0.2722    10.0937     2.5361     0.0115   -30.4554     6.3821     5.8290     5.5707   983.9370    86.4453
 2544.5000   113.9120     0.2610    10.0993     2.5250     0.0095   -30.6504     7.6508     5.8897     5.5707   964.2520    85.3598
 2545.0000   115.0931     0.2276    10.1048     2.5129    -0.0006   -30.7455     7.5818     5.9510     5.4706   964.2520    82.2005
 2545.5000   119.2941     0.2260    10.1104     2.4988     0.0019   -30.8407     7.2537     6.0129     5.4213   944.5669    81.7076
 2546.0000   121.0148     0.2308    10.1159     2.4927     0.0019   -30.9358     6.8003     6.0993     5.4213   944.5669    81.7085
 2546.5000   117.0308     0.2388    10.1215     2.4988     0.0040   -31.0478     6.7389     6.2675     5.5205   924.8819    82.0058
 2547.0000   113.0468     0.2332    10.1270     2.5029     0.0060   -31.0484     6.6781     6.2675     5.7764   944.5669    82.5006
 2547.5000   110.4016     0.2300    10.1565     2.5150     0.0080   -30.7630     6.9877     6.5374     6.1549   982.5299    82.6993
 2548.0000   117.5529     0.2260    10.1580     2.5160     0.0100   -30.4776     7.1156     6.8189     6.4403  1023.3071    82.1076
 2548.5000   119.2736     0.2252    10.1594     2.5201     0.0080   -30.2918     7.5133     7.1125     6.7389   944.5669    80.3308
 2549.0000   113.3495     0.2181    10.1609     2.5201     0.0040   -30.2948     8.0785     7.3783     7.0514   944.5669    76.2823
 2549.5000   107.4254     0.2085    10.1624     2.5191     0.0020   -30.2973     8.6620     7.6508     7.5133   944.5669    71.4439
 2550.0000   101.5013     0.1974    10.1638     2.5232     0.0000   -30.6856     9.1336     7.8617     7.8617   944.5669    70.1609
 2550.5000    95.5772     0.1945    10.0966     2.5265    -0.0014   -30.8775     9.6307     8.2549     7.9322   964.5403    69.3592
 2551.0000    96.8394     0.1974    10.0969     2.5272     0.0000   -30.4937     9.6822     8.3745     7.9311   964.6613    69.0821
 2551.5000    99.1971     0.1998    10.1376     2.5323     0.0101   -30.4936     9.2701     8.3742     7.7880   964.7017    69.7773
 2552.0000   100.3712     0.2070    10.0977     2.5413     0.0162   -30.6855     8.8755     8.0629     7.5784   965.0647    71.7563
 2552.5000   102.1360     0.2142    10.1277     2.5454     0.0142   -30.8585     8.4977     7.7632     7.2704   965.2665    74.6230
 2553.0000   103.3125     0.2213    10.1387     2.5394     0.0082   -31.0314     8.1360     7.4746     6.8557   965.3472    75.7129
 2553.5000   103.3055     0.2285    10.0990     2.5373     0.0077   -31.2607     7.9257     7.3043     6.8554   965.6531    76.1115
 2554.0000   102.1197     0.2372    10.0993     2.5454     0.0117   -31.2607     7.9528     7.3033     6.9168   965.8716    76.4114
 2554.5000    97.9787     0.2372    10.0998     2.5515     0.0162   -31.2606     7.9800     7.3028     6.9792   946.3462    77.7973
 2555.0000    97.6835     0.2267    10.1000     2.5515     0.0198   -31.0687     8.0673     7.5066     6.9779   946.6021    77.8996
 2555.5000    98.8577     0.2161    10.1405     2.5495     0.0138   -31.0687     8.5445     7.7780     6.9762   946.8299    78.0018
 2556.0000   103.5776     0.2085    10.0608     2.5495     0.0097   -31.0686     9.0498     7.7774     6.9756   946.9912    77.8080
 2556.5000   104.1612     0.2085    10.1014     2.5515     0.0156   -31.2332     9.5851     7.7765     6.8493   958.8038    76.8243
 2557.0000   104.1565     0.2085    10.1018     2.5576     0.0143   -31.4519     9.8421     7.4288     6.6645   967.1224    74.7549
 2557.5000   104.1496     0.2070    10.1022     2.5566     0.0264   -31.4518     9.6647     7.0966     6.6042   967.3242    77.6205
 2558.0000   105.3237     0.2030    10.0624     2.5546     0.0466   -31.4518     7.5637     6.7229     6.2483   967.4452    82.5602
 2558.5000   107.0908     0.2388    10.1429     2.5072     0.0668   -31.2599     7.5631     6.7221     5.9208   948.0393    80.5895
 2559.0000   110.0366     0.2785    10.0744     2.4427     0.0628   -31.0681     7.6311     6.7212     5.9199   948.2812    78.6189
 2559.5000   111.5037     0.2857    10.0637     2.4074     0.0366   -30.8764     7.9406     6.7822     5.9193   968.2120    76.4511
 2560.0000   109.1345     0.2825    10.0640     2.4276     0.0063   -30.8764     8.2628     7.2031     6.3161   968.3734    75.8626
 2560.5000   107.9487     0.2524    10.0243     2.4881     0.0064   -30.8764     8.5979     7.7668     6.7394   968.5752    76.7544
 2561.0000   105.8794     0.2221    10.0245     2.5123     0.0165   -30.9259     8.8976     7.8368     7.0289   958.3164    77.9423
 2561.5000   105.8748     0.2237    10.0251     2.5466     0.0205   -30.9754     8.8968     7.9071     7.0919   949.2891    78.4385
