~VERSION INFORMATION
 VERS.               2.00:   CWLS LOG ASCII STANDARD - VERSION 2.00
 WRAP.                 NO:   ONE LINE PER DEPTH STEP
~WELL INFORMATION
#MNEM.UNIT      DATA TYPE    INFORMATION
#----------   ------------   ------------------------------
 STRT.F            0.0000:   START DEPTH
 STOP.F         5649.5000:   STOP DEPTH
 STEP.F            0.5000:   STEP LENGTH
 NULL.          -999.2500:   NO VALUE
 COMP.    FENIX & SCISSON:   COMPANY
 WELL.    FENIX WX #17-21:   WELL
 FLD .        TEAPOT DOME:   FIELD
 LOC .      S21 T39N R78W:   LOCATION
 STAT.            WYOMING:   STATE
 COUN.            NATRONA:   COUNTY
 SRVC.       SCHLUMBERGER:   SERVICE COMPANY
 DATE.        03-SEP-1978:   LOGDATE
 APIN.     49025107090000:   API NUMBER
~CURVE INFORMATION
#MNEM.UNIT       API CODE    CURVE DESCRIPTION
#----------   ------------   ------------------------------
 DEPT.F                  :
 GRD .GAPI   45 310 01 00:   GAMMA RAY
 NPHI.DEC    42 890 03 00:   NEUTRON POROSITY SANDSTONE
 CALD.IN     45 280 60 00:   CALIPER FROM DENSITY LOG
 RHOB.G/C3   45 350 01 00:   BULK DENSITY
 DRHO.G/C3   45 356 01 00:   DENSITY CORRECTION
 SPR .MV     07 010 01 00:   SPONTANEOUS POTENTIAL
 SFL .OHMM   07 220 01 00:   SHALLOW FOCUSED LOG RESISTIVITY
 ILM .OHMM   07 120 44 00:   INDUCTION LOG MEDIUM RESISTIVITY
 ILD .OHMM   07 120 46 00:   DEEP INDUCTION RESISTIVITY
 TENR.LBS    07 635 01 00:   TENSION FROM RESISTIVITY
 DT  .US/F   60 520 00 00:   DELTA TIME
~PARAMETER INFORMATION
#MNEM.UNIT          VALUE    DESCRIPTION
#----------   ------------   ------------------------------
 EKB .F         5001.0000:   KELLY BUSHING
 EGL .F            0.0000:   GROUND LEVEL
 EDF .F            0.0000:   DRILLING FLOOR
 EPD .F            0.0000:   PERMANENT DATUM
 TD  .F         5655.0000:   TOTAL DEPTH
 DATE.        03-SEP-1978:   DATE LOGGED
 CLNT.            A2DTECH:   CLIENT CODE
 SL  . 750' FSL & 490' FWL:   SURFACE LOCATION
 PD  .                 GL:   PERMANENT DATUM
 EPD .F              4997:   ELEVATION PERMANENT DATUM
 LMF .                 KB:   LOG MEASURED FROM
 DMF .                 KB:   DRILLING MEASURED FROM
 DAPD.F                10:   FEET ABOVE PERMANENT DATUM
 EGL .F              4997:   ELEVATION GROUND LEVEL
 DD  .F              5655:   DEPTH DRILLER
 DL  .F              5642:   DEPTH LOGGER
 BLI .F              5636:   BOTTOM LOG INTERVAL
 TLI .F               502:   TOP LOG INTERVAL
 CS1 .IN            9.625:   CASING SIZE
 CBD1.      9.625" @ 501':   CASING DRILLER 1
 CBL1.F               502:   CASING LOGGER 1
 BS1 .IN             8.75:   BIT SIZE
 BSD1.F              5655:   DEPTH DRILLED WITH BIT1
 DFT .                FGM:   TYPE FLUID IN HOLE
 DFD .                9.4:   DENSITY
 DFV .                 63:   VISCOSITY
 DFPH.                 12:   PH
 DFL .                  8:   FLUID LOSS
 MSS .            MUD PIT:   SOURCE OF SAMPLE
 RMS .OHMM            .78:   RM
 MST .F                88:   RM MEAS. TEMP.
 RMF .OHMM            .63:   RMF
 MFST.F                88:   RMF MEAS. TEMP.
 MFSS.               MEAS:   SOURCE RMF.
 RMB .OHMM            .43:   RM. AT BHT
 BHT .F               160:   BHT.
 TCS .HRS            1000:   TIME CIRC. STOPPED
 TLAB.HRS            1530:   TIME LOGGER AT BOTTOM
 MRT .F               160:   MAXIMUM RECORDED TEMP.
 LUN .               8043:   LOGGING UNIT NUMBER
 LUL .               CSPR:   LOGGING UNIT LOCATION
 ENGI.             LARSON:   RECORDED BY
 WITN.           MCGINLEY:   WITNESSED BY
 ORIG.      2.5" 5" PRINT:   ORIGIN OF DATA
 UWI .     49025107090000:   UNIQUE WELL ID
 DICO. A2D TECHNOLOGIES, INC.:   DIGITIZING COMPANY
~A  DEPTH      GRD       NPHI       CALD       RHOB       DRHO        SPR        SFL        ILM        ILD       TENR         DT
# ...
 4575.0000    95.7490     0.1436     9.6602     2.6189     0.0171   -21.7801    14.3307    11.1014    12.8324  1640.9675    65.3394
 4575.5000    96.9419     0.1484     9.6250     2.6189     0.0252   -21.6261    14.2529    11.1015    12.8325  1640.5924    65.3331
 4576.0000    96.3538     0.1595     9.6592     2.6008     0.0252   -21.6276    14.1755    11.1016    12.8325  1640.2173    65.3292
 4576.5000    93.9894     0.1571     9.6189     2.5947     0.0111   -21.6287    14.0986    11.2027    12.8327  1639.8422    65.3261
 4577.0000    88.6582     0.1468     9.6184     2.5947     0.0010   -21.7376    14.0491    11.3047    12.8327  1639.4672    65.4203
 4577.5000    86.2938     0.1436     9.6181     2.6008     0.0090   -21.8466    14.0492    11.5115    12.9129  1639.0920    65.4157
 4578.0000    85.1128     0.1364     9.6178     2.6008     0.0110   -21.9555    14.6292    11.5116    12.9936  1638.7170    65.3128
 4578.5000    87.1986     0.1380     9.6173     2.5987     0.0110   -22.0645    15.2332    11.7221    13.0677  1638.3420    64.9164
 4579.0000    88.9820     0.1404     9.6168     2.5887     0.0105   -22.1734    15.8046    11.8289    13.1866  1637.9669    65.0106
 4579.5000    89.5820     0.1436     9.6565     2.5887     0.0105   -22.2824    15.5211    11.8290    13.1867  1637.5918    65.1049
 4580.0000    88.4010     0.1436     9.6160     2.6007     0.0105   -22.4060    14.8153    12.0453    13.1868  1637.2167    65.0021
 4580.5000    84.8508     0.1388     9.6157     2.6007     0.0105   -22.0261    14.1416    12.0454    13.1869  1636.8417    64.6057
 4581.0000    84.2627     0.1332     9.6152     2.6068     0.0140   -21.8361    13.9233    12.0455    13.1871  1636.4666    64.9943
 4581.5000    85.4556     0.1308     9.5796     2.6048     0.0145   -21.7688    14.3067    12.0456    13.1872  1636.0916    64.4998
 4582.0000    91.9820     0.1221     9.6144     2.6027     0.0145   -21.7015    16.8392    12.0457    13.1873  1635.7164    63.9064
 4582.5000    94.9535     0.1244     9.6141     2.6088     0.0185   -21.6524    16.9924    11.9373    13.1874  1635.3414    63.9025
 4583.0000    97.9227     0.1356     9.6935     2.6209     0.0205   -21.6542    16.9925    11.8298    13.1875  1634.9663    65.1371
 4583.5000   100.3013     0.1483     9.6133     2.6249     0.0225   -21.8167    16.6876    11.7234    13.0688  1634.5912    65.3302
 4584.0000   101.7871     0.1595     9.6128     2.6148     0.0225   -22.0403    14.9697    11.5131    12.9511  1634.2161    65.9158
 4584.5000   100.6061     0.1579     9.6127     2.6088     0.0164   -22.0414    14.2423    11.3067    12.8344  1633.8411    66.1073
 4585.0000    97.6464     0.1420     9.6121     2.5967     0.0164   -22.0418    13.4289    11.1039    12.6043  1633.4659    65.7464
 4585.5000    91.7248     0.1324     9.6117     2.5826     0.0104   -22.2365    13.4290    10.9048    12.4908  1633.0909    65.8406
 4586.0000    88.1722     0.1260     9.6112     2.5624     0.0103   -22.4283    14.4377    10.8067    12.3784  1632.7159    65.5423
 4586.5000    85.2150     0.1236     9.6109     2.5604    -0.0018   -22.7357    14.9701    10.8068    12.2669  1632.3408    65.2442
 4587.0000    84.6268     0.1396     9.6104     2.5624     0.0003   -23.0431    15.5222    10.7095    12.0470  1631.9657    65.2403
 4587.5000    84.3411     0.1435     9.6101     2.5664    -0.0113   -23.3505    15.1064    10.5175    12.0470  1631.5906    65.5298
 4588.0000    82.5672     0.1499     9.6100     2.5685    -0.0058   -23.6579    14.2278    10.4229    12.1796  1631.2156    65.9183
 4588.5000    80.7957     0.1475     9.6093     2.5664     0.0022   -23.9653    13.4004    10.3291    12.3790  1630.8405    66.4048
 4589.0000    79.0218     0.1396     9.6088     2.5664     0.0022   -24.2727    12.7198    10.3292    12.4916  1630.4655    66.4990
 4589.5000    76.6574     0.1316     9.6085     2.5664     0.0022   -24.7310    13.0701    10.3294    12.6053  1630.0903    66.0046
 4590.0000    73.6978     0.1268     9.6080     2.5745     0.0022   -24.7318    13.9251    11.1052    12.9524  1629.7153    65.2153
 4590.5000    70.7405     0.1140     9.5677     2.5846    -0.0018   -25.4963    14.7023    11.9393    13.3090  1629.3402    64.3287
 4591.0000    67.7809     0.1061     9.6076     2.5946    -0.0018   -25.6892    15.8064    12.8359    14.3490  1628.9651    63.0499
 4591.5000    64.8237     0.0853     9.6069     2.6027    -0.0074   -25.6910    17.1478    13.5523    15.4703  1628.5900    62.3587
 4592.0000    62.4569     0.0805     9.6064     2.6188     0.0002   -25.1208    18.7359    14.3087    16.5382  1628.0775    62.1588
 4592.5000    62.4640     0.0757     9.6061     2.6248    -0.0019   -24.9319    20.5596    14.7026    17.3038  1629.0500    62.2530
 4593.0000    65.4332     0.0733     9.6056     2.6208     0.0042   -24.7431    22.0935    14.7027    17.2360  1630.0225    62.6414
 4593.5000    69.5904     0.0981     9.6053     2.5765     0.0026   -24.5546    22.7015    14.3090    17.1481  1630.9951    63.2260
 4594.0000    74.9311     0.1028     9.6052     2.5523     0.0026   -24.3658    22.9078    13.3098    16.8405  1631.9677    63.7124
 4594.5000    74.9382     0.1148     9.6044     2.5503    -0.0115   -24.3676    20.6220    12.8367    16.3895  1632.9401    64.2961
 4595.0000    74.9430     0.1196     9.6040     2.5644    -0.0115   -24.5601    18.5642    12.3805    15.6846  1633.9127    64.6845
 4595.5000    76.4287     0.1228     9.6037     2.5926     0.0001   -24.9436    16.7118    12.0490    15.0099  1634.8853    65.0728
 4596.0000    83.2967     0.1260     9.6032     2.6026     0.0041   -24.7548    15.6647    11.4124    14.3643  1635.8577    65.5592
 4596.5000    90.0768     0.1323     9.6029     2.6006     0.0021   -23.9939    15.1079    11.3096    13.7465  1636.8303    65.8494
 4597.0000    93.0459     0.1371     9.6026     2.5966     0.0001   -23.4237    14.7034    10.8095    13.1552  1637.8029    66.2377
 4597.5000    95.4245     0.1571     9.6021     2.5966     0.0026   -23.0442    14.4398    10.5202    12.4936  1638.7753    66.7240
 4598.0000    96.6150     0.1603     9.6016     2.5946     0.0086   -22.4743    14.0532    10.3317    12.3812  1639.7479    67.2094
 4598.5000    96.3293     0.1659     9.6013     2.5905     0.0146   -21.7134    13.5538    10.2387    12.1592  1640.7205    67.4024
 4599.0000    95.1483     0.1683     9.6008     2.5845     0.0086   -21.9052    13.1909    10.1466    12.1593  1641.6929    67.6917
 4599.5000    93.3768     0.1699     9.6005     2.5785     0.0025   -23.0518    13.0722    10.1468    11.9155  1642.6655    67.7858
 4600.0000    92.7887     0.1659     9.6002     2.5785     0.0025   -23.0540    12.9546    10.2391    11.7274  1643.6379    67.4878
 4600.5000    80.5318     0.1635     9.5784     2.5845     0.0091   -22.8901    12.9547    10.5734    11.7275  1644.6105    67.1450
 4601.0000    73.4986     0.1446     9.5637     2.5865     0.0126   -22.7456    13.3098    10.8096    11.7264  1645.4241    66.6993
 4601.5000    69.9347     0.1257     9.5596     2.5925     0.0166   -22.8634    14.3082    11.5598    12.6037  1646.2377    65.9132
 4602.0000    65.1854     0.1092     9.5195     2.6005     0.0045   -22.8634    15.8657    12.3621    13.5465  1647.0511    64.6370
 4602.5000    62.5115     0.1028     9.5194     2.6086     0.0100   -23.0718    17.5926    13.2201    14.5599  1647.8647    63.3604
 4603.0000    63.6905     0.1028     9.5592     2.6126     0.0019   -23.2803    19.4591    14.3060    15.6492  1648.6783    62.7704
 4603.5000    70.7934     0.1154     9.5590     2.6146    -0.0021   -23.4354    20.3588    14.4354    16.5338  1649.4919    62.6706
 4604.0000    81.1483     0.1279     9.5189     2.6065    -0.0021   -23.2447    21.3001    14.4348    16.6833  1650.3055    62.9630
 4604.5000    88.2570     0.1405     9.5188     2.6004    -0.0061   -22.4096    21.8852    14.4341    16.8342  1651.1191    63.4514
 4605.0000    94.7652     0.1531     9.5186     2.5964    -0.0021   -21.7193    21.1069    14.0469    16.5316  1651.9326    63.9395
