~VERSION INFORMATION
 VERS.               2.00:   CWLS LOG ASCII STANDARD - VERSION 2.00
 WRAP.                 NO:   ONE LINE PER DEPTH STEP
~WELL INFORMATION
#MNEM.UNIT      DATA TYPE    INFORMATION
#----------   ------------   ------------------------------
 STRT.F            0.0000:   START DEPTH
 STOP.F         5649.5000:   STOP DEPTH
 STEP.F            0.5000:   STEP LENGTH
 NULL.          -999.2500:   NO VALUE
 COMP.    FENIX & SCISSON:   COMPANY
 WELL.    FENIX WX #17-21:   WELL
 FLD .        TEAPOT DOME:   FIELD
 LOC .      S21 T39N R78W:   LOCATION
 STAT.            WYOMING:   STATE
 COUN.            NATRONA:   COUNTY
 SRVC.       SCHLUMBERGER:   SERVICE COMPANY
 DATE.        03-SEP-1978:   LOGDATE
 APIN.     49025107090000:   API NUMBER
~CURVE INFORMATION
#MNEM.UNIT       API CODE    CURVE DESCRIPTION
#----------   ------------   ------------------------------
 DEPT.F                  :
 GRD .GAPI   45 310 01 00:   GAMMA RAY
 NPHI.DEC    42 890 03 00:   NEUTRON POROSITY SANDSTONE
 CALD.IN     45 280 60 00:   CALIPER FROM DENSITY LOG
 RHOB.G/C3   45 350 01 00:   BULK DENSITY
 DRHO.G/C3   45 356 01 00:   DENSITY CORRECTION
 SPR .MV     07 010 01 00:   SPONTANEOUS POTENTIAL
 SFL .OHMM   07 220 01 00:   SHALLOW FOCUSED LOG RESISTIVITY
 ILM .OHMM   07 120 44 00:   INDUCTION LOG MEDIUM RESISTIVITY
 ILD .OHMM   07 120 46 00:   DEEP INDUCTION RESISTIVITY
 TENR.LBS    07 635 01 00:   TENSION FROM RESISTIVITY
 DT  .US/F   60 520 00 00:   DELTA TIME
~PARAMETER INFORMATION
#MNEM.UNIT          VALUE    DESCRIPTION
#----------   ------------   ------------------------------
 EKB .F         5001.0000:   KELLY BUSHING
 EGL .F            0.0000:   GROUND LEVEL
 EDF .F            0.0000:   DRILLING FLOOR
 EPD .F            0.0000:   PERMANENT DATUM
 TD  .F         5655.0000:   TOTAL DEPTH
 DATE.        03-SEP-1978:   DATE LOGGED
 CLNT.            A2DTECH:   CLIENT CODE
 SL  . 750' FSL & 490' FWL:   SURFACE LOCATION
 PD  .                 GL:   PERMANENT DATUM
 EPD .F              4997:   ELEVATION PERMANENT DATUM
 LMF .                 KB:   LOG MEASURED FROM
 DMF .                 KB:   DRILLING MEASURED FROM
 DAPD.F                10:   FEET ABOVE PERMANENT DATUM
 EGL .F              4997:   ELEVATION GROUND LEVEL
 DD  .F              5655:   DEPTH DRILLER
 DL  .F              5642:   DEPTH LOGGER
 BLI .F              5636:   BOTTOM LOG INTERVAL
 TLI .F               502:   TOP LOG INTERVAL
 CS1 .IN            9.625:   CASING SIZE
 CBD1.      9.625" @ 501':   CASING DRILLER 1
 CBL1.F               502:   CASING LOGGER 1
 BS1 .IN             8.75:   BIT SIZE
 BSD1.F              5655:   DEPTH DRILLED WITH BIT1
 DFT .                FGM:   TYPE FLUID IN HOLE
 DFD .                9.4:   DENSITY
 DFV .                 63:   VISCOSITY
 DFPH.                 12:   PH
 DFL .                  8:   FLUID LOSS
 MSS .            MUD PIT:   SOURCE OF SAMPLE
 RMS .OHMM            .78:   RM
 MST .F                88:   RM MEAS. TEMP.
 RMF .OHMM            .63:   RMF
 MFST.F                88:   RMF MEAS. TEMP.
 MFSS.               MEAS:   SOURCE RMF.
 RMB .OHMM            .43:   RM. AT BHT
 BHT .F               160:   BHT.
 TCS .HRS            1000:   TIME CIRC. STOPPED
 TLAB.HRS            1530:   TIME LOGGER AT BOTTOM
 MRT .F               160:   MAXIMUM RECORDED TEMP.
 LUN .               8043:   LOGGING UNIT NUMBER
 LUL .               CSPR:   LOGGING UNIT LOCATION
 ENGI.             LARSON:   RECORDED BY
 WITN.           MCGINLEY:   WITNESSED BY
 ORIG.      2.5" 5" PRINT:   ORIGIN OF DATA
 UWI .     49025107090000:   UNIQUE WELL ID
 DICO. A2D TECHNOLOGIES, INC.:   DIGITIZING COMPANY
~A  DEPTH      GRD       NPHI       CALD       RHOB       DRHO        SPR        SFL        ILM        ILD       TENR         DT
# ...
 5612.0000    33.3801     0.1028     8.6200     2.5465     0.0450    -2.6629   111.8206    55.3027   142.7388  1623.9530    59.6367
 5612.5000    34.5635     0.1082     8.6196     2.5118     0.0450    -3.0458   107.8484    45.6883   187.7416  1625.3850    60.4229
 5613.0000    38.6881     0.1164     8.6192     2.4937     0.0450    -3.3590    87.3682    42.8850   238.9587  1626.8170    60.8154
 5613.5000    41.0457     0.1164     8.6188     2.4937     0.0430    -3.6723    70.7772    41.3600   241.1250  1628.2491    62.2917
 5614.0000    43.9938     0.1164     8.6582     2.5138     0.0410    -3.9855    61.0104    40.2518   138.9480  1629.4937    63.4723
 5614.5000    43.9985     0.1132     8.6579     2.5259     0.0490    -4.2987    64.6029    38.8207    87.5894  1629.5059    64.1604
 5615.0000  -999.2500     0.1132     8.6175     2.5380     0.0773    -4.5777    68.4070    38.8192    83.7155  1628.1310    64.7499
 5615.5000  -999.2500     0.1148     8.6171     2.5339     0.0873    -4.7692    73.7585    38.8175    86.7126  1626.7562    65.1424
 5616.0000  -999.2500     0.1164     8.6168     2.5118     0.0853    -4.9607    73.7576    39.8833    89.8170  1625.3813    65.1405
 5616.5000  -999.2500     0.1164     8.7358     2.4916     0.0627    -5.3437    72.6271    42.1052    92.4609  1624.0066    64.9419
 5617.0000  -999.2500     0.1164     8.6956     2.4754     0.0430    -5.7267    71.5139    44.0508    89.1735  1622.6318    64.5462
 5617.5000  -999.2500     0.1157     8.6952     2.4785     0.0410    -6.1097    77.8613    45.2604    86.7847  1621.2570    63.8550
 5618.0000  -999.2500     0.1077     8.6948     2.4623     0.0390    -6.3011    69.8533    46.5030    85.2270  1619.8821    61.2918
 5618.5000  -999.2500     0.1037     8.6944     2.4966     0.0410    -6.6841    69.8511    48.2139    86.7796  1618.5073    59.6151
 5619.0000  -999.2500     0.1037     8.6940     2.5026     0.0511    -7.2586    74.0430    51.8290    87.5673  1617.1324    56.4608
 5619.5000  -999.2500     0.1037     8.6936     2.5289     0.0338    -7.6416    79.9912    55.2132   122.3519  1615.7577    53.7006
 5620.0000  -999.2500     0.1037     8.6932     2.5490     0.0262    -8.4075   100.2792    58.8193   123.4632  1614.3829    50.4479
 5620.5000  -999.2500     0.1029     8.6928     2.5903     0.0185    -9.3650   158.1395    64.9685   248.9607  1613.0081    49.1652
 5621.0000  -999.2500     0.0990     8.6924     2.6710     0.0088   -10.5139   365.3806    74.4032   579.4620  1611.6333    48.7695
 5621.5000  -999.2500     0.0640     8.6920     2.6741     0.0068   -11.2799   570.3614    93.2723   864.4105  1610.1025    48.5715
 5622.0000  -999.2500     0.0401     8.6916     2.6761     0.0048   -11.4714   890.3380   136.1494  1216.2954  1610.1146    48.2737
 5622.5000  -999.2500     0.0353     8.6912     2.6720     0.0027   -11.4714  1194.4906   156.8243  1323.8901  1610.1267    48.1736
 5623.0000  -999.2500     0.0321     8.6907     2.6680     0.0048   -11.4714  1300.0140   183.7599  1441.0028  1609.0238    48.2702
 5623.5000  -999.2500     0.0313     8.6409     2.6741     0.0068   -11.8543  1470.6309   197.5426  1552.6292  1607.9209    48.6630
 5624.0000  -999.2500     0.0305     8.6425     2.6801     0.0088   -12.8118  1470.6292   214.2866  1860.4242  1606.8180    48.8582
 5624.5000  -999.2500     0.0305     8.6441     2.6801     0.0088   -13.5777  1457.3868   296.7331  1506.6978  1605.7151    49.1521
 5625.0000  -999.2500     0.0313     8.6458     2.6640     0.0008   -14.1522  1318.0110   291.4114  1183.7056  1604.6122    48.9535
 5625.5000  -999.2500     0.0329     8.6474     2.6519    -0.0053   -14.9182  1191.9644   281.0557  1183.7010  1603.5093    48.9519
 5626.0000  -999.2500     0.0329     8.6490     2.6539    -0.0073   -15.8756  1071.6124   242.8874  1367.9733  1602.4064    48.7533
 5626.5000  -999.2500  -999.2500     8.6506     2.6821     0.0028   -16.6416  1167.2833   204.7898  1380.3975  1590.6188    48.6529
 5627.0000  -999.2500  -999.2500     8.6522     2.7266     0.0109   -17.5990  1307.4857   202.9427  1405.5865  1590.6368    48.4542
 5627.5000  -999.2500  -999.2500     8.6538     2.7427     0.0210   -18.3650  1367.9604   218.1656  1497.4382  1590.6517    48.3548
 5628.0000  -999.2500  -999.2500     8.6554     2.7306     0.0190   -20.2799  1438.8425   254.4171  1624.4110  1590.6659    48.1555
 5628.5000  -999.2500  -999.2500     8.6570     2.6963     0.0109   -21.9310  1497.4294   375.3364  1762.1522  1590.6779    48.1542
 5629.0000  -999.2500  -999.2500     8.6586     2.6902     0.0048   -24.0013  1470.5859   378.7415  1843.6614  1590.6927    48.0535
 5629.5000  -999.2500  -999.2500     8.6603     2.7003     0.0028   -26.2160  1300.1392   375.3281  1843.6600  1590.7108    48.1507
 5630.0000  -999.2500  -999.2500     8.6619     2.7165     0.0129   -26.7905  1141.5912   306.2893  1810.6105  1590.7227    48.3459
 5630.5000  -999.2500  -999.2500     8.6635     2.7165     0.0190   -27.5430  1170.5541   245.3511  1684.2339  1590.7377    48.4428
 5631.0000  -999.2500  -999.2500     8.6651     2.7124     0.0190   -28.2955  1200.2520   245.3462  1566.6763  1571.1136    48.7371
 5631.5000  -999.2500  -999.2500     8.6667     2.7145     0.0190   -29.0480   970.0688   245.3414  1216.1812  1551.4980    49.2278
 5632.0000  -999.2500  -999.2500     8.6683     2.7205     0.0331   -29.8005   543.4749   252.0844  1194.3754  1531.8733    50.5070
 5632.5000  -999.2500  -999.2500     8.6699     2.7205     0.0453   -30.4288   247.5579   254.3687  1162.3984  1512.2531    52.0814
 5633.0000  -999.2500  -999.2500     8.6715     2.7145     0.0493   -30.4288   214.2024   214.2024   719.7327  1571.1838    53.8532
 5633.5000  -999.2500  -999.2500     8.6731     2.7003     0.0493   -30.2373   201.0570   188.7222   634.1309  1669.3986    55.1324
 5634.0000  -999.2500  -999.2500     8.6748     2.6842     0.0493   -29.9839   172.3983   192.1629   207.2059  1747.9750    56.3130
 5634.5000  -999.2500  -999.2500     8.6764     2.6640     0.0493   -29.7305    82.8606   199.2380    74.3381  1787.2722    57.1981
 5635.0000  -999.2500  -999.2500     8.6780     2.6599     0.0453   -29.4770    76.3804   195.6612    69.7752  1846.2142    56.3098
 5635.5000  -999.2500  -999.2500     8.6796     2.6579     0.0433   -29.2799    78.4790  -999.2500    66.6878  1846.2281    54.7319
 5636.0000  -999.2500  -999.2500     8.6806     2.6397     0.0494   -28.7234  -999.2500  -999.2500  -999.2500  1826.6045  -999.2500
 5636.5000  -999.2500  -999.2500     8.6005     2.6296     0.0575   -29.8543  -999.2500  -999.2500  -999.2500  1806.9840  -999.2500
 5637.0000  -999.2500  -999.2500     8.0749     2.5250     0.0817   -29.8543  -999.2500  -999.2500  -999.2500  1865.9285  -999.2500
 5637.5000  -999.2500  -999.2500     7.5494     2.3749  -999.2500  -999.2500  -999.2500  -999.2500  -999.2500  1905.2292  -999.2500
 5638.0000  -999.2500  -999.2500     7.0239     2.3729  -999.2500  -999.2500  -999.2500  -999.2500  -999.2500  1944.5186  -999.2500
 5638.5000  -999.2500  -999.2500     6.6468     2.3688  -999.2500  -999.2500  -999.2500  -999.2500  -999.2500  1983.8317  -999.2500
 5639.0000  -999.2500  -999.2500  -999.2500     2.3628  -999.2500  -999.2500  -999.2500  -999.2500  -999.2500  2003.4926  -999.2500
 5639.5000  -999.2500  -999.2500  -999.2500     2.3546  -999.2500  -999.2500  -999.2500  -999.2500  -999.2500  2003.5074  -999.2500
 5640.0000  -999.2500  -999.2500  -999.2500     2.3546  -999.2500  -999.2500  -999.2500  -999.2500  -999.2500  1944.6064  -999.2500
 5640.5000  -999.2500  -999.2500  -999.2500     2.3728  -999.2500  -999.2500  -999.2500  -999.2500  -999.2500  1807.1259  -999.2500
 5641.0000  -999.2500  -999.2500  -999.2500  -999.2500  -999.2500  -999.2500  -999.2500  -999.2500  -999.2500  1689.2888  -999.2500
 5641.5000  -999.2500  -999.2500  -999.2500  -999.2500  -999.2500  -999.2500  -999.2500  -999.2500  -999.2500  1669.6616  -999.2500
 5642.0000  -999.2500  -999.2500  -999.2500  -999.2500  -999.2500  -999.2500  -999.2500  -999.2500  -999.2500  1630.3815  -999.2500
