~VERSION INFORMATION
 VERS.               2.00:   CWLS LOG ASCII STANDARD - VERSION 2.00
 WRAP.                 NO:   ONE LINE PER DEPTH STEP
~WELL INFORMATION
#MNEM.UNIT      DATA TYPE    INFORMATION
#----------   ------------   ------------------------------
 STRT.F            0.0000:   START DEPTH
 STOP.F         5649.5000:   STOP DEPTH
 STEP.F            0.5000:   STEP LENGTH
 NULL.          -999.2500:   NO VALUE
 COMP.    FENIX & SCISSON:   COMPANY
 WELL.    FENIX WX #17-21:   WELL
 FLD .        TEAPOT DOME:   FIELD
 LOC .      S21 T39N R78W:   LOCATION
 STAT.            WYOMING:   STATE
 COUN.            NATRONA:   COUNTY
 SRVC.       SCHLUMBERGER:   SERVICE COMPANY
 DATE.        03-SEP-1978:   LOGDATE
 APIN.     49025107090000:   API NUMBER
~CURVE INFORMATION
#MNEM.UNIT       API CODE    CURVE DESCRIPTION
#----------   ------------   ------------------------------
 DEPT.F                  :
 GRD .GAPI   45 310 01 00:   GAMMA RAY
 NPHI.DEC    42 890 03 00:   NEUTRON POROSITY SANDSTONE
 CALD.IN     45 280 60 00:   CALIPER FROM DENSITY LOG
 RHOB.G/C3   45 350 01 00:   BULK DENSITY
 DRHO.G/C3   45 356 01 00:   DENSITY CORRECTION
 SPR .MV     07 010 01 00:   SPONTANEOUS POTENTIAL
 SFL .OHMM   07 220 01 00:   SHALLOW FOCUSED LOG RESISTIVITY
 ILM .OHMM   07 120 44 00:   INDUCTION LOG MEDIUM RESISTIVITY
 ILD .OHMM   07 120 46 00:   DEEP INDUCTION RESISTIVITY
 TENR.LBS    07 635 01 00:   TENSION FROM RESISTIVITY
 DT  .US/F   60 520 00 00:   DELTA TIME
~PARAMETER INFORMATION
#MNEM.UNIT          VALUE    DESCRIPTION
#----------   ------------   ------------------------------
 EKB .F         5001.0000:   KELLY BUSHING
 EGL .F            0.0000:   GROUND LEVEL
 EDF .F            0.0000:   DRILLING FLOOR
 EPD .F            0.0000:   PERMANENT DATUM
 TD  .F         5655.0000:   TOTAL DEPTH
 DATE.        03-SEP-1978:   DATE LOGGED
 CLNT.            A2DTECH:   CLIENT CODE
 SL  . 750' FSL & 490' FWL:   SURFACE LOCATION
 PD  .                 GL:   PERMANENT DATUM
 EPD .F              4997:   ELEVATION PERMANENT DATUM
 LMF .                 KB:   LOG MEASURED FROM
 DMF .                 KB:   DRILLING MEASURED FROM
 DAPD.F                10:   FEET ABOVE PERMANENT DATUM
 EGL .F              4997:   ELEVATION GROUND LEVEL
 DD  .F              5655:   DEPTH DRILLER
 DL  .F              5642:   DEPTH LOGGER
 BLI .F              5636:   BOTTOM LOG INTERVAL
 TLI .F               502:   TOP LOG INTERVAL
 CS1 .IN            9.625:   CASING SIZE
 CBD1.      9.625" @ 501':   CASING DRILLER 1
 CBL1.F               502:   CASING LOGGER 1
 BS1 .IN             8.75:   BIT SIZE
 BSD1.F              5655:   DEPTH DRILLED WITH BIT1
 DFT .                FGM:   TYPE FLUID IN HOLE
 DFD .                9.4:   DENSITY
 DFV .                 63:   VISCOSITY
 DFPH.                 12:   PH
 DFL .                  8:   FLUID LOSS
 MSS .            MUD PIT:   SOURCE OF SAMPLE
 RMS .OHMM            .78:   RM
 MST .F                88:   RM MEAS. TEMP.
 RMF .OHMM            .63:   RMF
 MFST.F                88:   RMF MEAS. TEMP.
 MFSS.               MEAS:   SOURCE RMF.
 RMB .OHMM            .43:   RM. AT BHT
 BHT .F               160:   BHT.
 TCS .HRS            1000:   TIME CIRC. STOPPED
 TLAB.HRS            1530:   TIME LOGGER AT BOTTOM
 MRT .F               160:   MAXIMUM RECORDED TEMP.
 LUN .               8043:   LOGGING UNIT NUMBER
 LUL .               CSPR:   LOGGING UNIT LOCATION
 ENGI.             LARSON:   RECORDED BY
 WITN.           MCGINLEY:   WITNESSED BY
 ORIG.      2.5" 5" PRINT:   ORIGIN OF DATA
 UWI .     49025107090000:   UNIQUE WELL ID
 DICO. A2D TECHNOLOGIES, INC.:   DIGITIZING COMPANY
~A  DEPTH      GRD       NPHI       CALD       RHOB       DRHO        SPR        SFL        ILM        ILD       TENR         DT
# ...
 2867.0000   102.9464     0.2515    10.0008     2.4478    -0.0009   -28.6244     4.1153     3.7618     3.5946  1061.6169    84.5990
 2867.5000   104.1182     0.2483    10.0018     2.4529     0.0012   -28.2445     4.2076     3.7970     3.5941  1059.5610    84.6991
 2868.0000   107.0568     0.2379    10.0026     2.4671     0.0113   -28.2452     4.3456     3.8285     3.5609  1057.5050    84.4054
 2868.5000   108.8191     0.2379    10.0037     2.4842     0.0234   -28.5978     4.3453     3.7933     3.4964  1055.4490    83.5211
 2869.0000   111.7577     0.2435    10.0045     2.4882     0.0274   -28.9504     4.3060     3.7590     3.3107  1053.3929    82.6371
 2869.5000   112.3389     0.2557    10.0056     2.4782     0.0295   -29.3953     4.0917     3.6072     3.2507  1051.3372    83.1309
 2870.0000   111.1439     0.2707    10.0066     2.4539     0.0133   -29.2051     3.8880     3.4615     3.1344  1049.2811    84.4123
 2870.5000   108.7677     0.2723    10.0075     2.4479     0.0113   -29.2053     3.6945     3.3217     3.0223  1047.2251    85.2998
 2871.0000   107.5773     0.2731    10.0083     2.4459     0.0091   -28.8717     3.5106     3.1616     2.9945  1045.1691    85.9905
 2871.5000   105.7917     0.2747    10.0492     2.4399     0.0073   -28.4452     3.2775     3.1044     2.9669  1042.2628    86.4846
 2872.0000   118.4836     0.2804    10.0102     2.4318    -0.0028   -28.4459     3.2772     3.1038     2.9663  1101.2964    86.8800
 2872.5000   118.4696     0.2796    10.0109     2.4358     0.0022   -28.6372     3.2766     3.1033     2.9658  1022.6383    87.0785
 2873.0000   119.6413     0.2748    10.0123     2.4399     0.0032   -28.9118     3.3063     3.1749     2.9653  1081.7053    87.3754
 2873.5000   110.7693     0.2684    10.0132     2.4419     0.0053   -29.2141     3.4495     3.2750     2.9646  1081.7231    87.4754
 2874.0000   111.3505     0.2660    10.0139     2.4480     0.0113   -29.0239     3.6177     3.2747     2.9641  1081.7365    86.5912
 2874.5000   113.1081     0.2740    10.0151     2.4561     0.0234   -28.8333     3.5157     3.2446     2.9635  1081.7861    85.9041
 2875.0000   114.8704     0.2812    10.0158     2.4561     0.0255   -28.4365     3.4165     3.2152     2.9362  1081.8173    86.2010
 2875.5000   117.2185     0.2828    10.0567     2.4420     0.0255   -28.0397     3.3201     3.1297     2.8829  1062.1724    86.7932
 2876.0000   119.5713     0.2852    10.0174     2.4299     0.0073   -27.6429     3.2264     3.0465     2.8563  1062.2030    87.8776
 2876.5000   119.5573     0.2844    10.0189     2.4319     0.0053   -27.5013     3.1266     2.9882     2.8300  1062.2396    88.8635
 2877.0000   119.5479     0.2828    10.0196     2.4420     0.0093   -27.6937     3.1261     2.9876     2.8295  1062.2701    89.0620
 2877.5000   117.7623     0.2828    10.0208     2.4501     0.0114   -27.6939     3.1257     2.9873     2.8290  1042.6165    88.5718
 2878.0000   115.3909     0.2812    10.0215     2.4561     0.0154   -27.8810     3.1519     2.9869     2.8284  1042.6571    88.2781
 2878.5000   114.7863     0.2813    10.0227     2.4541     0.0174   -28.0680     3.1813     3.0012     2.8278  1042.6885    88.4766
 2879.0000   114.7770     0.2829    10.0230     2.4441     0.0127   -28.2551     3.1809     3.0157     2.8274  1062.3984    88.9703
 2879.5000   114.1725     0.2949     9.9848     2.4400     0.0114   -28.4421     3.2384     3.0302     2.8268  1089.1111    89.2672
 2880.0000   112.9774     0.2957    10.0253     2.4259     0.0114   -28.6291     3.2672     3.0387     2.8262  1101.8217    88.5802
 2880.5000   112.3775     0.2917    10.0265     2.4239     0.0053   -28.8162     3.2666     3.0383     2.8002  1101.8534    87.3023
 2881.0000   112.9541     0.2909    10.0272     2.4239     0.0053   -29.0417     3.2075     2.9831     2.6999  1062.5023    86.9102
 2881.5000   114.1258     0.3125    10.0681     2.4260     0.0018   -29.0426     3.0674     2.8663     2.6033  1042.8744    87.7976
 2882.0000   118.8360     0.3157    10.0299     2.4280     0.0018   -29.2345     2.9334     2.7540     2.4875  1042.9044    89.5708
 2882.5000   119.4172     0.3461    10.0700     2.4260     0.0018   -29.1625     2.8053     2.6461     2.4202  1042.9283    90.8519
 2883.0000   119.4032     0.3453    10.1110     2.4179     0.0018   -29.0905     2.6252     2.5319     2.3979  1042.9705    92.2317
 2883.5000   119.9844     0.3405    10.0719     2.4159     0.0039   -29.0475     2.6250     2.5086     2.3975  1043.0004    92.7254
 2884.0000   123.5136     0.3357    10.1127     2.4159     0.0059   -28.8575     2.6484     2.5084     2.3970  1062.7162    93.0223
 2884.5000   123.5043     0.3302    10.1134     2.4200     0.0079   -28.8577     2.6962     2.5436     2.4403  1062.7468    92.6308
 2885.0000   120.5376     0.3246    10.1439     2.4240     0.0099   -29.0516     2.7700     2.5793     2.4399  1062.7834    92.1397
 2885.5000   119.3472     0.3134    10.1551     2.4240     0.0099   -29.0523     2.8202     2.6155     2.4840  1043.1025    91.5508
 2886.0000   117.5616     0.2934    10.1498     2.4220     0.0079   -29.0530     2.8713     2.6463     2.5062  1043.1573    90.8638
 2886.5000   118.1428     0.2918    10.1444     2.4261     0.0074   -28.8292     2.9232     2.6941     2.5056  1043.1865    90.1764
 2887.0000   119.9004     0.2910    10.1391     2.4412     0.0175   -28.6055     2.9493     2.6936     2.5051  1043.2045    89.5876
 2887.5000   120.4816     0.2918    10.1337     2.4513     0.0276   -28.2928     2.8957     2.6931     2.4374  1060.3173    89.1955
 2888.0000   120.4676     0.2958    10.1283     2.4634     0.0316   -28.2935     2.8695     2.5732     2.3502  1062.9730    89.0987
 2888.5000   121.6393     0.2990    10.1230     2.4554     0.0357   -28.2937     2.6326     2.4616     2.2253  1062.9915    89.2971
 2889.0000   122.8064     0.2998    10.1176     2.4272     0.0357   -28.4871     2.4154     2.3548     2.1070  1046.8007    89.7911
 2889.5000   123.3829     0.3094    10.1123     2.4252     0.0357   -28.4882     2.3065     2.2040     2.0500  1063.0709    90.3832
 2890.0000   124.5546     0.3182    10.1069     2.4312     0.0478   -28.4885     2.3061     2.2039     2.0496  1063.1014    92.1562
 2890.5000   125.1312     0.3214    10.1016     2.4443     0.0538   -28.3070     2.3692     2.2035     2.0679  1082.8254    94.4213
 2891.0000   123.9408     0.3231    10.0962     2.4443     0.0438   -28.1095     2.4786     2.2966     2.1244  1063.1626    95.0133
 2891.5000   120.3836     0.3207    10.0909     2.4383     0.0216   -28.1100     2.6167     2.3937     2.1437  1063.1993    95.3105
 2892.0000   119.1932     0.3079    10.0855     2.4282     0.0075   -28.5177     2.8131     2.4948     2.4552  1063.2299    94.2295
 2892.5000   112.6833     0.2879    10.0802     2.4222     0.0055   -28.9255     2.8902     2.6002     2.5455  1082.9562    92.9518
 2893.0000   112.0834     0.2871    10.0748     2.4242    -0.0006   -29.4542     2.9963     2.6873     2.6151  1082.9873    90.4932
 2893.5000   111.4789     0.2855    10.0694     2.4343    -0.0026   -29.4549     3.0506     2.7797     2.6868  1063.3246    89.9043
 2894.0000   107.3358     0.2903    10.0641     2.4444     0.0201   -29.4554     3.1059     2.8753     2.7355  1063.3585    89.7091
 2894.5000   107.9123     0.2903    10.0587     2.4404     0.0201   -29.2578     3.1621     2.9742     2.8104  1063.3892    89.7107
 2895.0000   109.0841     0.2855    10.0534     2.4283     0.0181   -29.0603     3.2487     3.0766     2.8874  1063.4226    89.3190
 2895.5000   111.4322     0.2743    10.0480     2.4263     0.0055   -28.8857     3.3681     3.2188     2.9934  1063.4503    88.4350
 2896.0000   113.1898     0.2599    10.0427     2.4404    -0.0026   -28.8864     3.4920     3.3675     3.1891  1063.4871    87.5510
 2896.5000   111.9994     0.2455    10.0373     2.4545    -0.0046   -29.1065     3.7541     3.5554     3.3066  1083.1992    86.4701
 2897.0000   109.6233     0.2447    10.0320     2.4666    -0.0005   -29.2723     4.5822     3.9159     4.0358  1063.5482    85.6845
