#------------------------------------------------------------------------------
#
#   Created by  : [OpenWorks] Log Export Utility (LEXP)
#   Created on  : 2007-05-07 11:57:08
#   Project     : NORNE
#   User        : JSE
#   Interpreter : JSE
#
#------------------------------------------------------------------------------
~VERSION INFORMATION
VERS. 2.0 : CWLS Log ASCII Standard - version 2.0
WRAP.  NO : One line per depth step
~WELL INFORMATION
#MNEMONIC   .UNIT                                           VALUE :DESCRIPTION
#------------------------------------------------------------------------------
STRT        .M                                          1375.3750 :START DEPTH
STOP        .M                                          3298.0000 :STOP DEPTH
STEP        .M                                             0.1250 :STEP
NULL        .                                           -999.2500 :NULL VALUE
COMP        .                                             STATOIL :COMPANY
WELL        .                                       6608/10-C-1 H :WELL
FLD         .                                               NORNE :FIELD
LOC         .                                             UNKNOWN :LOCATION
CNTY        .                                             UNKNOWN :COUNTY
STAT        .                                             UNKNOWN :STATE
CTRY        .                                              Norway :COUNTRY
SRVC        .                                             UNKNOWN :SERVICE COMPANY
DATE        .                                             UNKNOWN :LOG DATE
UWI         .                                    NO 6608/10-C-1 H :UNIQUE WELL ID
XCOORD      .                                       457190.110178 :SURFACE X
YCOORD      .                                      7322024.307354 :SURFACE Y
LAT         .                                           66.014414 :LATITUDE
LON         .                                            8.056259 :LONGITUDE
ELEV        .M                                            22.0000 :SURFACE ELEV
ELEV_TYPE   .                                                  KB :ELEV TYPE
~CURVE INFORMATION
#MNEMONIC.UNIT        API CODE       : CURVE DESCRIPTION
#------------------------------------------------------------------------------
DEPTH    .M                          : Measured Depth
TVD      .M                          : True Vertical Depth (TVD)
TVDSS    .M                          : True Vertical Depth (TVDSS)
DT       .us/ft                      : DT:UNKNOWN:rC:NONE:v1 
DTS      .us/ft                      : DTS:UNKNOWN:rC:NONE:v1 
GR       .API         UNKNOWN        : GR:GR:rC:NONE:v1 
KLOGH    .mD          UNKNOWN        : KLOGH:UNKNOWN:rC::v0 (auto-composite)
NPHI     .v/v_decimal                : NPHI:UNKNOWN:rC:NONE:v1 
PHIF     .v/v_decimal UNKNOWN        : PHIF:UNKNOWN:rC::v0 (auto-composite)
RHOB     .g/cm3       UNKNOWN        : RHOB:UNKNOWN:rC:NONE:v1 
SW       .v/v_decimal UNKNOWN        : SW:UNKNOWN:rC::v0 (auto-composite)
VSH      .v/v_decimal UNKNOWN        : VSH:UNKNOWN:rC::v0 (auto-composite)
~A     DEPTH         TVD       TVDSS           DT          DTS           GR        KLOGH         NPHI         PHIF         RHOB           SW          VSH
# ...
   3000.3750   2676.4192  -2654.4192      94.5420     160.0985      80.5985     129.7133       0.2503       0.2588       2.2410       0.3407       0.0470
   3000.5000   2676.5413  -2654.5413      94.2572     158.1353      80.2768     113.7225       0.2450       0.2553       2.2469       0.3429       0.0419
   3000.6250   2676.6633  -2654.6633      93.9965     156.3813      80.2491     104.1921       0.2383       0.2529       2.2509       0.3425       0.0414
   3000.7500   2676.7854  -2654.7854      93.7605     155.0157      80.6569     106.1051       0.2341       0.2534       2.2500       0.3382       0.0480
   3000.8750   2676.9075  -2654.9075      93.5578     154.5424      81.1968     113.8254       0.2324       0.2553       2.2469       0.3336       0.0566
   3001.0000   2677.0295  -2655.0295      93.3940     155.2429      81.3280     114.5231       0.2298       0.2555       2.2466       0.3331       0.0587
   3001.1250   2677.1516  -2655.1516      93.2734     157.1917      80.9041     107.3132       0.2273       0.2537       2.2495       0.3361       0.0519
   3001.2500   2677.2737  -2655.2737      93.1923     160.1909      80.0236      97.2352       0.2266       0.2510       2.2540       0.3398       0.0378
   3001.3750   2677.3955  -2655.3955      93.1428     163.7980      78.9822      92.2723       0.2294       0.2496       2.2563       0.3391       0.0211
   3001.5000   2677.5176  -2655.5176      93.1404     167.2737      78.1581     112.7474       0.2360       0.2550       2.2473       0.3210       0.0079
   3001.6250   2677.6396  -2655.6396      93.2158     169.9997      77.5519     166.2062       0.2409       0.2656       2.2249       0.2733       0.0010
   3001.7500   2677.7617  -2655.7617      93.3447     171.9899      76.9657     271.0020       0.2400       0.2714       2.1972       0.2229       0.0010
   3001.8750   2677.8838  -2655.8838      93.5043     173.2605      76.2983     593.4741       0.2349       0.2849       2.1704       0.1717       0.0010
   3002.0000   2678.0059  -2656.0059      93.6829     173.8247      75.4950    1104.1919       0.2302       0.2957       2.1502       0.1371       0.0010
   3002.1250   2678.1279  -2656.1279      93.8935     173.6321      74.5464    1519.1831       0.2324       0.3012       2.1412       0.1166       0.0010
   3002.2500   2678.2500  -2656.2500      94.2175     172.8677      73.4341    1499.9751       0.2454       0.3010       2.1442       0.1087       0.0010
   3002.3750   2678.3718  -2656.3718      94.6794     172.2371      72.4223    1397.5631       0.2583       0.2998       2.1500       0.1074       0.0010
   3002.5000   2678.4939  -2656.4939      95.2448     172.0715      71.7151    1279.7898       0.2658       0.2983       2.1557       0.1084       0.0010
   3002.6250   2678.6160  -2656.6160      95.8401     172.4553      71.4348    1221.1180       0.2664       0.2974       2.1593       0.1124       0.0010
   3002.7500   2678.7380  -2656.7380      96.3725     173.2638      71.5799    1139.7183       0.2617       0.2962       2.1596       0.1138       0.0010
   3002.8750   2678.8601  -2656.8601      96.7516     174.2173      71.8297    1149.2015       0.2543       0.2964       2.1555       0.1118       0.0010
   3003.0000   2678.9822  -2656.9822      96.9851     175.0809      71.6301    1213.8169       0.2464       0.2973       2.1499       0.1064       0.0010
   3003.1250   2679.1042  -2657.1042      97.0881     175.9222      71.1839    1307.0149       0.2394       0.2986       2.1458       0.1023       0.0010
   3003.2500   2679.2263  -2657.2263      97.0451     176.7150      70.7850    1356.1776       0.2348       0.2993       2.1447       0.1007       0.0010
   3003.3750   2679.3484  -2657.3484      96.8413     177.3313      70.6317    1350.4318       0.2340       0.2992       2.1464       0.1018       0.0010
   3003.5000   2679.4702  -2657.4702      96.4710     177.5230      70.7140    1365.2013       0.2372       0.2994       2.1480       0.1051       0.0010
   3003.6250   2679.5923  -2657.5923      95.9502     177.1252      70.4780    1405.0405       0.2410       0.2999       2.1480       0.1083       0.0010
   3003.7500   2679.7144  -2657.7144      95.4344     176.5980      69.9804    1525.9937       0.2421       0.3013       2.1461       0.1086       0.0010
   3003.8750   2679.8364  -2657.8364      94.9872     176.1745      69.6137    1703.1023       0.2440       0.3032       2.1441       0.1065       0.0010
   3004.0000   2679.9585  -2657.9585      94.6464     175.8595      69.6844    1831.0012       0.2490       0.3045       2.1436       0.1023       0.0010
   3004.1250   2680.0806  -2658.0806      94.4276     175.5078      70.3585    1986.5479       0.2576       0.3059       2.1453       0.1017       0.0010
   3004.2500   2680.2026  -2658.2026      94.3472     174.8776      71.5417    2000.0000       0.2642       0.3067       2.1478       0.1044       0.0010
   3004.3750   2680.3247  -2658.3247      94.3870     174.1900      72.5083    1813.7637       0.2603       0.3043       2.1517       0.1108       0.0010
   3004.5000   2680.4465  -2658.4465      94.4750     173.8336      72.9362    1633.5480       0.2499       0.3025       2.1547       0.1185       0.0010
   3004.6250   2680.5686  -2658.5686      94.5749     173.9128      72.8903    1603.5144       0.2387       0.3022       2.1552       0.1247       0.0010
   3004.7500   2680.6907  -2658.6907      94.6605     174.3293      72.5827    1552.2540       0.2307       0.3016       2.1534       0.1259       0.0010
   3004.8750   2680.8127  -2658.8127      94.7169     174.7881      72.3126    1555.8098       0.2274       0.3016       2.1510       0.1210       0.0010
   3005.0000   2680.9348  -2658.9348      94.7423     174.8218      72.3610    1558.0784       0.2276       0.3017       2.1510       0.1126       0.0010
   3005.1250   2681.0569  -2659.0569      94.7650     174.3863      72.5919    1550.6528       0.2269       0.3016       2.1530       0.1061       0.0010
   3005.2500   2681.1790  -2659.1790      94.7896     173.6780      72.7968    1664.6503       0.2283       0.3028       2.1535       0.1024       0.0010
   3005.3750   2681.3010  -2659.3010      94.8155     172.8871      72.9269    1871.0348       0.2341       0.3048       2.1508       0.1015       0.0010
   3005.5000   2681.4229  -2659.4229      94.8393     172.2061      73.0610    2000.0000       0.2445       0.3084       2.1450       0.1038       0.0010
   3005.6250   2681.5449  -2659.5449      94.8541     171.8484      73.4770    2000.0000       0.2545       0.3121       2.1384       0.1097       0.0010
   3005.7500   2681.6670  -2659.6670      94.8565     172.0399      74.0584    2000.0000       0.2585       0.3112       2.1388       0.1194       0.0010
   3005.8750   2681.7891  -2659.7891      94.8346     172.6124      74.3406    2000.0000       0.2558       0.3076       2.1449       0.1311       0.0010
   3006.0000   2681.9111  -2659.9111      94.7821     173.3899      74.2154    1703.1510       0.2498       0.3032       2.1535       0.1431       0.0010
   3006.1250   2682.0332  -2660.0332      94.7040     174.1928      73.8365    1300.7517       0.2442       0.2985       2.1611       0.1529       0.0010
   3006.2500   2682.1553  -2660.1553      94.6150     174.8603      73.5922    1131.5549       0.2420       0.2961       2.1651       0.1590       0.0010
   3006.3750   2682.2773  -2660.2773      94.5330     175.2278      74.1412    1067.9375       0.2431       0.2951       2.1667       0.1609       0.0010
   3006.5000   2682.3994  -2660.3994      94.4585     175.2584      75.2703    1007.8957       0.2453       0.2941       2.1684       0.1607       0.0010
   3006.6250   2682.5212  -2660.5212      94.3759     175.0122      76.3622     917.5984       0.2477       0.2925       2.1710       0.1600       0.0010
   3006.7500   2682.6433  -2660.6433      94.2755     174.5655      76.9371     807.8815       0.2501       0.2903       2.1747       0.1593       0.0010
