#------------------------------------------------------------------------------
#
#   Created by  : [OpenWorks] Log Export Utility (LEXP)
#   Created on  : 2007-05-07 11:57:46
#   Project     : NORNE
#   User        : JSE
#   Interpreter : JSE
#
#------------------------------------------------------------------------------
~VERSION INFORMATION
VERS. 2.0 : CWLS Log ASCII Standard - version 2.0
WRAP.  NO : One line per depth step
~WELL INFORMATION
#MNEMONIC   .UNIT                                           VALUE :DESCRIPTION
#------------------------------------------------------------------------------
STRT        .M                                          1250.1914 :START DEPTH
STOP        .M                                          3136.8164 :STOP DEPTH
STEP        .M                                             0.1250 :STEP
NULL        .                                           -999.2500 :NULL VALUE
COMP        .                                             STATOIL :COMPANY
WELL        .                                       6608/10-D-4 H :WELL
FLD         .                                               NORNE :FIELD
LOC         .                                             UNKNOWN :LOCATION
CNTY        .                                             UNKNOWN :COUNTY
STAT        .                                             UNKNOWN :STATE
CTRY        .                                              Norway :COUNTRY
SRVC        .                                             UNKNOWN :SERVICE COMPANY
DATE        .                                             UNKNOWN :LOG DATE
UWI         .                                    NO 6608/10-D-4 H :UNIQUE WELL ID
XCOORD      .                                       457259.082734 :SURFACE X
YCOORD      .                                      7321952.911776 :SURFACE Y
LAT         .                                           66.013783 :LATITUDE
LON         .                                            8.057803 :LONGITUDE
ELEV        .M                                            22.0000 :SURFACE ELEV
ELEV_TYPE   .                                                  KB :ELEV TYPE
~CURVE INFORMATION
#MNEMONIC.UNIT        API CODE       : CURVE DESCRIPTION
#------------------------------------------------------------------------------
DEPTH    .M                          : Measured Depth
TVD      .M                          : True Vertical Depth (TVD)
TVDSS    .M                          : True Vertical Depth (TVDSS)
DT       .us/ft                      : DT:UNKNOWN:rC:NONE:v1 
DTS      .us/ft                      : DTS:UNKNOWN:rC:NONE:v1 
GR       .API                        : GR:UNKNOWN:rC:NONE:v1 
KLOGH    .mD          UNKNOWN        : KLOGH:UNKNOWN:rC::v0 (auto-composite)
NPHI     .v/v_decimal                : NPHI:UNKNOWN:rC:NONE:v1 
PHIF     .v/v_decimal UNKNOWN        : PHIF:UNKNOWN:rC::v0 (auto-composite)
RHOB     .g/cm3                      : RHOB:UNKNOWN:rC:NONE:v1 
SW       .v/v_decimal UNKNOWN        : SW:UNKNOWN:rC::v0 (auto-composite)
VSH      .v/v_decimal UNKNOWN        : VSH:UNKNOWN:rC::v0 (auto-composite)
~A     DEPTH         TVD       TVDSS           DT          DTS           GR        KLOGH         NPHI         PHIF         RHOB           SW          VSH
# ...
   2667.1914   2544.1807  -2522.1807      92.2561     173.5362      58.9380    -999.2500    -999.2500    -999.2500    -999.2500    -999.2500    -999.2500
   2667.3164   2544.2769  -2522.2769      92.1521     173.3786      57.1709    -999.2500    -999.2500    -999.2500    -999.2500    -999.2500    -999.2500
   2667.4414   2544.3733  -2522.3733      92.1209     173.2991      56.3271    -999.2500    -999.2500    -999.2500    -999.2500    -999.2500    -999.2500
   2667.5664   2544.4695  -2522.4695      92.1378     173.0189      55.9979    -999.2500    -999.2500    -999.2500    -999.2500    -999.2500    -999.2500
   2667.6914   2544.5657  -2522.5657      92.1852     172.5555      55.5718    -999.2500    -999.2500    -999.2500    -999.2500    -999.2500    -999.2500
   2667.8164   2544.6621  -2522.6621      92.2540     172.2123      67.4163    -999.2500    -999.2500    -999.2500    -999.2500    -999.2500    -999.2500
   2667.9414   2544.7583  -2522.7583      92.3397     172.3894      85.1694    -999.2500    -999.2500    -999.2500    -999.2500    -999.2500    -999.2500
   2668.0664   2544.8547  -2522.8547      92.4450     173.5070      66.3200    -999.2500    -999.2500    -999.2500    -999.2500    -999.2500    -999.2500
   2668.1914   2544.9509  -2522.9509      92.6477     175.9932      60.8032    -999.2500    -999.2500    -999.2500    -999.2500    -999.2500    -999.2500
   2668.3164   2545.0471  -2523.0471      93.0074     179.0231      63.7031    -999.2500    -999.2500    -999.2500    -999.2500    -999.2500    -999.2500
   2668.4414   2545.1436  -2523.1436      93.5224     182.0505      63.1304    -999.2500    -999.2500    -999.2500    -999.2500    -999.2500    -999.2500
   2668.5664   2545.2397  -2523.2397      94.1441     184.8633      60.6182    -999.2500       0.3456    -999.2500       2.1119    -999.2500    -999.2500
   2668.6914   2545.3362  -2523.3362      94.7912     187.4164      62.1624    -999.2500       0.3766    -999.2500       2.2253    -999.2500    -999.2500
   2668.8164   2545.4324  -2523.4324      95.3467     189.3667      54.7121    -999.2500       0.4198    -999.2500       2.3107    -999.2500    -999.2500
   2668.9414   2545.5286  -2523.5286      95.7921     190.8886      57.2945    -999.2500       0.4476    -999.2500       2.3212    -999.2500    -999.2500
   2669.0664   2545.6250  -2523.6250      96.1923     192.1058      77.4195    -999.2500       0.4564    -999.2500       2.3019    -999.2500    -999.2500
   2669.1914   2545.7212  -2523.7212      96.5635     193.1439      92.1273    -999.2500       0.4475    -999.2500       2.2841    -999.2500    -999.2500
   2669.3164   2545.8174  -2523.8174      96.9026     194.2484      92.0848    -999.2500       0.4274    -999.2500       2.2858    -999.2500    -999.2500
   2669.4414   2545.9138  -2523.9138      97.1907     195.7725      93.4625    -999.2500       0.4069    -999.2500       2.3056    -999.2500    -999.2500
   2669.5664   2546.0100  -2524.0100      97.4344     197.4135      97.1548    -999.2500       0.3887    -999.2500       2.3302    -999.2500    -999.2500
   2669.6914   2546.1064  -2524.1064      97.7540     198.1024     101.9095    -999.2500       0.3764    -999.2500       2.3601    -999.2500    -999.2500
   2669.8164   2546.2026  -2524.2026      98.1724     197.4112     106.3480    -999.2500       0.3751    -999.2500       2.3865    -999.2500    -999.2500
   2669.9414   2546.2988  -2524.2988      98.6363     195.7026     109.6833    -999.2500       0.3815    -999.2500       2.4037    -999.2500    -999.2500
   2670.0664   2546.3953  -2524.3953      99.0409     193.7600     111.5302    -999.2500       0.3887    -999.2500       2.4101    -999.2500    -999.2500
   2670.1914   2546.4915  -2524.4915      99.2107     192.5178     111.7091    -999.2500       0.3896    -999.2500       2.4109    -999.2500    -999.2500
   2670.3164   2546.5879  -2524.5879      98.9733     192.2704     110.5155    -999.2500       0.3804    -999.2500       2.4140    -999.2500    -999.2500
   2670.4414   2546.6841  -2524.6841      98.4092     192.3513     108.3837    -999.2500       0.3635    -999.2500       2.4191    -999.2500    -999.2500
   2670.5664   2546.7803  -2524.7803      97.6219     192.3671     105.7616    -999.2500       0.3435    -999.2500       2.4200    -999.2500    -999.2500
   2670.6914   2546.8767  -2524.8767      96.7414     192.2461     103.1646    -999.2500       0.3272    -999.2500       2.4123    -999.2500    -999.2500
   2670.8164   2546.9729  -2524.9729      95.9085     192.2395     101.1660    -999.2500       0.3223    -999.2500       2.3950    -999.2500    -999.2500
   2670.9414   2547.0693  -2525.0693      95.2891     192.4463     101.2259    -999.2500       0.3354    -999.2500       2.3770    -999.2500    -999.2500
   2671.0664   2547.1655  -2525.1655      94.8498     192.4810     104.4146    -999.2500       0.3584    -999.2500       2.3631    -999.2500    -999.2500
   2671.1914   2547.2617  -2525.2617      94.4867     192.1710     109.7898    -999.2500       0.3816    -999.2500       2.3585    -999.2500    -999.2500
   2671.3164   2547.3582  -2525.3582      94.1059     191.5027     116.0203    -999.2500       0.3926    -999.2500       2.3658    -999.2500    -999.2500
   2671.4414   2547.4543  -2525.4543      93.6333     190.5061     121.7017    -999.2500       0.3821    -999.2500       2.3824    -999.2500    -999.2500
   2671.5664   2547.5505  -2525.5505      93.0368     189.1375     125.6870    -999.2500       0.3503    -999.2500       2.3964    -999.2500    -999.2500
   2671.6914   2547.6470  -2525.6470      92.3455     187.1271     127.2280    -999.2500       0.3217    -999.2500       2.4072    -999.2500    -999.2500
   2671.8164   2547.7432  -2525.7432      91.5862     184.6436     126.8784    -999.2500       0.3113    -999.2500       2.4209    -999.2500    -999.2500
   2671.9414   2547.8396  -2525.8396      90.8172     181.9830     124.6095    -999.2500       0.3175    -999.2500       2.4373    -999.2500    -999.2500
   2672.0664   2547.9358  -2525.9358      90.1181     179.5570     120.5638    -999.2500       0.3325    -999.2500       2.4539    -999.2500    -999.2500
   2672.1914   2548.0320  -2526.0320      89.5790     177.8140     115.2241    -999.2500       0.3440    -999.2500       2.4660    -999.2500    -999.2500
   2672.3164   2548.1284  -2526.1284      89.3107     177.0846     110.8352    -999.2500       0.3379    -999.2500       2.4660    -999.2500    -999.2500
   2672.4414   2548.2246  -2526.2246      89.3026     176.9855     109.5199    -999.2500       0.3193    -999.2500       2.4561    -999.2500    -999.2500
   2672.5664   2548.3210  -2526.3210      89.4819     177.4242     110.4513    -999.2500       0.2975    -999.2500       2.4431    -999.2500    -999.2500
   2672.6914   2548.4172  -2526.4172      89.8080     178.3889     112.3367    -999.2500       0.2784    -999.2500       2.4333    -999.2500    -999.2500
   2672.8164   2548.5134  -2526.5134      90.2382     179.8260     113.9771    -999.2500       0.2666    -999.2500       2.4298    -999.2500    -999.2500
   2672.9414   2548.6099  -2526.6099      90.7215     181.5910     114.7779    -999.2500       0.2658    -999.2500       2.4290    -999.2500    -999.2500
   2673.0664   2548.7061  -2526.7061      91.1838     183.4454     115.6585    -999.2500       0.2745    -999.2500       2.4234    -999.2500    -999.2500
   2673.1914   2548.8025  -2526.8025      91.5706     185.2268     117.4354    -999.2500       0.2902    -999.2500       2.4214    -999.2500    -999.2500
   2673.3164   2548.8987  -2526.8987      91.9047     187.0720     119.9793    -999.2500       0.3088    -999.2500       2.4201    -999.2500    -999.2500
   2673.4414   2548.9949  -2526.9949      92.2539     189.0091     122.7627    -999.2500       0.3254    -999.2500       2.4179    -999.2500    -999.2500
   2673.5664   2549.0913  -2527.0913      92.7094     190.9482     125.1170    -999.2500       0.3362    -999.2500       2.4152    -999.2500    -999.2500
