#------------------------------------------------------------------------------
#
#   Created by  : [OpenWorks] Log Export Utility (LEXP)
#   Created on  : 2007-05-07 11:57:18
#   Project     : NORNE
#   User        : JSE
#   Interpreter : JSE
#
#------------------------------------------------------------------------------
~VERSION INFORMATION
VERS. 2.0 : CWLS Log ASCII Standard - version 2.0
WRAP.  NO : One line per depth step
~WELL INFORMATION
#MNEMONIC   .UNIT                                           VALUE :DESCRIPTION
#------------------------------------------------------------------------------
STRT        .M                                           437.6250 :START DEPTH
STOP        .M                                          2890.0000 :STOP DEPTH
STEP        .M                                             0.1250 :STEP
NULL        .                                           -999.2500 :NULL VALUE
COMP        .                                             STATOIL :COMPANY
WELL        .                                       6608/10-C-4 H :WELL
FLD         .                                               NORNE :FIELD
LOC         .                                             UNKNOWN :LOCATION
CNTY        .                                             UNKNOWN :COUNTY
STAT        .                                             UNKNOWN :STATE
CTRY        .                                              Norway :COUNTRY
SRVC        .                                             UNKNOWN :SERVICE COMPANY
DATE        .                                             UNKNOWN :LOG DATE
UWI         .                                    NO 6608/10-C-4 H :UNIQUE WELL ID
XCOORD      .                                       457180.075915 :SURFACE X
YCOORD      .                                      7322034.182216 :SURFACE Y
LAT         .                                           66.014501 :LATITUDE
LON         .                                            8.056034 :LONGITUDE
ELEV        .M                                            25.0000 :SURFACE ELEV
ELEV_TYPE   .                                                  KB :ELEV TYPE
~CURVE INFORMATION
#MNEMONIC.UNIT        API CODE       : CURVE DESCRIPTION
#------------------------------------------------------------------------------
DEPTH    .M                          : Measured Depth
TVD      .M                          : True Vertical Depth (TVD)
TVDSS    .M                          : True Vertical Depth (TVDSS)
DT       .us/ft                      : DT:UNKNOWN:rC:NONE:v1 
GR       .API                        : GR:UNKNOWN:rC:NONE:v1 
KLOGH    .mD          UNKNOWN        : KLOGH:UNKNOWN:rC::v0 (auto-composite)
NPHI     .v/v_decimal                : NPHI:UNKNOWN:rC:NONE:v1 
PHIF     .v/v_decimal UNKNOWN        : PHIF:UNKNOWN:rC::v0 (auto-composite)
RHOB     .g/cm3                      : RHOB:UNKNOWN:rC:NONE:v1 
SW       .v/v_decimal UNKNOWN        : SW:UNKNOWN:rC::v0 (auto-composite)
VSH      .v/v_decimal UNKNOWN        : VSH:UNKNOWN:rC::v0 (auto-composite)
~A     DEPTH         TVD       TVDSS           DT           GR        KLOGH         NPHI         PHIF         RHOB           SW          VSH
# ...
   2603.6250   2579.6350  -2554.6350     108.4928     110.8697     302.3500       0.1605       0.2766       2.0892       0.1859       0.3392
   2603.7500   2579.7600  -2554.7600     108.5607     106.9001     333.0573       0.1538       0.2785       2.0958       0.1798       0.2956
   2603.8750   2579.8850  -2554.8850     108.6407     113.6986     358.0596       0.1501       0.2799       2.0524       0.1792       0.3703
   2604.0000   2580.0100  -2555.0100     108.8243     114.3617     394.0006       0.1511       0.2819       2.0674       0.1736       0.3776
   2604.1250   2580.1350  -2555.1350     109.1524     114.6158     436.5811       0.1580       0.2839       2.1187       0.1708       0.3804
   2604.2500   2580.2600  -2555.2600     109.5874     114.4029     277.4000       0.1716       0.2748       2.1861       0.1845       0.3781
   2604.3750   2580.3850  -2555.3850     110.0245     110.3679      59.5020       0.1917       0.2440       2.2500       0.1802       0.3337
   2604.5000   2580.5100  -2555.5100     110.2801     113.4391     111.2522       0.2159       0.2565       2.2385       0.1810       0.3675
   2604.6250   2580.6348  -2555.6348     110.3230     118.7510      44.8518       0.2358       0.2383       2.2785       0.2102       0.4259
   2604.7500   2580.7598  -2555.7598     110.2628     118.5581      82.4782       0.2479       0.2505       2.2682       0.2056       0.4237
   2604.8750   2580.8848  -2555.8848     110.1910     116.8322     104.1195       0.2512       0.2552       2.2670       0.2005       0.4047
   2605.0000   2581.0098  -2556.0098     110.1646     116.8828      21.8822       0.2445       0.2240       2.2981       0.2265       0.4053
   2605.1250   2581.1348  -2556.1348     110.1770     115.8910       6.8262       0.2253       0.2007       2.2560       0.2546       0.3945
   2605.2500   2581.2598  -2556.2598     110.0612     105.7775     107.7121       0.2037       0.2559       2.1206       0.1893       0.2832
   2605.3750   2581.3848  -2556.3848     109.7309     102.2112     225.2960       0.1921       0.2707       2.0665       0.1670       0.2441
   2605.5000   2581.5098  -2556.5098     109.2254     101.1508      53.1778       0.1937       0.2418       2.1109       0.1811       0.2324
   2605.6250   2581.6348  -2556.6348     108.6619     103.5009       5.2645       0.2084       0.1955       2.2018       0.2236       0.2582
   2605.7500   2581.7598  -2556.7598     108.2110     110.7265       1.0879       0.2332       0.1639       2.2660       0.2695       0.3376
   2605.8750   2581.8848  -2556.8848     108.1338     111.4859       0.3529       0.2589       0.1413       2.3259       0.3415       0.3460
   2606.0000   2582.0098  -2557.0098     108.5285     122.3841       0.1079       0.2672       0.1176       2.3873       0.4442       0.4658
   2606.1250   2582.1348  -2557.1348     109.1934     118.8598       0.2105       0.2573       0.1310       2.3590       0.4012       0.4270
   2606.2500   2582.2598  -2557.2598     109.9754     112.8511       2.3481       0.2332       0.1793       2.2508       0.2874       0.3610
   2606.3750   2582.3848  -2557.3848     110.7467     113.0988      67.2151       0.2020       0.2464       2.1041       0.2049       0.3637
   2606.5000   2582.5098  -2557.5098     111.4285     115.0303    1406.5123       0.1720       0.3073       1.9769       0.1545       0.3849
   2606.6250   2582.6348  -2557.6348     112.0111     110.7628    2000.0000       0.1532       0.3368       1.9244       0.1123       0.3380
   2606.7500   2582.7598  -2557.7598     112.5008      99.8383    2000.0000       0.1446       0.3604       1.8870       0.0848       0.2180
   2606.8750   2582.8845  -2557.8845     112.7894      94.1909    1661.9265       0.1459       0.3107       2.0079       0.0973       0.1559
   2607.0000   2583.0095  -2558.0095     112.7616      96.0533      51.2302       0.1577       0.2410       2.1663       0.1405       0.1764
   2607.1250   2583.1345  -2558.1345     112.3309     102.4358      25.2397       0.1799       0.2268       2.2053       0.1660       0.2465
   2607.2500   2583.2595  -2558.2595     111.4652     108.9747       3.8165       0.2103       0.1890       2.2907       0.2243       0.3184
   2607.3750   2583.3845  -2558.3845     110.3558     117.4451       3.6010       0.2349       0.1878       2.3061       0.2476       0.4115
   2607.5000   2583.5095  -2558.5095     109.2732     112.6456       2.9429       0.2498       0.1838       2.3264       0.2541       0.3588
   2607.6250   2583.6345  -2558.6345     108.3558     109.4023       3.6434       0.2585       0.1881       2.3087       0.2454       0.3231
   2607.7500   2583.7595  -2558.7595     107.6807     114.1156       4.3680       0.2642       0.1917       2.2678       0.2439       0.3749
   2607.8750   2583.8845  -2558.8845     107.2625     119.8999       1.5157       0.2683       0.1705       2.2856       0.2790       0.4385
   2608.0000   2584.0095  -2559.0095     107.0877     120.3684       3.0653       0.2673       0.1846       2.2970       0.2630       0.4436
   2608.1250   2584.1345  -2559.1345     107.0478     122.0343      10.1847       0.2599       0.2087       2.2677       0.2353       0.4619
   2608.2500   2584.2595  -2559.2595     107.0952     128.4511      23.1841       0.2514       0.2251       2.2595       0.2200       0.5324
   2608.3750   2584.3845  -2559.3845     107.2094     136.7358      28.0727       0.2460       0.2290       2.2481       0.2190       0.6235
   2608.5000   2584.5095  -2559.5095     107.3835     141.4754      19.7619       0.2466       0.2219       2.2213       0.2289       0.6755
   2608.6250   2584.6345  -2559.6345     107.6304     136.5671      10.7510       0.2519       0.2097       2.2869       0.2391       0.6216
   2608.7500   2584.7595  -2559.7595     107.9666     131.4805       7.7934       0.2565       0.2033       2.2360       0.2515       0.5657
   2608.8750   2584.8845  -2559.8845     108.3396     132.2902      25.1179       0.2580       0.2267       2.2324       0.2276       0.5746
   2609.0000   2585.0093  -2560.0093     108.6966     134.9528      20.6488       0.2561       0.2228       2.2548       0.2322       0.6039
   2609.1250   2585.1343  -2560.1343     108.9844     133.9514       4.2156       0.2507       0.1910       2.2801       0.2726       0.5929
   2609.2500   2585.2593  -2560.2593     109.1557     125.1018       4.0448       0.2417       0.1902       2.2813       0.2777       0.4956
   2609.3750   2585.3843  -2560.3843     109.1647     118.6797     442.3451       0.2318       0.2842       2.0885       0.1795       0.4250
   2609.5000   2585.5093  -2560.5093     109.0450     119.3779     326.8940       0.2260       0.2781       2.1003       0.1827       0.4327
   2609.6250   2585.6343  -2560.6343     108.8166     120.9405     214.6239       0.2273       0.2697       2.1170       0.1906       0.4499
   2609.7500   2585.7593  -2560.7593     108.4894     122.5380      63.5361       0.2367       0.2453       2.1664       0.2141       0.4674
   2609.8750   2585.8843  -2560.8843     108.0700     123.6732       6.5286       0.2525       0.1998       2.2713       0.2713       0.4799
   2610.0000   2586.0093  -2561.0093     107.5580     121.7515       8.1259       0.2688       0.2041       2.3230       0.2792       0.4588
   2610.1250   2586.1343  -2561.1343     106.9647     124.4428       6.8190       0.2688       0.2006       2.3160       0.2877       0.4884
   2610.2500   2586.2593  -2561.2593     106.3880     125.9522       6.0408       0.2616       0.1982       2.2816       0.2955       0.5050
   2610.3750   2586.3843  -2561.3843     105.9024     127.0934       6.8841       0.2561       0.2008       2.2802       0.2964       0.5175
   2610.5000   2586.5093  -2561.5093     105.5607     127.6746       8.9884       0.2562       0.2062       2.3170       0.2929       0.5239
   2610.6250   2586.6343  -2561.6343     105.3906     126.3475       7.6415       0.2612       0.2029       2.3586       0.2999       0.5093
