#------------------------------------------------------------------------------
#
#   Created by  : [OpenWorks] Log Export Utility (LEXP)
#   Created on  : 2007-05-07 11:57:18
#   Project     : NORNE
#   User        : JSE
#   Interpreter : JSE
#
#------------------------------------------------------------------------------
~VERSION INFORMATION
VERS. 2.0 : CWLS Log ASCII Standard - version 2.0
WRAP.  NO : One line per depth step
~WELL INFORMATION
#MNEMONIC   .UNIT                                           VALUE :DESCRIPTION
#------------------------------------------------------------------------------
STRT        .M                                           437.6250 :START DEPTH
STOP        .M                                          2890.0000 :STOP DEPTH
STEP        .M                                             0.1250 :STEP
NULL        .                                           -999.2500 :NULL VALUE
COMP        .                                             STATOIL :COMPANY
WELL        .                                       6608/10-C-4 H :WELL
FLD         .                                               NORNE :FIELD
LOC         .                                             UNKNOWN :LOCATION
CNTY        .                                             UNKNOWN :COUNTY
STAT        .                                             UNKNOWN :STATE
CTRY        .                                              Norway :COUNTRY
SRVC        .                                             UNKNOWN :SERVICE COMPANY
DATE        .                                             UNKNOWN :LOG DATE
UWI         .                                    NO 6608/10-C-4 H :UNIQUE WELL ID
XCOORD      .                                       457180.075915 :SURFACE X
YCOORD      .                                      7322034.182216 :SURFACE Y
LAT         .                                           66.014501 :LATITUDE
LON         .                                            8.056034 :LONGITUDE
ELEV        .M                                            25.0000 :SURFACE ELEV
ELEV_TYPE   .                                                  KB :ELEV TYPE
~CURVE INFORMATION
#MNEMONIC.UNIT        API CODE       : CURVE DESCRIPTION
#------------------------------------------------------------------------------
DEPTH    .M                          : Measured Depth
TVD      .M                          : True Vertical Depth (TVD)
TVDSS    .M                          : True Vertical Depth (TVDSS)
DT       .us/ft                      : DT:UNKNOWN:rC:NONE:v1 
GR       .API                        : GR:UNKNOWN:rC:NONE:v1 
KLOGH    .mD          UNKNOWN        : KLOGH:UNKNOWN:rC::v0 (auto-composite)
NPHI     .v/v_decimal                : NPHI:UNKNOWN:rC:NONE:v1 
PHIF     .v/v_decimal UNKNOWN        : PHIF:UNKNOWN:rC::v0 (auto-composite)
RHOB     .g/cm3                      : RHOB:UNKNOWN:rC:NONE:v1 
SW       .v/v_decimal UNKNOWN        : SW:UNKNOWN:rC::v0 (auto-composite)
VSH      .v/v_decimal UNKNOWN        : VSH:UNKNOWN:rC::v0 (auto-composite)
~A     DEPTH         TVD       TVDSS           DT           GR        KLOGH         NPHI         PHIF         RHOB           SW          VSH
# ...
   2788.8750   2764.8687  -2739.8687      89.8794      77.3617      16.3216       0.2074       0.1923       2.3346       0.8452       0.0566
   2789.0000   2764.9937  -2739.9937      89.6563      81.6191      18.2466       0.2086       0.1948       2.3305       0.8050       0.1119
   2789.1250   2765.1187  -2740.1187      89.3936      84.9657       8.9449       0.2099       0.1789       2.3565       0.8607       0.1554
   2789.2500   2765.2437  -2740.2437      89.0766      85.8730       2.0633       0.2116       0.1463       2.4101       1.0000       0.1672
   2789.3750   2765.3687  -2740.3687      88.6869      87.6625       1.3470       0.2155       0.1368       2.4257       1.0000       0.1904
   2789.5000   2765.4937  -2740.4937      88.2205      89.0684       4.9032       0.2189       0.1655       2.3785       0.8749       0.2087
   2789.6250   2765.6187  -2740.6187      87.7684      88.5537       3.6897       0.2188       0.1592       2.3889       0.8689       0.2020
   2789.7500   2765.7437  -2740.7437      87.4045      90.0325       2.6409       0.2167       0.1518       2.4011       0.8808       0.2212
   2789.8750   2765.8687  -2740.8687      87.1797      94.9273       1.8786       0.2148       0.1442       2.4136       0.8972       0.2848
   2790.0000   2765.9937  -2740.9937      87.1167     101.9089       0.6759       0.2157       0.1214       2.4509       0.9987       0.3754
   2790.1250   2766.1187  -2741.1187      87.2086     104.3729       0.6912       0.2208       0.1219       2.4501       0.9518       0.4074
   2790.2500   2766.2437  -2741.2437      87.4122     106.5131       0.7807       0.2281       0.1246       2.4456       0.8899       0.4352
   2790.3750   2766.3684  -2741.3684      87.7358     110.1282       0.8541       0.2346       0.1266       2.4424       0.8515       0.4822
   2790.5000   2766.4934  -2741.4934      88.1869     112.6098       0.9044       0.2395       0.1279       2.4403       0.8372       0.5144
   2790.6250   2766.6184  -2741.6184      88.7500     112.9361       0.8896       0.2433       0.1275       2.4409       0.8463       0.5187
   2790.7500   2766.7434  -2741.7434      89.3740     113.8510       0.7123       0.2474       0.1226       2.4490       0.8814       0.5311
   2790.8750   2766.8684  -2741.8684      89.9995     118.0980       0.7285       0.2490       0.1231       2.4482       0.8779       0.5857
   2791.0000   2766.9934  -2741.9934      90.5457     111.5807       1.1313       0.2493       0.1329       2.4299       0.7951       0.5010
   2791.1250   2767.1184  -2742.1184      90.9732     113.6894       0.5951       0.2529       0.1186       2.4556       0.8428       0.5285
   2791.2500   2767.2434  -2742.2434      91.2386     121.1419       0.2454       0.2615       0.0988       2.4879       0.9436       0.6252
   2791.3750   2767.3684  -2742.3684      91.2996     123.1430       0.3750       0.2741       0.1083       2.4725       0.8362       0.6512
   2791.5000   2767.4934  -2742.4934      91.0780     129.1664       0.1494       0.2861       0.0878       2.5060       0.9833       0.7294
   2791.6250   2767.6184  -2742.6184      90.4674     136.2735       0.0731       0.2948       0.0718       2.5322       1.0000       0.8217
   2791.7500   2767.7434  -2742.7434      89.5397     134.8838       0.0302       0.2986       0.0522       2.5645       1.0000       0.8037
   2791.8750   2767.8684  -2742.8684      88.3740     131.1498       0.0186       0.2971       0.0413       2.5822       1.0000       0.7552
   2792.0000   2767.9934  -2742.9934      87.0763     129.6989       0.0212       0.2913       0.0442       2.5774       1.0000       0.7363
   2792.1250   2768.1184  -2743.1184      85.7689     130.2801       0.0268       0.2828       0.0494       2.5688       1.0000       0.7439
   2792.2500   2768.2434  -2743.2434      84.6884     130.2292       0.0030       0.2690       0.0010       2.7050       1.0000       0.7432
   2792.3750   2768.3684  -2743.3684      83.9729     115.9083       0.0030       0.2494       0.0010       2.7213       1.0000       0.5572
   2792.5000   2768.4934  -2743.4934      83.6523      98.1179       0.0051       0.2301       0.0126       2.6292       1.0000       0.3261
   2792.6250   2768.6184  -2743.6184      83.7292      81.1509       0.0937       0.2160       0.0774       2.5231       0.9024       0.1058
   2792.7500   2768.7434  -2743.7434      84.1816      68.3576       0.3519       0.2106       0.1068       2.4701       0.7581       0.0010
   2792.8750   2768.8684  -2743.8684      84.9972      68.6234      11.2434       0.2139       0.1840       2.3455       0.6417       0.0010
   2793.0000   2768.9934  -2743.9934      86.0661      69.7341     336.8673       0.2213       0.2598       2.2239       0.5578       0.0010
   2793.1250   2769.1184  -2744.1184      87.1029      66.8971     851.4158       0.2278       0.2805       2.1900       0.5987       0.0010
   2793.2500   2769.2434  -2744.2434      87.9028      65.9418     832.4368       0.2296       0.2800       2.1908       0.6840       0.0010
   2793.3750   2769.3684  -2744.3684      88.3059      67.9294     692.2867       0.2240       0.2758       2.1976       0.7645       0.0010
   2793.5000   2769.4934  -2744.4934      88.2202      68.7769     394.3486       0.2097       0.2633       2.2181       0.8039       0.0010
   2793.6250   2769.6184  -2744.6184      87.6648      70.0635     157.1330       0.1928       0.2428       2.2517       0.8471       0.0010
   2793.7500   2769.7434  -2744.7434      86.9972      66.3151       3.1999       0.1813       0.1560       2.3941       1.0000       0.0010
   2793.8750   2769.8684  -2744.8684      86.4334      67.8994       2.3875       0.1753       0.1495       2.4047       1.0000       0.0010
   2794.0000   2769.9934  -2744.9934      86.0607      73.3057       2.6533       0.1746       0.1519       2.4009       1.0000       0.0040
   2794.1250   2770.1184  -2745.1184      85.8971      79.2565       0.3970       0.1797       0.1095       2.4704       1.0000       0.0812
   2794.2500   2770.2432  -2745.2432      85.9028      87.1154       4.9344       0.1915       0.1657       2.3703       0.8505       0.1832
   2794.3750   2770.3682  -2745.3682      86.1227      85.6008      29.9038       0.2085       0.2058       2.3020       0.7486       0.1636
   2794.5000   2770.4932  -2745.4932      86.5145      83.5914     127.1609       0.2211       0.2381       2.2562       0.7410       0.1375
   2794.6250   2770.6182  -2745.6182      86.9465      85.1022      42.9432       0.2278       0.2139       2.2992       0.8926       0.1572
   2794.7500   2770.7432  -2745.7432      87.2335      93.1270       3.9781       0.2302       0.1609       2.3861       1.0000       0.2613
   2794.8750   2770.8682  -2745.8682      87.1736     107.9191       1.8827       0.2313       0.1442       2.4134       1.0000       0.4534
   2795.0000   2770.9932  -2745.9932      86.5698     116.6133       0.2672       0.2303       0.1007       2.4848       1.0000       0.5665
   2795.1250   2771.1182  -2746.1182      85.5986     107.5825       0.3357       0.2277       0.1058       2.4754       1.0000       0.4490
   2795.2500   2771.2432  -2746.2432      84.5167     104.8852       0.2769       0.2248       0.1015       2.4835       0.9568       0.4141
   2795.3750   2771.3682  -2746.3682      83.4633     105.4701       0.0651       0.2224       0.0693       2.5364       1.0000       0.4217
   2795.5000   2771.4932  -2746.4932      82.5050     106.3883       0.0069       0.2212       0.0191       2.6187       1.0000       0.4335
   2795.6250   2771.6182  -2746.6182      81.6110     115.6790       0.0030       0.2224       0.0010       2.6690       1.0000       0.5537
   2795.7500   2771.7432  -2746.7432      80.7202     106.8458       0.0919       0.2259       0.0769       2.5238       1.0000       0.4395
   2795.8750   2771.8682  -2746.8682      79.8968     103.8717       0.1512       0.2269       0.0880       2.5056       0.9266       0.4009
