#------------------------------------------------------------------------------
#
#   Created by  : [OpenWorks] Log Export Utility (LEXP)
#   Created on  : 2007-05-07 11:56:53
#   Project     : NORNE
#   User        : JSE
#   Interpreter : JSE
#
#------------------------------------------------------------------------------
~VERSION INFORMATION
VERS. 2.0 : CWLS Log ASCII Standard - version 2.0
WRAP.  NO : One line per depth step
~WELL INFORMATION
#MNEMONIC   .UNIT                                           VALUE :DESCRIPTION
#------------------------------------------------------------------------------
STRT        .M                                           450.6626 :START DEPTH
STOP        .M                                          3861.9126 :STOP DEPTH
STEP        .M                                             0.1250 :STEP
NULL        .                                           -999.2500 :NULL VALUE
COMP        .                                             STATOIL :COMPANY
WELL        .                                       6608/10-B-2 H :WELL
FLD         .                                               NORNE :FIELD
LOC         .                                             UNKNOWN :LOCATION
CNTY        .                                             UNKNOWN :COUNTY
STAT        .                                             UNKNOWN :STATE
CTRY        .                                              Norway :COUNTRY
SRVC        .                                             UNKNOWN :SERVICE COMPANY
DATE        .                                             UNKNOWN :LOG DATE
UWI         .                                    NO 6608/10-B-2 H :UNIQUE WELL ID
XCOORD      .                                       457121.854690 :SURFACE X
YCOORD      .                                      7322122.976330 :SURFACE Y
LAT         .                                           66.015290 :LATITUDE
LON         .                                            8.054722 :LONGITUDE
ELEV        .M                                            25.0000 :SURFACE ELEV
ELEV_TYPE   .                                                  KB :ELEV TYPE
~CURVE INFORMATION
#MNEMONIC.UNIT        API CODE       : CURVE DESCRIPTION
#------------------------------------------------------------------------------
DEPTH    .M                          : Measured Depth
TVD      .M                          : True Vertical Depth (TVD)
TVDSS    .M                          : True Vertical Depth (TVDSS)
DT       .us/ft                      : DT:UNKNOWN:rC:NONE:v1 
GR       .API                        : GR:UNKNOWN:rC:NONE:v1 
KLOGH    .mD                         : KLOGH:UNKNOWN:rC:NONE:v1 
NPHI     .v/v_decimal                : NPHI:UNKNOWN:rC:NONE:v1 
PHIF     .v/v_decimal                : PHIF:UNKNOWN:rC:NONE:v1 
RHOB     .g/cm3                      : RHOB:UNKNOWN:rC:NONE:v1 
SW       .v/v_decimal                : SW:UNKNOWN:rC:NONE:v1 
VSH      .v/v_decimal                : VSH:UNKNOWN:rC:NONE:v1 
~A     DEPTH         TVD       TVDSS           DT           GR        KLOGH         NPHI         PHIF         RHOB           SW          VSH
# ...
   3393.2876   2657.0583  -2632.0583      98.9037      67.6893     185.0074       0.2670       0.2357       2.2170       0.1242       0.2669
   3393.4126   2657.0542  -2632.0542      99.4598      63.9319     195.9122       0.2643       0.2374       2.2141       0.1233       0.2227
   3393.5376   2657.0503  -2632.0503      99.2418      61.6658     194.1684       0.2615       0.2369       2.2158       0.1235       0.1961
   3393.6626   2657.0461  -2632.0461      97.4581      61.7608     157.7902       0.2618       0.2305       2.2279       0.1272       0.1972
   3393.7876   2657.0420  -2632.0420      93.0821      49.6336     174.5579       0.2630       0.2338       2.2205       0.1279       0.0545
   3393.9126   2657.0381  -2632.0381      91.4353      48.2717     203.1256       0.2672       0.2386       2.2123       0.1262       0.0385
   3394.0376   2657.0339  -2632.0339      92.2769      46.0022     227.8209       0.2617       0.2424       2.2047       0.1210       0.0150
   3394.1626   2657.0298  -2632.0298      91.7753      45.4503     230.6239       0.2525       0.2428       2.2039       0.1173       0.0333
   3394.2876   2657.0259  -2632.0259      89.5337      48.5459     230.1466       0.2501       0.2426       2.2048       0.1165       0.0885
   3394.4126   2657.0217  -2632.0217      88.8991      54.5797     269.2799       0.2647       0.2478       2.1944       0.1166       0.1127
   3394.5376   2657.0176  -2632.0176      92.1082      55.0868     243.4279       0.2813       0.2445       2.2009       0.1251       0.1184
   3394.6626   2657.0134  -2632.0134      93.7248      55.1370     139.6023       0.2762       0.2233       2.2413       0.1316       0.1191
   3394.7876   2657.0095  -2632.0095      95.8530      51.1536      76.7300       0.2691       0.2064       2.2732       0.1430       0.0591
   3394.9126   2657.0054  -2632.0054      97.5394      46.5937      47.8936       0.2651       0.1894       2.3057       0.1561       0.0013
   3395.0376   2657.0012  -2632.0012      97.0624      46.2776      32.0125       0.2636       0.1755       2.3333       0.1593       0.0221
   3395.1626   2656.9973  -2631.9973      93.1240      52.8270      74.6282       0.2609       0.2059       2.2742       0.1285       0.1380
   3395.2876   2656.9932  -2631.9932      91.9946      53.4974     188.3019       0.2610       0.2339       2.2214       0.1217       0.1099
   3395.4126   2656.9890  -2631.9890      94.3384      53.6678     266.3419       0.2644       0.2471       2.1964       0.1180       0.1047
   3395.5376   2656.9849  -2631.9849      96.5356      56.1616     209.9667       0.2675       0.2351       2.2191       0.1231       0.1339
   3395.6626   2656.9810  -2631.9810      96.4000      59.2135      82.2337       0.2696       0.2080       2.2708       0.1357       0.1617
   3395.7876   2656.9768  -2631.9768      93.7037      58.7997      53.5159       0.2716       0.1930       2.3003       0.1458       0.1420
   3395.9126   2656.9727  -2631.9727      91.8075      60.9839     152.0221       0.2658       0.2274       2.2338       0.1269       0.1857
   3396.0376   2656.9688  -2631.9688      89.9111      53.0721     272.5258       0.2737       0.2469       2.1958       0.1180       0.0950
   3396.1626   2656.9646  -2631.9646      88.8661      54.1241     283.3427       0.2811       0.2493       2.1909       0.1166       0.1074
   3396.2876   2656.9604  -2631.9604      87.9701      57.2145     228.7176       0.2882       0.2421       2.2047       0.1191       0.1437
   3396.4126   2656.9563  -2631.9563      86.8419      54.7789     159.3914       0.2958       0.2283       2.2317       0.1258       0.1150
   3396.5376   2656.9524  -2631.9524      86.4000      49.9130      54.2350       0.3000       0.1960       2.2930       0.1441       0.0578
   3396.6626   2656.9482  -2631.9482      85.5333      47.8793      32.4865       0.3038       0.1781       2.3271       0.1590       0.0339
   3396.7876   2656.9441  -2631.9441      85.3333      56.8121      20.0456       0.2865       0.1626       2.3578       0.1730       0.1390
   3396.9126   2656.9402  -2631.9402      85.8968      65.5549      22.2608       0.2743       0.1655       2.3529       0.1702       0.2418
   3397.0376   2656.9360  -2631.9360      86.7554      69.9051      32.4422       0.2726       0.1792       2.3266       0.1578       0.2930
   3397.1626   2656.9319  -2631.9319      87.2737      69.6782      70.3774       0.2732       0.1919       2.3017       0.1501       0.2903
   3397.2876   2656.9277  -2631.9277      87.6627      58.9016     350.9247       0.2725       0.2526       2.1844       0.1221       0.1635
   3397.4126   2656.9238  -2631.9238      86.8773      65.6721     222.4092       0.2740       0.2392       2.2109       0.1556       0.2345
   3397.5376   2656.9197  -2631.9197      86.1513      65.9704     104.6703       0.2748       0.2126       2.2621       0.1524       0.2414
   3397.6626   2656.9155  -2631.9155      85.4312      65.3294      70.3850       0.2769       0.2033       2.2801       0.1378       0.2855
   3397.7876   2656.9116  -2631.9116      85.0413      69.6911      95.7988       0.2787       0.2144       2.2592       0.1354       0.3905
   3397.9126   2656.9075  -2631.9075      86.0906      77.6372     101.1915       0.2738       0.2161       2.2557       0.1340       0.3835
   3398.0376   2656.9033  -2631.9033      88.7162      65.4190     131.1236       0.2724       0.2243       2.2393       0.1179       0.2109
   3398.1626   2656.8994  -2631.8994      89.7106      66.3482     854.9508       0.2646       0.2725       2.1463       0.1066       0.2391
   3398.2876   2656.8953  -2631.8953      91.8986      65.7448     801.6174       0.2594       0.2766       2.1388       0.1143       0.1942
   3398.4126   2656.8911  -2631.8911      94.5686      62.8460     275.6381       0.2563       0.2469       2.1963       0.1282       0.1361
   3398.5376   2656.8870  -2631.8870      95.5966      62.6625     154.6577       0.2524       0.2299       2.2282       0.1313       0.2041
   3398.6626   2656.8831  -2631.8831      93.9921      65.5745     150.7800       0.2540       0.2291       2.2299       0.1406       0.2118
   3398.7876   2656.8789  -2631.8789      93.3288      58.5102      59.4511       0.2523       0.1897       2.3055       0.1548       0.1511
   3398.9126   2656.8748  -2631.8748      95.3060      54.0930      64.0153       0.2596       0.1972       2.2909       0.1466       0.1068
   3399.0376   2656.8708  -2631.8708      97.8037      54.0283      92.3757       0.2776       0.2132       2.2600       0.1387       0.1061
   3399.1626   2656.8667  -2631.8667      99.3538      55.6976      96.9571       0.2981       0.2148       2.2576       0.1424       0.1259
   3399.2876   2656.8625  -2631.8625      99.8565      53.5405      94.3191       0.3049       0.2139       2.2601       0.1480       0.1005
   3399.4126   2656.8584  -2631.8584      98.6409      50.3897      87.4400       0.3073       0.2114       2.2634       0.1490       0.0634
   3399.5376   2656.8545  -2631.8545      96.1836      53.9217      82.7436       0.2899       0.2096       2.2674       0.1460       0.1050
   3399.6626   2656.8503  -2631.8503      94.7873      54.3707      75.3020       0.2869       0.2065       2.2735       0.1452       0.1102
   3399.7876   2656.8462  -2631.8462      94.1020      60.0888      65.1679       0.2934       0.2018       2.2824       0.1480       0.1775
   3399.9126   2656.8423  -2631.8423      93.1618      74.4564      56.1805       0.2961       0.1971       2.2917       0.1524       0.3465
   3400.0376   2656.8381  -2631.8381      92.1407      67.2966      57.6221       0.2986       0.1980       2.2901       0.1535       0.2623
   3400.1626   2656.8340  -2631.8340      90.5658      70.3692      63.6120       0.2979       0.2011       2.2846       0.1457       0.2985
   3400.2876   2656.8298  -2631.8298      89.9206      70.0064      61.8304       0.2913       0.2002       2.2854       0.1445       0.2942
