#------------------------------------------------------------------------------
#
#   Created by  : [OpenWorks] Log Export Utility (LEXP)
#   Created on  : 2007-05-07 11:56:53
#   Project     : NORNE
#   User        : JSE
#   Interpreter : JSE
#
#------------------------------------------------------------------------------
~VERSION INFORMATION
VERS. 2.0 : CWLS Log ASCII Standard - version 2.0
WRAP.  NO : One line per depth step
~WELL INFORMATION
#MNEMONIC   .UNIT                                           VALUE :DESCRIPTION
#------------------------------------------------------------------------------
STRT        .M                                           450.6626 :START DEPTH
STOP        .M                                          3861.9126 :STOP DEPTH
STEP        .M                                             0.1250 :STEP
NULL        .                                           -999.2500 :NULL VALUE
COMP        .                                             STATOIL :COMPANY
WELL        .                                       6608/10-B-2 H :WELL
FLD         .                                               NORNE :FIELD
LOC         .                                             UNKNOWN :LOCATION
CNTY        .                                             UNKNOWN :COUNTY
STAT        .                                             UNKNOWN :STATE
CTRY        .                                              Norway :COUNTRY
SRVC        .                                             UNKNOWN :SERVICE COMPANY
DATE        .                                             UNKNOWN :LOG DATE
UWI         .                                    NO 6608/10-B-2 H :UNIQUE WELL ID
XCOORD      .                                       457121.854690 :SURFACE X
YCOORD      .                                      7322122.976330 :SURFACE Y
LAT         .                                           66.015290 :LATITUDE
LON         .                                            8.054722 :LONGITUDE
ELEV        .M                                            25.0000 :SURFACE ELEV
ELEV_TYPE   .                                                  KB :ELEV TYPE
~CURVE INFORMATION
#MNEMONIC.UNIT        API CODE       : CURVE DESCRIPTION
#------------------------------------------------------------------------------
DEPTH    .M                          : Measured Depth
TVD      .M                          : True Vertical Depth (TVD)
TVDSS    .M                          : True Vertical Depth (TVDSS)
DT       .us/ft                      : DT:UNKNOWN:rC:NONE:v1 
GR       .API                        : GR:UNKNOWN:rC:NONE:v1 
KLOGH    .mD                         : KLOGH:UNKNOWN:rC:NONE:v1 
NPHI     .v/v_decimal                : NPHI:UNKNOWN:rC:NONE:v1 
PHIF     .v/v_decimal                : PHIF:UNKNOWN:rC:NONE:v1 
RHOB     .g/cm3                      : RHOB:UNKNOWN:rC:NONE:v1 
SW       .v/v_decimal                : SW:UNKNOWN:rC:NONE:v1 
VSH      .v/v_decimal                : VSH:UNKNOWN:rC:NONE:v1 
~A     DEPTH         TVD       TVDSS           DT           GR        KLOGH         NPHI         PHIF         RHOB           SW          VSH
# ...
   3856.4126   2657.0518  -2632.0518    -999.2500    -999.2500       0.1304    -999.2500       0.0010    -999.2500    -999.2500       0.0000
   3856.5376   2657.0559  -2632.0559    -999.2500    -999.2500       0.1304    -999.2500       0.0010    -999.2500    -999.2500       0.0000
   3856.6626   2657.0603  -2632.0603    -999.2500    -999.2500       0.1304    -999.2500       0.0010    -999.2500    -999.2500       0.0000
   3856.7876   2657.0645  -2632.0645    -999.2500    -999.2500       0.1304    -999.2500       0.0010    -999.2500    -999.2500       0.0000
   3856.9126   2657.0686  -2632.0686    -999.2500    -999.2500       0.1304    -999.2500       0.0010    -999.2500    -999.2500       0.0000
   3857.0376   2657.0728  -2632.0728    -999.2500    -999.2500       0.1304    -999.2500       0.0010    -999.2500    -999.2500       0.0000
   3857.1626   2657.0769  -2632.0769    -999.2500    -999.2500       0.1304    -999.2500       0.0010    -999.2500    -999.2500       0.0000
   3857.2876   2657.0811  -2632.0811    -999.2500    -999.2500       0.1304    -999.2500       0.0010    -999.2500    -999.2500       0.0000
   3857.4126   2657.0852  -2632.0852    -999.2500    -999.2500       0.1304    -999.2500       0.0010    -999.2500    -999.2500       0.0000
   3857.5376   2657.0896  -2632.0896    -999.2500    -999.2500       0.1304    -999.2500       0.0010    -999.2500    -999.2500       0.0000
   3857.6626   2657.0938  -2632.0938    -999.2500    -999.2500       0.1304    -999.2500       0.0010    -999.2500    -999.2500       0.0000
   3857.7876   2657.0979  -2632.0979    -999.2500    -999.2500       0.1304    -999.2500       0.0010    -999.2500    -999.2500       0.0000
   3857.9126   2657.1021  -2632.1021    -999.2500    -999.2500       0.1304    -999.2500       0.0010    -999.2500    -999.2500       0.0000
   3858.0376   2657.1062  -2632.1062    -999.2500    -999.2500       0.1304    -999.2500       0.0010    -999.2500    -999.2500       0.0000
   3858.1626   2657.1104  -2632.1104    -999.2500    -999.2500       0.1304    -999.2500       0.0010    -999.2500    -999.2500       0.0000
   3858.2876   2657.1147  -2632.1147    -999.2500    -999.2500       0.1304    -999.2500       0.0010    -999.2500    -999.2500       0.0000
   3858.4126   2657.1189  -2632.1189    -999.2500    -999.2500       0.1304    -999.2500       0.0010    -999.2500    -999.2500       0.0000
   3858.5376   2657.1230  -2632.1230    -999.2500    -999.2500       0.1304    -999.2500       0.0010    -999.2500    -999.2500       0.0000
   3858.6626   2657.1272  -2632.1272    -999.2500    -999.2500       0.1304    -999.2500       0.0010    -999.2500    -999.2500       0.0000
   3858.7876   2657.1313  -2632.1313    -999.2500    -999.2500       0.1304    -999.2500       0.0010    -999.2500    -999.2500       0.0000
   3858.9126   2657.1355  -2632.1355    -999.2500    -999.2500       0.1304    -999.2500       0.0010    -999.2500    -999.2500       0.0000
   3859.0376   2657.1396  -2632.1396    -999.2500    -999.2500       0.1304    -999.2500       0.0010    -999.2500    -999.2500       0.0000
   3859.1626   2657.1440  -2632.1440    -999.2500    -999.2500       0.1304    -999.2500       0.0010    -999.2500    -999.2500       0.0000
   3859.2876   2657.1482  -2632.1482    -999.2500    -999.2500       0.1304    -999.2500       0.0010    -999.2500    -999.2500       0.0000
   3859.4126   2657.1523  -2632.1523    -999.2500    -999.2500       0.1304    -999.2500       0.0010    -999.2500    -999.2500       0.0000
   3859.5376   2657.1565  -2632.1565    -999.2500    -999.2500       0.1304    -999.2500       0.0010    -999.2500    -999.2500       0.0000
   3859.6626   2657.1606  -2632.1606    -999.2500    -999.2500       0.1304    -999.2500       0.0010    -999.2500    -999.2500       0.0000
   3859.7876   2657.1648  -2632.1648    -999.2500    -999.2500       0.1304    -999.2500       0.0010    -999.2500    -999.2500       0.0000
   3859.9126   2657.1692  -2632.1692    -999.2500    -999.2500       0.1304    -999.2500       0.0010    -999.2500    -999.2500       0.0000
   3860.0376   2657.1733  -2632.1733    -999.2500    -999.2500       0.1304    -999.2500       0.0010    -999.2500    -999.2500       0.0000
   3860.1626   2657.1775  -2632.1775    -999.2500    -999.2500       0.1304    -999.2500       0.0010    -999.2500    -999.2500       0.0000
   3860.2876   2657.1816  -2632.1816    -999.2500    -999.2500       0.1304    -999.2500       0.0010    -999.2500    -999.2500       0.0000
   3860.4126   2657.1858  -2632.1858    -999.2500    -999.2500       0.1304    -999.2500       0.0010    -999.2500    -999.2500       0.0000
   3860.5376   2657.1899  -2632.1899    -999.2500    -999.2500       0.1304    -999.2500       0.0010    -999.2500    -999.2500       0.0000
   3860.6626   2657.1941  -2632.1941    -999.2500    -999.2500       0.1304    -999.2500       0.0010    -999.2500    -999.2500       0.0000
   3860.7876   2657.1985  -2632.1985    -999.2500    -999.2500       0.1304    -999.2500       0.0010    -999.2500    -999.2500       0.0000
   3860.9126   2657.2026  -2632.2026    -999.2500    -999.2500       0.1304    -999.2500       0.0010    -999.2500    -999.2500       0.0000
   3861.0376   2657.2068  -2632.2068    -999.2500    -999.2500       0.1304    -999.2500       0.0010    -999.2500    -999.2500       0.0000
   3861.1626   2657.2109  -2632.2109    -999.2500    -999.2500       0.1304    -999.2500       0.0010    -999.2500    -999.2500       0.0000
   3861.2876   2657.2151  -2632.2151    -999.2500    -999.2500       0.1304    -999.2500       0.0010    -999.2500    -999.2500       0.0000
   3861.4126   2657.2192  -2632.2192    -999.2500    -999.2500       0.1304    -999.2500       0.0010    -999.2500    -999.2500       0.0000
   3861.5376   2657.2236  -2632.2236    -999.2500    -999.2500       0.1304    -999.2500       0.0010    -999.2500    -999.2500       0.0000
   3861.6626   2657.2278  -2632.2278    -999.2500    -999.2500       0.1304    -999.2500       0.0010    -999.2500    -999.2500       0.0000
   3861.7876   2657.2319  -2632.2319    -999.2500    -999.2500       0.1304    -999.2500       0.0010    -999.2500    -999.2500       0.0000
   3861.9126   2657.2361  -2632.2361    -999.2500    -999.2500       0.1304    -999.2500       0.0010    -999.2500    -999.2500       0.0000
