#------------------------------------------------------------------------------
#
#   Created by  : [OpenWorks] Log Export Utility (LEXP)
#   Created on  : 2007-05-07 11:57:46
#   Project     : NORNE
#   User        : JSE
#   Interpreter : JSE
#
#------------------------------------------------------------------------------
~VERSION INFORMATION
VERS. 2.0 : CWLS Log ASCII Standard - version 2.0
WRAP.  NO : One line per depth step
~WELL INFORMATION
#MNEMONIC   .UNIT                                           VALUE :DESCRIPTION
#------------------------------------------------------------------------------
STRT        .M                                          1250.1914 :START DEPTH
STOP        .M                                          3136.8164 :STOP DEPTH
STEP        .M                                             0.1250 :STEP
NULL        .                                           -999.2500 :NULL VALUE
COMP        .                                             STATOIL :COMPANY
WELL        .                                       6608/10-D-4 H :WELL
FLD         .                                               NORNE :FIELD
LOC         .                                             UNKNOWN :LOCATION
CNTY        .                                             UNKNOWN :COUNTY
STAT        .                                             UNKNOWN :STATE
CTRY        .                                              Norway :COUNTRY
SRVC        .                                             UNKNOWN :SERVICE COMPANY
DATE        .                                             UNKNOWN :LOG DATE
UWI         .                                    NO 6608/10-D-4 H :UNIQUE WELL ID
XCOORD      .                                       457259.082734 :SURFACE X
YCOORD      .                                      7321952.911776 :SURFACE Y
LAT         .                                           66.013783 :LATITUDE
LON         .                                            8.057803 :LONGITUDE
ELEV        .M                                            22.0000 :SURFACE ELEV
ELEV_TYPE   .                                                  KB :ELEV TYPE
~CURVE INFORMATION
#MNEMONIC.UNIT        API CODE       : CURVE DESCRIPTION
#------------------------------------------------------------------------------
DEPTH    .M                          : Measured Depth
TVD      .M                          : True Vertical Depth (TVD)
TVDSS    .M                          : True Vertical Depth (TVDSS)
DT       .us/ft                      : DT:UNKNOWN:rC:NONE:v1 
DTS      .us/ft                      : DTS:UNKNOWN:rC:NONE:v1 
GR       .API                        : GR:UNKNOWN:rC:NONE:v1 
KLOGH    .mD          UNKNOWN        : KLOGH:UNKNOWN:rC::v0 (auto-composite)
NPHI     .v/v_decimal                : NPHI:UNKNOWN:rC:NONE:v1 
PHIF     .v/v_decimal UNKNOWN        : PHIF:UNKNOWN:rC::v0 (auto-composite)
RHOB     .g/cm3                      : RHOB:UNKNOWN:rC:NONE:v1 
SW       .v/v_decimal UNKNOWN        : SW:UNKNOWN:rC::v0 (auto-composite)
VSH      .v/v_decimal UNKNOWN        : VSH:UNKNOWN:rC::v0 (auto-composite)
~A     DEPTH         TVD       TVDSS           DT          DTS           GR        KLOGH         NPHI         PHIF         RHOB           SW          VSH
# ...
   2758.1914   2614.8481  -2592.8481      91.3931     188.0260     125.4333       1.7498       0.3060       0.1734       2.3433       0.5911       0.7014
   2758.3164   2614.9460  -2592.9460      92.1736     187.6253     120.2879       1.8222       0.3105       0.1742       2.3518       0.6220       0.6312
   2758.4414   2615.0437  -2593.0437      92.8020     186.4730     116.7110       1.7575       0.3187       0.1735       2.3640       0.6469       0.5824
   2758.5664   2615.1414  -2593.1414      93.2038     185.3349     116.9069       1.4533       0.3281       0.1696       2.3806       0.6724       0.5851
   2758.6914   2615.2393  -2593.2393      93.4042     184.3861     119.7221       0.9416       0.3345       0.1598       2.4009       0.6860       0.6235
   2758.8164   2615.3369  -2593.3369      93.4262     183.3403     123.5062       0.5144       0.3368       0.1473       2.4246       0.7186       0.6751
   2758.9414   2615.4346  -2593.4346      93.2914     182.0482     126.9631       0.2599       0.3344       0.1343       2.4480       0.7663       0.7222
   2759.0664   2615.5325  -2593.5325      93.0301     180.4465     129.2445       0.1441       0.3284       0.1233       2.4660       0.8066       0.7534
   2759.1914   2615.6301  -2593.6301      92.6822     178.4912     130.3169       0.1152       0.3232       0.1189       2.4734       0.8161       0.7680
   2759.3164   2615.7278  -2593.7278      92.2891     175.6248     131.6474       0.1359       0.3180       0.1221       2.4680       0.7831       0.7861
   2759.4414   2615.8257  -2593.8257      91.8365     171.6629     133.5952       0.1906       0.3139       0.1285       2.4574       0.7413       0.8127
   2759.5664   2615.9233  -2593.9233      91.2777     166.9530     135.5491       0.2554       0.3111       0.1347       2.4447       0.7152       0.8393
   2759.6914   2616.0210  -2594.0210      90.5743     162.2105     136.5511       0.2934       0.3091       0.1376       2.4344       0.7182       0.8530
   2759.8164   2616.1189  -2594.1189      89.7113     158.4240     135.5300       0.2600       0.3072       0.1351       2.4331       0.7504       0.8390
   2759.9414   2616.2166  -2594.2166      88.7708     156.7611     132.3810       0.1613       0.3096       0.1251       2.4610       0.8023       0.7960
   2760.0664   2616.3142  -2594.3142      87.9520     156.6880     129.0607       0.0660       0.3168       0.1014       2.5023       0.9382       0.7508
   2760.1914   2616.4121  -2594.4121      87.3585     157.7092     126.1264       0.0189       0.3247       0.0800       2.5377       1.0000       0.7108
   2760.3164   2616.5098  -2594.5098      87.0683     159.5808     124.1859       0.0098       0.3279       0.0695       2.5519       1.0000       0.6843
   2760.4414   2616.6074  -2594.6074      87.1375     162.2527     123.7025       0.0127       0.3231       0.0734       2.5361       1.0000       0.6778
   2760.5664   2616.7053  -2594.7053      87.6282     166.0755     124.7790       0.0271       0.3132       0.0896       2.4934       1.0000       0.6925
   2760.6914   2616.8030  -2594.8030      88.5718     171.1506     126.9289       0.0743       0.3115       0.1083       2.4523       0.9190       0.7217
   2760.8164   2616.9006  -2594.9006      89.7945     176.6389     129.4434       0.1493       0.3189       0.1227       2.4315       0.8243       0.7560
   2760.9414   2616.9985  -2594.9985      91.1639     182.0490     131.3066       0.2780       0.3365       0.1352       2.4279       0.7609       0.7814
   2761.0664   2617.0962  -2595.0962      92.5290     186.9743     131.8376       0.4009       0.3610       0.1439       2.4348       0.7591       0.7887
   2761.1914   2617.1938  -2595.1938      93.7323     191.1185     130.8827    -999.2500       0.3847    -999.2500       2.4457       0.8313       0.7756
   2761.3164   2617.2917  -2595.2917      94.5499     194.1528     129.3868       0.1094       0.3966       0.1179       2.4711       0.9777       0.7552
   2761.4414   2617.3894  -2595.3894      94.9452     196.4834     128.5912       0.0524       0.4060       0.0986       2.5069       1.0000       0.7444
   2761.5664   2617.4871  -2595.4871      94.9843     198.4789     128.3435       0.0185       0.4158       0.0798       2.5380       1.0000       0.7411
   2761.6914   2617.5845  -2595.5845      94.7509     200.0482     128.1055       0.0106       0.4216       0.0711       2.5523       1.0000       0.7378
   2761.8164   2617.6821  -2595.6821      94.3639     200.9583     127.4799       0.0153       0.4170       0.0766       2.5428       1.0000       0.7292
   2761.9414   2617.7798  -2595.7798      93.9781     200.9279     126.6878       0.0340       0.3961       0.0943       2.5100       1.0000       0.7184
   2762.0664   2617.8774  -2595.8774      93.8094     200.1115     126.5541       0.0814       0.3709       0.1107       2.4724       1.0000       0.7167
   2762.1914   2617.9749  -2595.9749      93.9259     199.3490     127.8608       0.1595       0.3525       0.1242       2.4476       0.9429       0.7345
   2762.3164   2618.0725  -2596.0725      94.3422     199.1723     130.6134       0.3045       0.3425       0.1368       2.4341       0.8569       0.7720
   2762.4414   2618.1702  -2596.1702      95.0322     199.8136     134.1978       0.4681       0.3411       0.1469       2.4259       0.7866       0.8171
   2762.5664   2618.2678  -2596.2678      95.9331     201.1909     137.6182       0.5525       0.3475       0.1503       2.4162       0.7706       0.8497
   2762.6914   2618.3652  -2596.3652      96.9366     202.7793     140.0201       0.5449       0.3562       0.1500       2.4071       0.7566       0.8500
   2762.8164   2618.4629  -2596.4629      97.8591     204.1716     141.0657       0.4787       0.3643       0.1473       2.4053       0.7581       0.8527
   2762.9414   2618.5605  -2596.5605      98.5766     205.2706     141.9297       0.4065       0.3692       0.1440       2.4088       0.7724       0.8560
   2763.0664   2618.6582  -2596.6582      98.9955     205.7420     143.1575       0.3338       0.3655       0.1401       2.4145       0.7911       0.8599
   2763.1914   2618.7559  -2596.7559      99.0514     205.1741     144.7940       0.2706       0.3505       0.1360       2.4186       0.8017       0.8640
   2763.3164   2618.8533  -2596.8533      98.7150     203.1280     146.2480       0.2494       0.3263       0.1344       2.4170       0.7876       0.8656
   2763.4414   2618.9509  -2596.9509      97.9663     199.3757     145.8026       0.2694       0.3112       0.1360       2.4121       0.7526       0.8640
   2763.5664   2619.0486  -2597.0486      97.0419     195.1119     143.1268       0.2572       0.3098       0.1350       2.4110       0.7580       0.8650
   2763.6914   2619.1462  -2597.1462      96.0606     190.9290     139.3329       0.2428       0.3141       0.1338       2.4156       0.7710       0.8601
   2763.8164   2619.2437  -2597.2437      95.1156     187.1169     135.9079       0.2258       0.3210       0.1323       2.4224       0.7745       0.8442
   2763.9414   2619.3413  -2597.3413      94.2707     183.7001     134.4189       0.1998       0.3320       0.1299       2.4258       0.7669       0.8239
   2764.0664   2619.4390  -2597.4390      93.5634     180.4106     136.4997       0.2274       0.3537       0.1325       2.4242       0.7686       0.8523
   2764.1914   2619.5366  -2597.5366      92.9574     177.2535     140.5383       0.1436       0.3740       0.1222       2.4410       0.8017       0.8746
   2764.3164   2619.6343  -2597.6343      92.3944     174.6131     143.7208       0.0681       0.3866       0.1046       2.4789       0.9071       0.8954
   2764.4414   2619.7317  -2597.7317      91.8516     172.7164     144.4656       0.0225       0.3880       0.0805       2.5298       0.9882       0.9195
   2764.5664   2619.8293  -2597.8293      91.3192     171.5946     141.9716       0.0051       0.3761       0.0551       2.5786       1.0000       0.9234
