#------------------------------------------------------------------------------
#
#   Created by  : [OpenWorks] Log Export Utility (LEXP)
#   Created on  : 2007-05-07 11:57:18
#   Project     : NORNE
#   User        : JSE
#   Interpreter : JSE
#
#------------------------------------------------------------------------------
~VERSION INFORMATION
VERS. 2.0 : CWLS Log ASCII Standard - version 2.0
WRAP.  NO : One line per depth step
~WELL INFORMATION
#MNEMONIC   .UNIT                                           VALUE :DESCRIPTION
#------------------------------------------------------------------------------
STRT        .M                                           437.6250 :START DEPTH
STOP        .M                                          2890.0000 :STOP DEPTH
STEP        .M                                             0.1250 :STEP
NULL        .                                           -999.2500 :NULL VALUE
COMP        .                                             STATOIL :COMPANY
WELL        .                                       6608/10-C-4 H :WELL
FLD         .                                               NORNE :FIELD
LOC         .                                             UNKNOWN :LOCATION
CNTY        .                                             UNKNOWN :COUNTY
STAT        .                                             UNKNOWN :STATE
CTRY        .                                              Norway :COUNTRY
SRVC        .                                             UNKNOWN :SERVICE COMPANY
DATE        .                                             UNKNOWN :LOG DATE
UWI         .                                    NO 6608/10-C-4 H :UNIQUE WELL ID
XCOORD      .                                       457180.075915 :SURFACE X
YCOORD      .                                      7322034.182216 :SURFACE Y
LAT         .                                           66.014501 :LATITUDE
LON         .                                            8.056034 :LONGITUDE
ELEV        .M                                            25.0000 :SURFACE ELEV
ELEV_TYPE   .                                                  KB :ELEV TYPE
~CURVE INFORMATION
#MNEMONIC.UNIT        API CODE       : CURVE DESCRIPTION
#------------------------------------------------------------------------------
DEPTH    .M                          : Measured Depth
TVD      .M                          : True Vertical Depth (TVD)
TVDSS    .M                          : True Vertical Depth (TVDSS)
DT       .us/ft                      : DT:UNKNOWN:rC:NONE:v1 
GR       .API                        : GR:UNKNOWN:rC:NONE:v1 
KLOGH    .mD          UNKNOWN        : KLOGH:UNKNOWN:rC::v0 (auto-composite)
NPHI     .v/v_decimal                : NPHI:UNKNOWN:rC:NONE:v1 
PHIF     .v/v_decimal UNKNOWN        : PHIF:UNKNOWN:rC::v0 (auto-composite)
RHOB     .g/cm3                      : RHOB:UNKNOWN:rC:NONE:v1 
SW       .v/v_decimal UNKNOWN        : SW:UNKNOWN:rC::v0 (auto-composite)
VSH      .v/v_decimal UNKNOWN        : VSH:UNKNOWN:rC::v0 (auto-composite)
~A     DEPTH         TVD       TVDSS           DT           GR        KLOGH         NPHI         PHIF         RHOB           SW          VSH
# ...
   2582.2500   2558.2622  -2533.2622     100.6076     114.8423    -999.2500       0.3588    -999.2500       2.5557    -999.2500    -999.2500
   2582.3750   2558.3872  -2533.3872     102.8520     121.3835    -999.2500       0.3533    -999.2500       2.3648    -999.2500    -999.2500
   2582.5000   2558.5122  -2533.5122     105.6211     134.0845    -999.2500       0.3605    -999.2500       2.3265    -999.2500    -999.2500
   2582.6250   2558.6372  -2533.6372     108.4482     146.0565    -999.2500       0.3760    -999.2500       2.4010    -999.2500    -999.2500
   2582.7500   2558.7622  -2533.7622     110.8600     149.0416    -999.2500       0.3929    -999.2500       2.4654    -999.2500    -999.2500
   2582.8750   2558.8872  -2533.8872     112.4730     130.4100    -999.2500       0.4064    -999.2500       2.3470    -999.2500    -999.2500
   2583.0000   2559.0122  -2534.0122     113.1281     129.4412    -999.2500       0.4075    -999.2500       2.3609    -999.2500    -999.2500
   2583.1250   2559.1372  -2534.1372     113.3919     137.7569    -999.2500       0.3957    -999.2500       2.3474    -999.2500    -999.2500
   2583.2500   2559.2622  -2534.2622     113.2873     148.7010    -999.2500       0.3846    -999.2500       2.4232    -999.2500    -999.2500
   2583.3750   2559.3872  -2534.3872     112.6609     149.6786    -999.2500       0.3818    -999.2500       2.6472    -999.2500    -999.2500
   2583.5000   2559.5122  -2534.5122     111.2706     133.9935    -999.2500       0.3859    -999.2500       2.9436    -999.2500    -999.2500
   2583.6250   2559.6372  -2534.6372     108.8476     137.8704    -999.2500       0.3716    -999.2500       2.7590    -999.2500    -999.2500
   2583.7500   2559.7622  -2534.7622     105.9567     132.4074    -999.2500       0.3369    -999.2500       2.6634    -999.2500    -999.2500
   2583.8750   2559.8872  -2534.8872     103.4770     126.6156    -999.2500       0.3072    -999.2500       2.5510    -999.2500    -999.2500
   2584.0000   2560.0122  -2535.0122     101.8730     124.7832    -999.2500       0.2864    -999.2500       2.4650    -999.2500    -999.2500
   2584.1250   2560.1372  -2535.1372     101.3480     126.9943    -999.2500       0.2721    -999.2500       2.4468    -999.2500    -999.2500
   2584.2500   2560.2622  -2535.2622     101.8030     128.3559    -999.2500       0.2586    -999.2500       2.4971    -999.2500    -999.2500
   2584.3750   2560.3872  -2535.3872     102.9066     115.1177    -999.2500       0.2443    -999.2500       2.4619    -999.2500    -999.2500
   2584.5000   2560.5120  -2535.5120     104.2955     102.1344      10.0091       0.2299       0.1446       2.4200       0.6649       0.2433
   2584.6250   2560.6370  -2535.6370     105.9382      93.4566      49.4188       0.2156       0.2069       2.2832       0.4309       0.1479
   2584.7500   2560.7620  -2535.7620     107.7804      86.3323     536.5099       0.2020       0.2999       2.1270       0.2694       0.0695
   2584.8750   2560.8870  -2535.8870     109.7187      78.0735    1233.5831       0.1904       0.3323       2.0641       0.1985       0.0010
   2585.0000   2561.0120  -2536.0120     111.5222      77.3630    1437.2402       0.1830       0.3383       2.0780       0.1406       0.0010
   2585.1250   2561.1370  -2536.1370     112.7627      80.1865     538.8782       0.1787       0.3000       2.0470       0.1468       0.0020
   2585.2500   2561.2620  -2536.2620     113.3821      77.9688     677.4033       0.1742       0.3090       2.0219       0.1440       0.0010
   2585.3750   2561.3870  -2536.3870     113.4577      79.6028     869.3038       0.1711       0.3187       2.0102       0.1395       0.0010
   2585.5000   2561.5120  -2536.5120     113.1367      84.2835     987.9691       0.1711       0.3237       2.0130       0.1322       0.0471
   2585.6250   2561.6370  -2536.6370     112.6114      80.5781     756.4519       0.1751       0.3133       2.0273       0.1291       0.0064
   2585.7500   2561.7620  -2536.7620     112.0690      80.6175     555.6313       0.1784       0.3012       2.0330       0.1262       0.0068
   2585.8750   2561.8870  -2536.8870     111.6661      81.6853     740.0438       0.1759       0.3124       2.0640       0.1078       0.0185
   2586.0000   2562.0120  -2537.0120     111.4480      81.6292     851.7720       0.1692       0.3179       2.0518       0.1011       0.0179
   2586.1250   2562.1370  -2537.1370     111.4294      78.0817     662.8110       0.1605       0.3081       2.0189       0.0988       0.0010
   2586.2500   2562.2620  -2537.2620     111.6095      73.5663     456.6471       0.1521       0.2936       1.9968       0.0938       0.0010
   2586.3750   2562.3870  -2537.3870     111.9993      83.6545     533.4465       0.1461       0.2996       1.9558       0.0868       0.0401
   2586.5000   2562.5120  -2537.5120     112.4950      83.0130     574.6851       0.1450       0.3026       1.9438       0.0839       0.0331
   2586.6250   2562.6370  -2537.6370     112.8643      79.3182     561.6398       0.1473       0.3017       1.9597       0.0855       0.0010
   2586.7500   2562.7617  -2537.7617     113.0289      78.2749     628.4896       0.1514       0.3060       1.9699       0.0869       0.0010
   2586.8750   2562.8867  -2537.8867     112.9944      80.5218     706.4525       0.1561       0.3106       1.9802       0.0897       0.0057
   2587.0000   2563.0117  -2538.0117     112.8417      82.5590     560.6927       0.1607       0.3016       2.0183       0.1021       0.0281
   2587.1250   2563.1367  -2538.1367     112.7260      83.0209     774.5493       0.1661       0.3142       1.9847       0.1345       0.0332
   2587.2500   2563.2617  -2538.2617     112.7220      84.9316     967.0206       0.1733       0.3228       1.9983       0.1472       0.0542
   2587.3750   2563.3867  -2538.3867     112.7570      84.2455    1022.4243       0.1804       0.3250       2.0354       0.1528       0.0466
   2587.5000   2563.5117  -2538.5117     112.7452      84.4710     583.7498       0.1849       0.3032       2.0790       0.1656       0.0491
   2587.6250   2563.6367  -2538.6367     112.6245      86.9707     223.1337       0.1842       0.2657       2.1147       0.1834       0.0766
   2587.7500   2563.7617  -2538.7617     112.3870      84.9240     177.3109       0.1770       0.2567       2.1327       0.1809       0.0545
   2587.8750   2563.8867  -2538.8867     112.2386      81.1884    1098.5278       0.1668       0.3278       1.9831       0.0895       0.0131
   2588.0000   2564.0117  -2539.0117     112.2976      84.6963    1150.5784       0.1601       0.3296       1.9783       0.0839       0.0516
   2588.1250   2564.1367  -2539.1367     112.5328      86.1685     748.7444       0.1590       0.3129       2.0126       0.0986       0.0678
   2588.2500   2564.2617  -2539.2617     112.8487      84.5335     652.6973       0.1634       0.3075       2.0512       0.1247       0.0498
   2588.3750   2564.3867  -2539.3867     113.1201      84.0351     913.2896       0.1708       0.3206       2.1050       0.1297       0.0443
   2588.5000   2564.5117  -2539.5117     113.2325      85.0878     789.0292       0.1762       0.3149       2.1140       0.1343       0.0559
   2588.6250   2564.6367  -2539.6367     113.2202      81.7623     967.0833       0.1762       0.3228       2.0721       0.1335       0.0193
   2588.7500   2564.7617  -2539.7617     113.1704      81.8385    1167.1663       0.1742       0.3302       2.0264       0.1242       0.0202
   2588.8750   2564.8867  -2539.8867     113.1182      82.7077     635.2866       0.1724       0.3065       2.0429       0.1154       0.0298
   2589.0000   2565.0115  -2540.0115     113.0714      82.7926     237.0155       0.1726       0.2680       2.0954       0.1153       0.0307
   2589.1250   2565.1365  -2540.1365     113.0090      85.0250     418.2745       0.1752       0.2902       2.0200       0.1136       0.0553
   2589.2500   2565.2615  -2540.2615     112.8366      86.0254     367.5429       0.1811       0.2851       2.0034       0.1311       0.0662
