#------------------------------------------------------------------------------
#
#   Created by  : [OpenWorks] Log Export Utility (LEXP)
#   Created on  : 2007-05-07 11:56:53
#   Project     : NORNE
#   User        : JSE
#   Interpreter : JSE
#
#------------------------------------------------------------------------------
~VERSION INFORMATION
VERS. 2.0 : CWLS Log ASCII Standard - version 2.0
WRAP.  NO : One line per depth step
~WELL INFORMATION
#MNEMONIC   .UNIT                                           VALUE :DESCRIPTION
#------------------------------------------------------------------------------
STRT        .M                                           450.6626 :START DEPTH
STOP        .M                                          3861.9126 :STOP DEPTH
STEP        .M                                             0.1250 :STEP
NULL        .                                           -999.2500 :NULL VALUE
COMP        .                                             STATOIL :COMPANY
WELL        .                                       6608/10-B-2 H :WELL
FLD         .                                               NORNE :FIELD
LOC         .                                             UNKNOWN :LOCATION
CNTY        .                                             UNKNOWN :COUNTY
STAT        .                                             UNKNOWN :STATE
CTRY        .                                              Norway :COUNTRY
SRVC        .                                             UNKNOWN :SERVICE COMPANY
DATE        .                                             UNKNOWN :LOG DATE
UWI         .                                    NO 6608/10-B-2 H :UNIQUE WELL ID
XCOORD      .                                       457121.854690 :SURFACE X
YCOORD      .                                      7322122.976330 :SURFACE Y
LAT         .                                           66.015290 :LATITUDE
LON         .                                            8.054722 :LONGITUDE
ELEV        .M                                            25.0000 :SURFACE ELEV
ELEV_TYPE   .                                                  KB :ELEV TYPE
~CURVE INFORMATION
#MNEMONIC.UNIT        API CODE       : CURVE DESCRIPTION
#------------------------------------------------------------------------------
DEPTH    .M                          : Measured Depth
TVD      .M                          : True Vertical Depth (TVD)
TVDSS    .M                          : True Vertical Depth (TVDSS)
DT       .us/ft                      : DT:UNKNOWN:rC:NONE:v1 
GR       .API                        : GR:UNKNOWN:rC:NONE:v1 
KLOGH    .mD                         : KLOGH:UNKNOWN:rC:NONE:v1 
NPHI     .v/v_decimal                : NPHI:UNKNOWN:rC:NONE:v1 
PHIF     .v/v_decimal                : PHIF:UNKNOWN:rC:NONE:v1 
RHOB     .g/cm3                      : RHOB:UNKNOWN:rC:NONE:v1 
SW       .v/v_decimal                : SW:UNKNOWN:rC:NONE:v1 
VSH      .v/v_decimal                : VSH:UNKNOWN:rC:NONE:v1 
~A     DEPTH         TVD       TVDSS           DT           GR        KLOGH         NPHI         PHIF         RHOB           SW          VSH
# ...
   3243.6626   2658.4795  -2633.4795      80.7334      61.9664    1145.3214       0.3051       0.2944       2.1041       0.0903       0.1996
   3243.7876   2658.4841  -2633.4841      81.5613      59.3177    1364.1689       0.3141       0.3002       2.0933       0.0891       0.1684
   3243.9126   2658.4888  -2633.4888      82.2365      58.2297    1108.5576       0.3098       0.2922       2.1091       0.0919       0.1556
   3244.0376   2658.4934  -2633.4934      82.7861      58.2610     775.4703       0.3005       0.2820       2.1290       0.0953       0.1560
   3244.1626   2658.4980  -2633.4980      83.2157      58.8583     650.1799       0.2987       0.2741       2.1442       0.0978       0.1630
   3244.2876   2658.5027  -2633.5027      84.2368      62.0534     237.0403       0.3083       0.2429       2.2033       0.1074       0.2006
   3244.4126   2658.5073  -2633.5073      85.1162      55.2169     574.5688       0.3084       0.2699       2.1516       0.0986       0.1202
   3244.5376   2658.5122  -2633.5122      85.9914      54.7071     584.1821       0.3003       0.2727       2.1460       0.0967       0.1142
   3244.6626   2658.5168  -2633.5168      86.7111      53.5165     443.3877       0.2933       0.2630       2.1645       0.0992       0.1002
   3244.7876   2658.5215  -2633.5215      88.0270      50.7476     337.0592       0.2912       0.2550       2.1802       0.1024       0.0676
   3244.9126   2658.5261  -2633.5261      90.8308      50.2762     374.7122       0.2927       0.2585       2.1742       0.1034       0.0666
   3245.0376   2658.5308  -2633.5308      92.5812      52.1871     436.4259       0.2866       0.2634       2.1651       0.0996       0.1377
   3245.1626   2658.5354  -2633.5354      93.3105      59.1611     616.8948       0.2838       0.2741       2.1446       0.0958       0.1833
   3245.2876   2658.5400  -2633.5400      95.4257      59.1637     759.9339       0.2804       0.2812       2.1300       0.0933       0.1710
   3245.4126   2658.5447  -2633.5447      97.5764      57.0768     863.2685       0.2738       0.2854       2.1219       0.0921       0.1472
   3245.5376   2658.5493  -2633.5493      98.2359      57.9095     954.7610       0.2656       0.2887       2.1164       0.0911       0.1578
   3245.6626   2658.5540  -2633.5540      97.0667      60.2780    1055.7474       0.2639       0.2920       2.1090       0.0876       0.2129
   3245.7876   2658.5586  -2633.5586      95.3196      57.6305    1055.7474       0.2689       0.2920       2.1090       0.0892       0.1546
   3245.9126   2658.5632  -2633.5632      94.8197      56.5009    1055.7474       0.2702       0.2920       2.1096       0.0902       0.1240
   3246.0376   2658.5679  -2633.5679      95.8169      58.8344    1012.7953       0.2826       0.2906       2.1128       0.0909       0.1532
   3246.1626   2658.5725  -2633.5725      97.8599      61.3314     946.1192       0.2956       0.2884       2.1168       0.0911       0.1814
   3246.2876   2658.5771  -2633.5771      99.8404      59.6396     916.3367       0.2924       0.2874       2.1183       0.0904       0.1376
   3246.4126   2658.5815  -2633.5815      99.2570      58.7526    1014.0568       0.2968       0.2907       2.1126       0.0910       0.1587
   3246.5376   2658.5842  -2633.5842      97.2256      54.5902    1206.7592       0.2999       0.2962       2.1016       0.0904       0.1713
   3246.6626   2658.5867  -2633.5867      96.5333      57.0832    1150.2583       0.2948       0.2946       2.1042       0.0905       0.1769
   3246.7876   2658.5894  -2633.5894      97.2103      58.2485     663.2518       0.2874       0.2459       2.1975       0.1115       0.1558
   3246.9126   2658.5920  -2633.5920      98.1686      54.5104      25.3539       0.2836       0.1714       2.3412       0.1448       0.1119
   3247.0376   2658.5945  -2633.5945      97.5481      52.0364      26.5666       0.2855       0.1729       2.3382       0.1422       0.0828
   3247.1626   2658.5972  -2633.5972      95.5060      50.2814      24.0242       0.2935       0.1696       2.3447       0.1462       0.0621
   3247.2876   2658.5996  -2633.5996      96.4054      51.6271      22.5985       0.2911       0.1677       2.3480       0.1493       0.0780
   3247.4126   2658.6023  -2633.6023     100.3202      54.0315      63.0412       0.2919       0.1916       2.3024       0.1362       0.1063
   3247.5376   2658.6050  -2633.6050     104.0364      53.2198     153.9254       0.2925       0.2267       2.2348       0.1170       0.0967
   3247.6626   2658.6074  -2633.6074     104.5117      47.6157     302.0244       0.2863       0.2502       2.1890       0.1068       0.0308
   3247.7876   2658.6101  -2633.6101     104.3659      48.5026     567.9659       0.2809       0.2715       2.1488       0.0979       0.0412
   3247.9126   2658.6128  -2633.6128     105.3049      49.0151     896.1912       0.2817       0.2860       2.1216       0.0937       0.0472
   3248.0376   2658.6152  -2633.6152     106.3593      49.6151    1068.5348       0.2807       0.2923       2.1088       0.0926       0.0543
   3248.1626   2658.6179  -2633.6179     106.3316      50.8826    1096.0104       0.2846       0.2932       2.1070       0.0934       0.0589
   3248.2876   2658.6206  -2633.6206     105.1779      52.3319     998.6140       0.2911       0.2900       2.1136       0.0950       0.0663
   3248.4126   2658.6230  -2633.6230     104.0441      52.6100     799.2634       0.2879       0.2830       2.1260       0.0968       0.0898
   3248.5376   2658.6257  -2633.6257     102.6341      54.1846     799.2634       0.2850       0.2830       2.1269       0.1004       0.1125
   3248.6626   2658.6282  -2633.6282     101.9134      56.2360     653.7834       0.2823       0.2762       2.1400       0.1010       0.1338
   3248.7876   2658.6309  -2633.6309      99.0905      56.2246     625.5972       0.2793       0.2750       2.1420       0.0932       0.1102
   3248.9126   2658.6335  -2633.6335      95.7276      55.5031     531.3951       0.2815       0.2670       2.1571       0.0940       0.0942
   3249.0376   2658.6360  -2633.6360      93.8906      56.0030     262.0391       0.2889       0.2469       2.1956       0.1113       0.1296
   3249.1626   2658.6387  -2633.6387      93.0154      57.5505     304.6206       0.2812       0.2518       2.1874       0.1090       0.1485
   3249.2876   2658.6414  -2633.6414      93.2570      55.6232     346.6887       0.2922       0.2559       2.1784       0.1078       0.1252
   3249.4126   2658.6438  -2633.6438      93.8709      53.1148     386.1773       0.2911       0.2594       2.1712       0.1069       0.1209
   3249.5376   2658.6465  -2633.6465      94.2977      53.5337     427.4252       0.2764       0.2627       2.1655       0.1065       0.1245
   3249.6626   2658.6489  -2633.6489      94.5744      55.5497     461.6167       0.2601       0.2652       2.1615       0.1049       0.1341
   3249.7876   2658.6516  -2633.6516      95.2045      54.5556     479.9791       0.2594       0.2665       2.1591       0.1006       0.1506
   3249.9126   2658.6543  -2633.6543      96.3715      53.2641     573.6724       0.2497       0.2722       2.1476       0.1004       0.1019
   3250.0376   2658.6567  -2633.6567      99.1676      49.6614     719.5017       0.2661       0.2794       2.1340       0.0986       0.0548
   3250.1626   2658.6594  -2633.6594     100.8273      53.3154     705.9454       0.2732       0.2788       2.1353       0.0993       0.0978
   3250.2876   2658.6621  -2633.6621     101.7025      57.7971     673.0334       0.2725       0.2774       2.1379       0.1000       0.1506
   3250.4126   2658.6646  -2633.6646     102.4889      55.6043     753.2023       0.2722       0.2810       2.1302       0.0987       0.1248
   3250.5376   2658.6672  -2633.6672     102.9333      45.6310     876.9610       0.2758       0.2860       2.1210       0.0976       0.0074
   3250.6626   2658.6699  -2633.6699     103.2205      53.5910     527.3749       0.2776       0.2682       2.1557       0.1047       0.1012
