#------------------------------------------------------------------------------
#
#   Created by  : [OpenWorks] Log Export Utility (LEXP)
#   Created on  : 2007-05-07 11:56:53
#   Project     : NORNE
#   User        : JSE
#   Interpreter : JSE
#
#------------------------------------------------------------------------------
~VERSION INFORMATION
VERS. 2.0 : CWLS Log ASCII Standard - version 2.0
WRAP.  NO : One line per depth step
~WELL INFORMATION
#MNEMONIC   .UNIT                                           VALUE :DESCRIPTION
#------------------------------------------------------------------------------
STRT        .M                                           450.6626 :START DEPTH
STOP        .M                                          3861.9126 :STOP DEPTH
STEP        .M                                             0.1250 :STEP
NULL        .                                           -999.2500 :NULL VALUE
COMP        .                                             STATOIL :COMPANY
WELL        .                                       6608/10-B-2 H :WELL
FLD         .                                               NORNE :FIELD
LOC         .                                             UNKNOWN :LOCATION
CNTY        .                                             UNKNOWN :COUNTY
STAT        .                                             UNKNOWN :STATE
CTRY        .                                              Norway :COUNTRY
SRVC        .                                             UNKNOWN :SERVICE COMPANY
DATE        .                                             UNKNOWN :LOG DATE
UWI         .                                    NO 6608/10-B-2 H :UNIQUE WELL ID
XCOORD      .                                       457121.854690 :SURFACE X
YCOORD      .                                      7322122.976330 :SURFACE Y
LAT         .                                           66.015290 :LATITUDE
LON         .                                            8.054722 :LONGITUDE
ELEV        .M                                            25.0000 :SURFACE ELEV
ELEV_TYPE   .                                                  KB :ELEV TYPE
~CURVE INFORMATION
#MNEMONIC.UNIT        API CODE       : CURVE DESCRIPTION
#------------------------------------------------------------------------------
DEPTH    .M                          : Measured Depth
TVD      .M                          : True Vertical Depth (TVD)
TVDSS    .M                          : True Vertical Depth (TVDSS)
DT       .us/ft                      : DT:UNKNOWN:rC:NONE:v1 
GR       .API                        : GR:UNKNOWN:rC:NONE:v1 
KLOGH    .mD                         : KLOGH:UNKNOWN:rC:NONE:v1 
NPHI     .v/v_decimal                : NPHI:UNKNOWN:rC:NONE:v1 
PHIF     .v/v_decimal                : PHIF:UNKNOWN:rC:NONE:v1 
RHOB     .g/cm3                      : RHOB:UNKNOWN:rC:NONE:v1 
SW       .v/v_decimal                : SW:UNKNOWN:rC:NONE:v1 
VSH      .v/v_decimal                : VSH:UNKNOWN:rC:NONE:v1 
~A     DEPTH         TVD       TVDSS           DT           GR        KLOGH         NPHI         PHIF         RHOB           SW          VSH
# ...
   3778.0376   2655.2893  -2630.2893      99.1675      49.1026     646.4816       0.2710       0.2761       2.1401       0.1398       0.0483
   3778.1626   2655.2900  -2630.2900      99.4565      45.1329     706.2690       0.2710       0.2790       2.1349       0.1372       0.0018
   3778.2876   2655.2908  -2630.2908      98.5812      46.4736     706.2690       0.2710       0.2790       2.1341       0.1381       0.0174
   3778.4126   2655.2915  -2630.2915      98.2279      47.0818     706.2690       0.2710       0.2790       2.1347       0.1408       0.0302
   3778.5376   2655.2922  -2630.2922      98.7238      50.3921     731.2141       0.2710       0.2801       2.1328       0.1408       0.0669
   3778.6626   2655.2927  -2630.2927      99.9302      53.4078     742.7860       0.2710       0.2806       2.1314       0.1393       0.0595
   3778.7876   2655.2935  -2630.2935     101.2245      51.7567     732.8868       0.2710       0.2802       2.1318       0.1380       0.0024
   3778.9126   2655.2942  -2630.2942     101.5419      41.6343     750.6787       0.2710       0.2810       2.1310       0.1376       0.0012
   3779.0376   2655.2949  -2630.2949     103.2923      47.8505     713.7068       0.2710       0.2793       2.1335       0.1449       0.0689
   3779.1626   2655.2957  -2630.2957     104.5766      49.9262     525.5927       0.2710       0.2685       2.1549       0.1462       0.0698
   3779.2876   2655.2964  -2630.2964     103.7995      51.5593     464.8325       0.2710       0.2654       2.1613       0.1481       0.0935
   3779.4126   2655.2971  -2630.2971     101.7710      53.2676     473.7730       0.2710       0.2659       2.1595       0.1498       0.1215
   3779.5376   2655.2976  -2630.2976     100.2052      54.0082     410.9402       0.2710       0.2615       2.1673       0.1483       0.1008
   3779.6626   2655.2983  -2630.2983      99.7675      52.7864     454.6725       0.2710       0.2647       2.1624       0.1479       0.0495
   3779.7876   2655.2991  -2630.2991     100.0023      51.7198     480.1960       0.2710       0.2665       2.1590       0.1508       0.0681
   3779.9126   2655.2998  -2630.2998     101.4201      56.7874     496.1310       0.2710       0.2676       2.1563       0.1503       0.1599
   3780.0376   2655.3005  -2630.3005     102.7519      57.8457     566.4647       0.2710       0.2716       2.1487       0.1487       0.1734
   3780.1626   2655.3013  -2630.3013     102.4043      54.7413     619.3826       0.2710       0.2744       2.1438       0.1471       0.1146
   3780.2876   2655.3020  -2630.3020      99.1148      59.5393     456.1245       0.2710       0.2649       2.1613       0.1445       0.1711
   3780.4126   2655.3025  -2630.3025      97.2185      59.4803     412.3923       0.2710       0.2616       2.1670       0.1457       0.1704
   3780.5376   2655.3032  -2630.3032      96.6482      54.0279     380.5177       0.2710       0.2590       2.1721       0.1464       0.1062
   3780.6626   2655.3040  -2630.3040      96.7983      54.3189     363.3456       0.2710       0.2575       2.1750       0.1497       0.1096
   3780.7876   2655.3047  -2630.3047      96.8411      53.8032     408.6882       0.2776       0.2608       2.1690       0.1532       0.1036
   3780.9126   2655.3054  -2630.3054      96.0861      45.4450     514.1210       0.2916       0.2687       2.1544       0.1544       0.0142
   3781.0376   2655.3062  -2630.3062      94.4815      39.7835     488.6106       0.2901       0.2671       2.1569       0.1551       0.0007
   3781.1626   2655.3069  -2630.3069      90.3846      46.8653     550.7800       0.3107       0.2709       2.1492       0.1596       0.0364
   3781.2876   2655.3074  -2630.3074      87.7551      49.2647     494.2039       0.3178       0.2672       2.1566       0.1553       0.0502
   3781.4126   2655.3081  -2630.3081      86.1607      49.0076     511.4604       0.3059       0.2682       2.1551       0.1475       0.0471
   3781.5376   2655.3088  -2630.3088      86.8615      47.9673     592.2888       0.2879       0.2733       2.1452       0.1423       0.0379
   3781.6626   2655.3096  -2630.3096      91.9757      46.8402     539.9896       0.2868       0.2702       2.1507       0.1442       0.0335
   3781.7876   2655.3103  -2630.3103      95.3307      49.3207     380.9844       0.2803       0.2587       2.1736       0.1496       0.0523
   3781.9126   2655.3110  -2630.3110      97.3967      51.0265     342.6933       0.2789       0.2556       2.1798       0.1488       0.0505
   3782.0376   2655.3118  -2630.3118      97.7664      47.3608     466.2686       0.2758       0.2643       2.1623       0.1458       0.0233
   3782.1626   2655.3125  -2630.3125      97.0184      45.6896     586.6650       0.2666       0.2730       2.1450       0.1451       0.0244
   3782.2876   2655.3130  -2630.3130      95.9761      50.7422     575.7260       0.2547       0.2724       2.1463       0.1479       0.0778
   3782.4126   2655.3137  -2630.3137      95.2467      54.1482     519.7186       0.2581       0.2691       2.1528       0.1469       0.1079
   3782.5376   2655.3145  -2630.3145      92.6696      54.2280     470.1524       0.2640       0.2658       2.1594       0.1522       0.0909
   3782.6626   2655.3152  -2630.3152      90.9638      52.6750     458.0891       0.2732       0.2650       2.1610       0.1513       0.0819
   3782.7876   2655.3159  -2630.3159      89.9977      53.1589     429.1679       0.2815       0.2628       2.1650       0.1486       0.1111
   3782.9126   2655.3167  -2630.3167      89.7238      56.2550     389.3425       0.2833       0.2597       2.1708       0.1467       0.1577
   3783.0376   2655.3174  -2630.3174      89.9627      59.2505     379.5666       0.2751       0.2589       2.1731       0.1460       0.1605
   3783.1626   2655.3179  -2630.3179      88.8443      53.1212     370.0592       0.2726       0.2581       2.1739       0.1472       0.0171
   3783.2876   2655.3186  -2630.3186      87.9842      45.0283     360.8201       0.2898       0.2573       2.1754       0.1487       0.0000
   3783.4126   2655.3193  -2630.3193      88.8272      50.5564     357.6926       0.2782       0.2570       2.1765       0.1500       0.0805
   3783.5376   2655.3201  -2630.3201      90.4217      54.6057     389.0021       0.2629       0.2595       2.1723       0.1491       0.1130
   3783.6626   2655.3208  -2630.3208      91.7829      50.8160     436.9513       0.2673       0.2635       2.1649       0.1465       0.0684
   3783.7876   2655.3215  -2630.3215      92.8000      57.7590     404.7904       0.2859       0.2610       2.1690       0.1471       0.1501
   3783.9126   2655.3223  -2630.3223      92.5076      59.1053     357.0999       0.2875       0.2569       2.1772       0.1486       0.1659
   3784.0376   2655.3228  -2630.3228      92.6729      54.1290     500.9443       0.2968       0.2669       2.1572       0.1427       0.1074
   3784.1626   2655.3235  -2630.3235      93.1293      52.7793     652.3317       0.3046       0.2762       2.1390       0.1376       0.0915
   3784.2876   2655.3242  -2630.3242      93.4607      53.8226     664.3929       0.2995       0.2766       2.1388       0.1373       0.1038
   3784.4126   2655.3250  -2630.3250      93.3333      51.6298     513.2772       0.2780       0.2686       2.1548       0.1415       0.0780
   3784.5376   2655.3257  -2630.3257      93.3333      50.0218     597.2202       0.2780       0.2735       2.1449       0.1398       0.0591
   3784.6626   2655.3264  -2630.3264      95.1840      50.6674     591.3893       0.2683       0.2733       2.1447       0.1404       0.0667
   3784.7876   2655.3271  -2630.3271      95.9225      52.0206     586.6650       0.2634       0.2730       2.1456       0.1399       0.0889
   3784.9126   2655.3276  -2630.3276      95.5214      53.4863     579.7942       0.2642       0.2726       2.1464       0.1392       0.1067
   3785.0376   2655.3284  -2630.3284      94.5733      54.3577     568.8009       0.2689       0.2720       2.1470       0.1394       0.1075
