#------------------------------------------------------------------------------
#
#   Created by  : [OpenWorks] Log Export Utility (LEXP)
#   Created on  : 2007-05-07 11:57:46
#   Project     : NORNE
#   User        : JSE
#   Interpreter : JSE
#
#------------------------------------------------------------------------------
~VERSION INFORMATION
VERS. 2.0 : CWLS Log ASCII Standard - version 2.0
WRAP.  NO : One line per depth step
~WELL INFORMATION
#MNEMONIC   .UNIT                                           VALUE :DESCRIPTION
#------------------------------------------------------------------------------
STRT        .M                                          1250.1914 :START DEPTH
STOP        .M                                          3136.8164 :STOP DEPTH
STEP        .M                                             0.1250 :STEP
NULL        .                                           -999.2500 :NULL VALUE
COMP        .                                             STATOIL :COMPANY
WELL        .                                       6608/10-D-4 H :WELL
FLD         .                                               NORNE :FIELD
LOC         .                                             UNKNOWN :LOCATION
CNTY        .                                             UNKNOWN :COUNTY
STAT        .                                             UNKNOWN :STATE
CTRY        .                                              Norway :COUNTRY
SRVC        .                                             UNKNOWN :SERVICE COMPANY
DATE        .                                             UNKNOWN :LOG DATE
UWI         .                                    NO 6608/10-D-4 H :UNIQUE WELL ID
XCOORD      .                                       457259.082734 :SURFACE X
YCOORD      .                                      7321952.911776 :SURFACE Y
LAT         .                                           66.013783 :LATITUDE
LON         .                                            8.057803 :LONGITUDE
ELEV        .M                                            22.0000 :SURFACE ELEV
ELEV_TYPE   .                                                  KB :ELEV TYPE
~CURVE INFORMATION
#MNEMONIC.UNIT        API CODE       : CURVE DESCRIPTION
#------------------------------------------------------------------------------
DEPTH    .M                          : Measured Depth
TVD      .M                          : True Vertical Depth (TVD)
TVDSS    .M                          : True Vertical Depth (TVDSS)
DT       .us/ft                      : DT:UNKNOWN:rC:NONE:v1 
DTS      .us/ft                      : DTS:UNKNOWN:rC:NONE:v1 
GR       .API                        : GR:UNKNOWN:rC:NONE:v1 
KLOGH    .mD          UNKNOWN        : KLOGH:UNKNOWN:rC::v0 (auto-composite)
NPHI     .v/v_decimal                : NPHI:UNKNOWN:rC:NONE:v1 
PHIF     .v/v_decimal UNKNOWN        : PHIF:UNKNOWN:rC::v0 (auto-composite)
RHOB     .g/cm3                      : RHOB:UNKNOWN:rC:NONE:v1 
SW       .v/v_decimal UNKNOWN        : SW:UNKNOWN:rC::v0 (auto-composite)
VSH      .v/v_decimal UNKNOWN        : VSH:UNKNOWN:rC::v0 (auto-composite)
~A     DEPTH         TVD       TVDSS           DT          DTS           GR        KLOGH         NPHI         PHIF         RHOB           SW          VSH
# ...
   3070.1914   2846.2441  -2824.2441      83.9604     155.0804     119.4666       0.0088       0.2517       0.1334       2.4481       0.9668       0.7455
   3070.3164   2846.3337  -2824.3337      83.7625     154.9162     119.2984       0.0127       0.2464       0.1419       2.4339       0.9290       0.7434
   3070.4414   2846.4233  -2824.4233      83.5879     154.6840     119.4302       0.0149       0.2435       0.1458       2.4275       0.9134       0.7450
   3070.5664   2846.5129  -2824.5129      83.4503     154.3649     120.3200       0.0128       0.2435       0.1423       2.4333       0.9372       0.7560
   3070.6914   2846.6025  -2824.6025      83.3650     153.9628     122.0447       0.0086       0.2446       0.1334       2.4481       0.9928       0.7774
   3070.8164   2846.6921  -2824.6921      83.3412     153.5806     123.5729       0.0064       0.2433       0.1267       2.4593       1.0000       0.7964
   3070.9414   2846.7817  -2824.7817      83.3760     153.3274     124.1594       0.0058       0.2410       0.1248       2.4625       1.0000       0.8036
   3071.0664   2846.8713  -2824.8713      83.4712     153.2666     123.4915       0.0065       0.2385       0.1272       2.4584       1.0000       0.7953
   3071.1914   2846.9612  -2824.9612      83.6240     153.4222     121.8163       0.0079       0.2366       0.1316       2.4511       0.9988       0.7746
   3071.3164   2847.0508  -2825.0508      83.8270     153.7730     120.1260       0.0088       0.2365       0.1341       2.4470       0.9934       0.7536
   3071.4414   2847.1404  -2825.1404      84.0501     154.1875     118.9720       0.0081       0.2392       0.1321       2.4503       0.9988       0.7393
   3071.5664   2847.2300  -2825.2300      84.2508     154.5009     117.9037       0.0073       0.2424       0.1298       2.4542       1.0000       0.7261
   3071.6914   2847.3196  -2825.3196      84.3939     154.6334     116.9184       0.0073       0.2452       0.1298       2.4542       1.0000       0.7138
   3071.8164   2847.4092  -2825.4092      84.4537     154.5506     116.1526       0.0080       0.2466       0.1319       2.4506       0.9923       0.7044
   3071.9414   2847.4988  -2825.4988      84.4149     154.2594     115.9068       0.0088       0.2465       0.1342       2.4468       0.9694       0.7014
   3072.0664   2847.5884  -2825.5884      84.2688     153.8015     116.9800       0.0093       0.2472       0.1352       2.4452       0.9468       0.7147
   3072.1914   2847.6782  -2825.6782      84.0479     153.2486     118.6685       0.0093       0.2485       0.1353       2.4450       0.9332       0.7356
   3072.3164   2847.7678  -2825.7678      83.7860     152.6549     120.2226       0.0086       0.2500       0.1336       2.4478       0.9372       0.7548
   3072.4414   2847.8574  -2825.8574      83.4952     152.0292     121.2193       0.0072       0.2514       0.1294       2.4549       0.9648       0.7672
   3072.5664   2847.9470  -2825.9470      83.1835     151.3604     121.4601       0.0053       0.2523       0.1227       2.4660       1.0000       0.7702
   3072.6914   2848.0366  -2826.0366      82.8564     150.6172     121.0149       0.0038       0.2520       0.1154       2.4781       1.0000       0.7646
   3072.8164   2848.1262  -2826.1262      82.5025     149.6964     119.9868       0.0033       0.2512       0.1120       2.4839       1.0000       0.7519
   3072.9414   2848.2158  -2826.2158      82.1035     148.5662     119.1821       0.0037       0.2509       0.1149       2.4791       1.0000       0.7419
   3073.0664   2848.3054  -2826.3054      81.6455     147.2334     119.1976       0.0052       0.2520       0.1219       2.4674       0.9718       0.7421
   3073.1914   2848.3953  -2826.3953      81.1254     145.7449     120.1597       0.0071       0.2554       0.1293       2.4550       0.9212       0.7541
   3073.3164   2848.4849  -2826.4849      80.5514     144.1821     121.9520       0.0084       0.2614       0.1330       2.4488       0.8740       0.7762
   3073.4414   2848.5745  -2826.5745      79.9452     142.6748     124.5324       0.0072       0.2686       0.1296       2.4546       0.8702       0.8083
   3073.5664   2848.6641  -2826.6641      79.3525     141.3646     126.7537       0.0048       0.2696       0.1202       2.4702       0.9103       0.8358
   3073.6914   2848.7537  -2826.7537      78.8234     140.1829     126.9505       0.0031       0.2628       0.1096       2.4877       0.9676       0.8382
   3073.8164   2848.8433  -2826.8433      78.4102     138.9823     123.7296       0.0020       0.2516       0.1006       2.5026       1.0000       0.7983
   3073.9414   2848.9329  -2826.9329      78.1691     137.6318     116.2605       0.0016       0.2400       0.0960       2.5103       1.0000       0.7057
   3074.0664   2849.0225  -2827.0225      78.1566     136.0644     104.5249       0.0017       0.2310       0.0978       2.5073       1.0000       0.5602
   3074.1914   2849.1123  -2827.1123      78.4769     134.5579      90.6984       0.0026       0.2218       0.1062       2.4934       1.0000       0.3889
   3074.3164   2849.2019  -2827.2019      79.0389     133.7065      79.6388       0.0034       0.2093       0.1130       2.4822       1.0000       0.2517
   3074.4414   2849.2915  -2827.2915      79.7270     133.7485      72.7930       0.0039       0.1967       0.1161       2.4770       1.0000       0.1669
   3074.5664   2849.3811  -2827.3811      80.4459     134.6924      69.9792       0.0039       0.1877       0.1161       2.4770       1.0000       0.1320
   3074.6914   2849.4707  -2827.4707      81.1101     136.3555      70.1828       0.0038       0.1859       0.1155       2.4780       1.0000       0.1345
   3074.8164   2849.5603  -2827.5603      81.6458     138.3544      72.1538       0.0045       0.1919       0.1189       2.4723       1.0000       0.1590
   3074.9414   2849.6497  -2827.6497      82.0037     140.1362      75.1681       0.0057       0.2025       0.1243       2.4634       1.0000       0.1963
   3075.0664   2849.7388  -2827.7388      82.2238     141.5259      79.7763       0.0063       0.2153       0.1268       2.4592       1.0000       0.2534
   3075.1914   2849.8279  -2827.8279      82.3249     142.5024      86.4615       0.0060       0.2293       0.1255       2.4614       1.0000       0.3363
   3075.3164   2849.9167  -2827.9167      82.3335     143.1118      94.9062       0.0052       0.2420       0.1221       2.4670       1.0000       0.4411
   3075.4414   2850.0059  -2828.0059      82.2834     143.4569     104.0015       0.0048       0.2497       0.1209       2.4691       0.9991       0.5539
   3075.5664   2850.0950  -2828.0950      82.2228     143.7182     111.4993       0.0068       0.2473       0.1282       2.4568       0.9877       0.6467
   3075.6914   2850.1838  -2828.1838      82.1929     144.1147     115.8427       0.0114       0.2417       0.1390       2.4388       0.9259       0.7005
   3075.8164   2850.2729  -2828.2729      82.1960     144.5146     117.4600       0.0161       0.2393       0.1472       2.4252       0.8846       0.7206
   3075.9414   2850.3621  -2828.3621      82.2290     144.7019     117.0653       0.0190       0.2419       0.1513       2.4183       0.8716       0.7157
   3076.0664   2850.4509  -2828.4509      82.2880     144.4816     115.6037       0.0195       0.2485       0.1519       2.4175       0.8769       0.6976
   3076.1914   2850.5400  -2828.5400      82.3732     143.7517     114.1111       0.0182       0.2546       0.1503       2.4200       0.8892       0.6791
   3076.3164   2850.6292  -2828.6292      82.4874     142.7717     112.5945       0.0199       0.2523       0.1523       2.4168       0.8844       0.6602
   3076.4414   2850.7180  -2828.7180      82.6160     142.0893     110.3367       0.0225       0.2465       0.1550       2.4123       0.8755       0.6323
   3076.5664   2850.8071  -2828.8071      82.7458     141.8577     107.4928       0.0235       0.2411       0.1561       2.4104       0.8723       0.5970
