#------------------------------------------------------------------------------
#
#   Created by  : [OpenWorks] Log Export Utility (LEXP)
#   Created on  : 2007-05-07 11:57:46
#   Project     : NORNE
#   User        : JSE
#   Interpreter : JSE
#
#------------------------------------------------------------------------------
~VERSION INFORMATION
VERS. 2.0 : CWLS Log ASCII Standard - version 2.0
WRAP.  NO : One line per depth step
~WELL INFORMATION
#MNEMONIC   .UNIT                                           VALUE :DESCRIPTION
#------------------------------------------------------------------------------
STRT        .M                                          1250.1914 :START DEPTH
STOP        .M                                          3136.8164 :STOP DEPTH
STEP        .M                                             0.1250 :STEP
NULL        .                                           -999.2500 :NULL VALUE
COMP        .                                             STATOIL :COMPANY
WELL        .                                       6608/10-D-4 H :WELL
FLD         .                                               NORNE :FIELD
LOC         .                                             UNKNOWN :LOCATION
CNTY        .                                             UNKNOWN :COUNTY
STAT        .                                             UNKNOWN :STATE
CTRY        .                                              Norway :COUNTRY
SRVC        .                                             UNKNOWN :SERVICE COMPANY
DATE        .                                             UNKNOWN :LOG DATE
UWI         .                                    NO 6608/10-D-4 H :UNIQUE WELL ID
XCOORD      .                                       457259.082734 :SURFACE X
YCOORD      .                                      7321952.911776 :SURFACE Y
LAT         .                                           66.013783 :LATITUDE
LON         .                                            8.057803 :LONGITUDE
ELEV        .M                                            22.0000 :SURFACE ELEV
ELEV_TYPE   .                                                  KB :ELEV TYPE
~CURVE INFORMATION
#MNEMONIC.UNIT        API CODE       : CURVE DESCRIPTION
#------------------------------------------------------------------------------
DEPTH    .M                          : Measured Depth
TVD      .M                          : True Vertical Depth (TVD)
TVDSS    .M                          : True Vertical Depth (TVDSS)
DT       .us/ft                      : DT:UNKNOWN:rC:NONE:v1 
DTS      .us/ft                      : DTS:UNKNOWN:rC:NONE:v1 
GR       .API                        : GR:UNKNOWN:rC:NONE:v1 
KLOGH    .mD          UNKNOWN        : KLOGH:UNKNOWN:rC::v0 (auto-composite)
NPHI     .v/v_decimal                : NPHI:UNKNOWN:rC:NONE:v1 
PHIF     .v/v_decimal UNKNOWN        : PHIF:UNKNOWN:rC::v0 (auto-composite)
RHOB     .g/cm3                      : RHOB:UNKNOWN:rC:NONE:v1 
SW       .v/v_decimal UNKNOWN        : SW:UNKNOWN:rC::v0 (auto-composite)
VSH      .v/v_decimal UNKNOWN        : VSH:UNKNOWN:rC::v0 (auto-composite)
~A     DEPTH         TVD       TVDSS           DT          DTS           GR        KLOGH         NPHI         PHIF         RHOB           SW          VSH
# ...
   2881.6914   2709.3835  -2687.3835      93.4834     159.8238      70.1234     592.8733       0.2536       0.2658       2.2347       0.4036       0.1337
   2881.8164   2709.4758  -2687.4758      89.6305     154.8186      69.5923     152.1575       0.2402       0.2331       2.2972       0.4647       0.1271
   2881.9414   2709.5684  -2687.5684      85.8713     150.1171      68.6989      30.5786       0.2321       0.1999       2.3634       0.5301       0.1161
   2882.0664   2709.6606  -2687.6606      82.5184     145.9001      67.2367       6.4955       0.2279       0.1691       2.4228       0.5901       0.0979
   2882.1914   2709.7529  -2687.7529      79.8211     142.2514      65.3286       1.7715       0.2229       0.1428       2.4675       0.6541       0.0743
   2882.3164   2709.8455  -2687.8455      78.1966     139.2475      63.2176       0.9681       0.2112       0.1283       2.4921       0.6878       0.0481
   2882.4414   2709.9377  -2687.9377      77.5655     136.7455      60.7831       0.6649       0.1983       0.1207       2.5049       0.6995       0.0179
   2882.5664   2710.0300  -2688.0300      77.8520     134.7754      58.0510       0.6846       0.1881       0.1214       2.5037       0.6806       0.0030
   2882.6914   2710.1226  -2688.1226      78.8942     133.3320      55.4418       1.0947       0.1824       0.1303       2.4864       0.6292       0.0010
   2882.8164   2710.2148  -2688.2148      80.4408     132.3553      53.5301       2.5522       0.1814       0.1473       2.4521       0.5561       0.0010
   2882.9414   2710.3071  -2688.3071      82.1275     131.7074      52.8526       7.6486       0.1849       0.1745       2.4045       0.5016       0.0010
   2883.0664   2710.3994  -2688.3994      83.5135     131.0819      53.4711      22.7777       0.1903       0.1973       2.3577       0.4466       0.0010
   2883.1914   2710.4919  -2688.4919      84.4993     130.2529      54.6957      43.0910       0.1959       0.2128       2.3231       0.4198       0.0010
   2883.3164   2710.5842  -2688.5842      85.0834     129.1086      56.1072      59.5479       0.2011       0.2211       2.3048       0.4126       0.0010
   2883.4414   2710.6765  -2688.6765      85.3154     127.6366      57.4700      69.5251       0.2053       0.2246       2.3040       0.4164       0.0010
   2883.5664   2710.7690  -2688.7690      85.2838     125.9399      58.7560      76.3782       0.2081       0.2266       2.3192       0.4288       0.0013
   2883.6914   2710.8613  -2688.8613      85.1167     124.4219      59.9029      47.5168       0.2090       0.2156       2.3430       0.4546       0.0083
   2883.8164   2710.9536  -2688.9536      85.0466     123.5590      60.7992      25.1282       0.2084       0.1997       2.3708       0.5028       0.0182
   2883.9414   2711.0461  -2689.0461      85.2325     123.6040      61.2415      14.7688       0.2080       0.1899       2.3875       0.5428       0.0236
   2884.0664   2711.1384  -2689.1384      85.7630     124.7490      61.2325      16.3333       0.2081       0.1912       2.3824       0.5579       0.0235
   2884.1914   2711.2307  -2689.2307      86.6549     127.0967      60.9273      30.4049       0.2086       0.2044       2.3504       0.5396       0.0198
   2884.3164   2711.3230  -2689.3230      87.8354     130.6905      60.6496      66.6891       0.2096       0.2234       2.2946       0.4852       0.0163
   2884.4414   2711.4155  -2689.4155      89.0317     135.2295      60.9646     204.2527       0.2117       0.2463       2.2380       0.4419       0.0202
   2884.5664   2711.5078  -2689.5078      90.0137     139.9378      62.3154     354.8058       0.2163       0.2601       2.2098       0.4194       0.0370
   2884.6914   2711.6001  -2689.6001      90.7168     144.3163      64.0804     382.2047       0.2229       0.2624       2.2149       0.4187       0.0588
   2884.8164   2711.6926  -2689.6926      91.1414     147.9719      65.4526     277.2170       0.2294       0.2545       2.2485       0.4366       0.0759
   2884.9414   2711.7849  -2689.7849      91.3382     150.6545      65.6404     145.5784       0.2323       0.2406       2.2966       0.4678       0.0781
   2885.0664   2711.8772  -2689.8772      91.3538     152.2364      64.0831      68.1638       0.2303       0.2228       2.3311       0.5182       0.0589
   2885.1914   2711.9697  -2689.9697      91.2507     153.1803      61.6125      43.1867       0.2277       0.2136       2.3472       0.5567       0.0282
   2885.3164   2712.0620  -2690.0620      91.1031     153.9004      59.6079      38.3894       0.2286       0.2114       2.3510       0.5853       0.0084
   2885.4414   2712.1543  -2690.1543      91.0039     154.6709      58.7111      43.4380       0.2338       0.2140       2.3466       0.6055       0.0010
   2885.5664   2712.2466  -2690.2466      91.0537     155.6997      59.1322      58.2637       0.2418       0.2200       2.3362       0.6158       0.0035
   2885.6914   2712.3391  -2690.3391      91.3536     157.1136      60.6288      93.4314       0.2491       0.2312       2.3174       0.6067       0.0163
   2885.8164   2712.4314  -2690.4314      91.9710     158.9754      62.8272     190.8622       0.2535       0.2461       2.2889       0.5790       0.0433
   2885.9414   2712.5237  -2690.5237      92.7344     161.0533      65.1506     365.8988       0.2599       0.2602       2.2627       0.5641       0.0721
   2886.0664   2712.6162  -2690.6162      93.5343     163.1201      67.2176     544.8940       0.2684       0.2702       2.2448       0.5538       0.0977
   2886.1914   2712.7085  -2690.7085      94.2848     164.9055      68.7992     670.1550       0.2765       0.2751       2.2373       0.5508       0.1173
   2886.3164   2712.8008  -2690.8008      94.9283     166.1359      69.8281     695.1921       0.2804       0.2758       2.2387       0.5625       0.1301
   2886.4414   2712.8931  -2690.8931      95.4239     166.4896      70.4000     518.9844       0.2762       0.2693       2.2452       0.5749       0.1372
   2886.5664   2712.9856  -2690.9856      95.7334     166.0587      70.5278     430.0890       0.2645       0.2652       2.2503       0.5943       0.1388
   2886.6914   2713.0779  -2691.0779      95.8203     165.1293      70.5156     388.1730       0.2516       0.2630       2.2536       0.6025       0.1387
   2886.8164   2713.1702  -2691.1702      95.6489     163.8501      70.2821     374.3320       0.2426       0.2622       2.2572       0.6002       0.1357
   2886.9414   2713.2627  -2691.2627      95.2181     162.3396      69.7361     363.0040       0.2402       0.2614       2.2629       0.5994       0.1289
   2887.0664   2713.3550  -2691.3550      94.5780     160.6880      68.8940     317.2702       0.2434       0.2585       2.2710       0.6207       0.1185
   2887.1914   2713.4473  -2691.4473      93.8633     159.0605      68.4896     267.3746       0.2483       0.2546       2.2776       0.6453       0.1135
   2887.3164   2713.5398  -2691.5398      93.2858     157.7440      68.3924     248.2741       0.2519       0.2530       2.2803       0.6632       0.1123
   2887.4414   2713.6321  -2691.6321      92.9182     156.8603      68.1752     229.5301       0.2540       0.2512       2.2833       0.6774       0.1096
   2887.5664   2713.7244  -2691.7244      92.7959     156.4854      67.7261     200.4811       0.2548       0.2481       2.2886       0.6897       0.1040
   2887.6914   2713.8167  -2691.8167      92.9279     156.6412      67.1783     164.4470       0.2536       0.2437       2.2960       0.7012       0.0972
   2887.8164   2713.9092  -2691.9092      93.3537     157.3411      66.9477     135.2728       0.2490       0.2394       2.3033       0.7129       0.0944
   2887.9414   2714.0015  -2692.0015      94.0761     158.5854      67.2511     131.8026       0.2407       0.2389       2.3040       0.7192       0.0981
   2888.0664   2714.0938  -2692.0938      94.9854     160.3124      68.1955     177.4928       0.2334       0.2449       2.2910       0.7174       0.1099
