#------------------------------------------------------------------------------
#
#   Created by  : [OpenWorks] Log Export Utility (LEXP)
#   Created on  : 2007-05-07 11:57:11
#   Project     : NORNE
#   User        : JSE
#   Interpreter : JSE
#
#------------------------------------------------------------------------------
~VERSION INFORMATION
VERS. 2.0 : CWLS Log ASCII Standard - version 2.0
WRAP.  NO : One line per depth step
~WELL INFORMATION
#MNEMONIC   .UNIT                                           VALUE :DESCRIPTION
#------------------------------------------------------------------------------
STRT        .M                                          1205.1348 :START DEPTH
STOP        .M                                          4417.7598 :STOP DEPTH
STEP        .M                                             0.1250 :STEP
NULL        .                                           -999.2500 :NULL VALUE
COMP        .                                             STATOIL :COMPANY
WELL        .                                       6608/10-C-2 H :WELL
FLD         .                                               NORNE :FIELD
LOC         .                                             UNKNOWN :LOCATION
CNTY        .                                             UNKNOWN :COUNTY
STAT        .                                             UNKNOWN :STATE
CTRY        .                                              Norway :COUNTRY
SRVC        .                                             UNKNOWN :SERVICE COMPANY
DATE        .                                             UNKNOWN :LOG DATE
UWI         .                                    NO 6608/10-C-2 H :UNIQUE WELL ID
XCOORD      .                                       457185.617758 :SURFACE X
YCOORD      .                                      7322019.729827 :SURFACE Y
LAT         .                                           66.014372 :LATITUDE
LON         .                                            8.056161 :LONGITUDE
ELEV        .M                                            22.0000 :SURFACE ELEV
ELEV_TYPE   .                                                  KB :ELEV TYPE
~CURVE INFORMATION
#MNEMONIC.UNIT        API CODE       : CURVE DESCRIPTION
#------------------------------------------------------------------------------
DEPTH    .M                          : Measured Depth
TVD      .M                          : True Vertical Depth (TVD)
TVDSS    .M                          : True Vertical Depth (TVDSS)
DT       .us/ft       UNKNOWN        : DT:DT:rC::v0 (auto-composite)
DTS      .us/ft       UNKNOWN        : DTS:DTS:rC::v0 (auto-composite)
GR       .API         UNKNOWN        : GR:GR:rC::v0 (auto-composite)
KLOGH    .mD          UNKNOWN        : KLOGH:UNKNOWN:rC:NONE:v1 
NPHI     .v/v_decimal UNKNOWN        : NPHI:NPHI:rC::v0 (auto-composite)
PHIF     .v/v_decimal UNKNOWN        : PHIF:PHIF:rC::v0 (auto-composite)
SW       .v/v_decimal UNKNOWN        : SW:SW:rC::v0 (auto-composite)
VSH      .v/v_decimal UNKNOWN        : VSH:VSH:rC::v0 (auto-composite)
~A     DEPTH         TVD       TVDSS           DT          DTS           GR        KLOGH         NPHI         PHIF           SW          VSH
# ...
   3869.8848   2591.6204  -2569.6204      93.6660     224.5834     124.0264       0.7096       0.4736       0.1549       0.6069       0.7114
   3870.0098   2591.6790  -2569.6790      92.4464     222.0150     118.8706       2.4482       0.4673       0.1769       0.5344       0.6541
   3870.1348   2591.7375  -2569.7375      91.1707     221.4537     110.0957     153.5541       0.4786       0.2361       0.4162       0.5566
   3870.2598   2591.7961  -2569.7961      89.9605     222.0542     107.2680     182.9245       0.4896       0.2625       0.3645       0.5252
   3870.3848   2591.8547  -2569.8547      89.0037     222.8374     112.1202      55.2357       0.4900       0.2363       0.4098       0.5791
   3870.5098   2591.9133  -2569.9133      88.5230     222.9114     116.9473       6.6047       0.4785       0.1984       0.4889       0.6327
   3870.6348   2591.9722  -2569.9722      88.6690     221.7110     121.3625       1.5588       0.4656       0.1616       0.5695       0.6818
   3870.7598   2592.0308  -2570.0308      89.1018     220.5745     129.4389       0.2652       0.4674       0.1192       0.7158       0.7715
   3870.8848   2592.0894  -2570.0894      89.6949     220.5428     132.9193       0.0796       0.4772       0.1099       0.7544       0.8102
   3871.0098   2592.1479  -2570.1479      90.4674     221.8505     133.0362       0.1004       0.4838       0.1157       0.7673       0.8115
   3871.1348   2592.2065  -2570.2065      91.4309     224.2360     133.0506       0.0823       0.4796       0.1115       0.8477       0.8117
   3871.2598   2592.2651  -2570.2651      92.4713     226.9872     133.0591       0.0534       0.4711       0.1030       0.8972       0.8118
   3871.3848   2592.3237  -2570.3237      93.2179     228.6594     134.6604       0.0526       0.4798       0.1028       0.8732       0.8296
   3871.5098   2592.3823  -2570.3823      93.3870     229.2237     136.4018       0.0478       0.4874       0.1009       0.8932       0.8489
   3871.6348   2592.4409  -2570.4409      92.6895     229.1188     137.1168       0.0430       0.4893       0.0988       0.9273       0.8569
   3871.7598   2592.4995  -2570.4995      91.0390     228.9083     136.8083       0.0351       0.4823       0.0936       0.9620       0.8534
   3871.8848   2592.5583  -2570.5583      88.5906     229.1158     136.2666       0.0167       0.4647       0.0793       1.0000       0.8474
   3872.0098   2592.6169  -2570.6169      85.9773     229.6992     134.6393       0.0072       0.4375       0.0615       1.0000       0.8293
   3872.1348   2592.6755  -2570.6755      84.1596     229.9155     131.4612       0.0089       0.4252       0.0667       1.0000       0.7940
   3872.2598   2592.7341  -2570.7341      83.3351     229.3325     128.9391       0.0317       0.4318       0.0870       0.9881       0.7660
   3872.3848   2592.7927  -2570.7927      83.3355     228.0548     126.6420       0.1184       0.4457       0.1131       0.8536       0.7405
   3872.5098   2592.8513  -2570.8513      83.7942     226.3338     124.4880       1.5356       0.4496       0.1453       0.5877       0.7045
   3872.6348   2592.9099  -2570.9099      84.2300     224.3560     124.3100       7.9182       0.4243       0.2033       0.4162       0.6431
   3872.7598   2592.9685  -2570.9685      84.5249     220.7273     114.2997       3.7704       0.3671       0.1864       0.4689       0.5430
   3872.8848   2593.0271  -2571.0271      84.8394     214.6421      94.3628       8.1260       0.2969       0.2000       0.3781       0.3436
   3873.0098   2593.0857  -2571.0857      85.0378     206.3683      90.9489       6.2022       0.2296       0.1468       0.4261       0.3095
   3873.1348   2593.1443  -2571.1443      85.0162     196.9635     102.1810       0.0072       0.1780       0.0507       0.6778       0.4218
   3873.2598   2593.2031  -2571.2031      84.7780     187.9619     108.5835       0.0004       0.1488       0.0028       1.0000       0.4858
   3873.3848   2593.2617  -2571.2617    -999.2500     181.0396      98.5601       0.0008       0.1330       0.0191       1.0000       0.3856
   3873.5098   2593.3203  -2571.3203    -999.2500     177.3166      88.9600       0.0034       0.1210       0.0442       0.7952       0.2896
   3873.6348   2593.3789  -2571.3789    -999.2500     176.4338      83.6050       0.0060       0.1143       0.0587       0.6622       0.2360
   3873.7598   2593.4375  -2571.4375    -999.2500     177.9402      81.4032       0.0078       0.1116       0.0646       0.6078       0.2140
   3873.8848   2593.4961  -2571.4961    -999.2500     181.1868      79.1003       0.0164       0.1112       0.0733       0.5553       0.1910
   3874.0098   2593.5547  -2571.5547    -999.2500     185.3530      72.1202       0.0497       0.1123       0.1017       0.3878       0.1212
   3874.1348   2593.6133  -2571.6133    -999.2500     188.5525      69.1342       0.1063       0.1150       0.1161       0.3399       0.0913
   3874.2598   2593.6719  -2571.6719    -999.2500     190.2672      75.6708       0.0527       0.1191       0.0945       0.4289       0.1567
   3874.3848   2593.7327  -2571.7327    -999.2500     190.8639      80.0095       0.0188       0.1240       0.0823       0.4773       0.2001
   3874.5098   2593.7935  -2571.7935    -999.2500     190.7298      80.5280       0.0214       0.1286       0.0847       0.4675       0.2053
   3874.6348   2593.8545  -2571.8545    -999.2500     190.1539      80.1842       0.0266       0.1316       0.0890       0.4522       0.2018
   3874.7598   2593.9153  -2571.9153    -999.2500     188.8588      79.0180       0.0352       0.1328       0.0947       0.4303       0.1902
   3874.8848   2593.9761  -2571.9761    -999.2500     186.6816      75.7447       0.0758       0.1341       0.1089       0.3745       0.1574
   3875.0098   2594.0371  -2572.0371    -999.2500     184.3904      71.3049       0.2258       0.1361       0.1283       0.3165       0.1130
   3875.1348   2594.0979  -2572.0979    -999.2500     182.2005      69.7056       0.2815       0.1375       0.1360       0.2949       0.0971
   3875.2598   2594.1587  -2572.1587    -999.2500     180.2076      71.3772       0.2017       0.1370       0.1297       0.3114       0.1138
   3875.3848   2594.2197  -2572.2197    -999.2500     178.4190      72.1743       0.1707       0.1341       0.1264       0.3244       0.1217
   3875.5098   2594.2805  -2572.2805    -999.2500     176.7050      71.3969       0.1370       0.1295       0.1219       0.3256       0.1140
   3875.6348   2594.3413  -2572.3413    -999.2500     174.9189      69.5820       0.1610       0.1259       0.1251       0.3062       0.0958
   3875.7598   2594.4023  -2572.4023    -999.2500     173.0692      69.2197       0.1590       0.1243       0.1249       0.3037       0.0922
   3875.8848   2594.4631  -2572.4631    -999.2500     171.2396      71.8751       0.1098       0.1245       0.1147       0.3332       0.1188
   3876.0098   2594.5239  -2572.5239    -999.2500     169.5504      77.3182       0.0364       0.1261       0.0948       0.3913       0.1732
   3876.1348   2594.5850  -2572.5850    -999.2500     168.1513      81.2991       0.0181       0.1280       0.0811       0.4480       0.2130
   3876.2598   2594.6458  -2572.6458    -999.2500     167.1153      76.9158       0.0481       0.1288       0.0991       0.3688       0.1692
   3876.3848   2594.7065  -2572.7065    -999.2500     166.4008      72.8766       0.1037       0.1286       0.1148       0.3155       0.1288
   3876.5098   2594.7676  -2572.7676    -999.2500     166.0110      70.4549       0.1575       0.1289       0.1245       0.2865       0.1045
   3876.6348   2594.8284  -2572.8284    -999.2500     165.9364      69.0110       0.2354       0.1305       0.1318       0.2666       0.0901
   3876.7598   2594.8892  -2572.8892    -999.2500     166.1439      67.0112       0.3883       0.1338       0.1429       0.2434       0.0701
   3876.8848   2594.9502  -2572.9502    -999.2500     166.5041      67.5072       0.4071       0.1367       0.1438       0.2429       0.0751
