#------------------------------------------------------------------------------
#
#   Created by  : [OpenWorks] Log Export Utility (LEXP)
#   Created on  : 2007-05-07 11:57:11
#   Project     : NORNE
#   User        : JSE
#   Interpreter : JSE
#
#------------------------------------------------------------------------------
~VERSION INFORMATION
VERS. 2.0 : CWLS Log ASCII Standard - version 2.0
WRAP.  NO : One line per depth step
~WELL INFORMATION
#MNEMONIC   .UNIT                                           VALUE :DESCRIPTION
#------------------------------------------------------------------------------
STRT        .M                                          1205.1348 :START DEPTH
STOP        .M                                          4417.7598 :STOP DEPTH
STEP        .M                                             0.1250 :STEP
NULL        .                                           -999.2500 :NULL VALUE
COMP        .                                             STATOIL :COMPANY
WELL        .                                       6608/10-C-2 H :WELL
FLD         .                                               NORNE :FIELD
LOC         .                                             UNKNOWN :LOCATION
CNTY        .                                             UNKNOWN :COUNTY
STAT        .                                             UNKNOWN :STATE
CTRY        .                                              Norway :COUNTRY
SRVC        .                                             UNKNOWN :SERVICE COMPANY
DATE        .                                             UNKNOWN :LOG DATE
UWI         .                                    NO 6608/10-C-2 H :UNIQUE WELL ID
XCOORD      .                                       457185.617758 :SURFACE X
YCOORD      .                                      7322019.729827 :SURFACE Y
LAT         .                                           66.014372 :LATITUDE
LON         .                                            8.056161 :LONGITUDE
ELEV        .M                                            22.0000 :SURFACE ELEV
ELEV_TYPE   .                                                  KB :ELEV TYPE
~CURVE INFORMATION
#MNEMONIC.UNIT        API CODE       : CURVE DESCRIPTION
#------------------------------------------------------------------------------
DEPTH    .M                          : Measured Depth
TVD      .M                          : True Vertical Depth (TVD)
TVDSS    .M                          : True Vertical Depth (TVDSS)
DT       .us/ft       UNKNOWN        : DT:DT:rC::v0 (auto-composite)
DTS      .us/ft       UNKNOWN        : DTS:DTS:rC::v0 (auto-composite)
GR       .API         UNKNOWN        : GR:GR:rC::v0 (auto-composite)
KLOGH    .mD          UNKNOWN        : KLOGH:UNKNOWN:rC:NONE:v1 
NPHI     .v/v_decimal UNKNOWN        : NPHI:NPHI:rC::v0 (auto-composite)
PHIF     .v/v_decimal UNKNOWN        : PHIF:PHIF:rC::v0 (auto-composite)
SW       .v/v_decimal UNKNOWN        : SW:SW:rC::v0 (auto-composite)
VSH      .v/v_decimal UNKNOWN        : VSH:VSH:rC::v0 (auto-composite)
~A     DEPTH         TVD       TVDSS           DT          DTS           GR        KLOGH         NPHI         PHIF           SW          VSH
# ...
   4404.2598   2907.9500  -2885.9500    -999.2500    -999.2500      85.2286       0.0030    -999.2500       0.0010       1.0000       0.3523
   4404.3848   2908.0359  -2886.0359    -999.2500    -999.2500      81.3955       0.0030    -999.2500       0.0010       1.0000       0.3139
   4404.5098   2908.1221  -2886.1221    -999.2500    -999.2500      79.4154       0.0030    -999.2500       0.0010       1.0000       0.2941
   4404.6348   2908.2080  -2886.2080    -999.2500    -999.2500      75.1951       0.0030    -999.2500       0.0010       1.0000       0.2519
   4404.7598   2908.2942  -2886.2942    -999.2500    -999.2500      75.0194       0.0030    -999.2500       0.0010       1.0000       0.2502
   4404.8848   2908.3804  -2886.3804    -999.2500    -999.2500      76.9721       0.0030    -999.2500       0.0010       1.0000       0.2697
   4405.0098   2908.4663  -2886.4663    -999.2500    -999.2500      78.8033       0.0030    -999.2500       0.0010       1.0000       0.2880
   4405.1348   2908.5525  -2886.5525    -999.2500    -999.2500      78.7624       0.0030    -999.2500       0.0010       1.0000       0.2876
   4405.2598   2908.6384  -2886.6384    -999.2500    -999.2500      77.5769       0.0030    -999.2500       0.0010       1.0000       0.2758
   4405.3848   2908.7246  -2886.7246    -999.2500    -999.2500      80.8533       0.0030    -999.2500       0.0010       1.0000       0.3085
   4405.5098   2908.8108  -2886.8108    -999.2500    -999.2500      88.8645       0.0030    -999.2500       0.0010       1.0000       0.3886
   4405.6348   2908.8967  -2886.8967    -999.2500    -999.2500      93.7878       0.0030    -999.2500       0.0010       1.0000       0.4379
   4405.7598   2908.9829  -2886.9829    -999.2500    -999.2500      92.4723       0.0030    -999.2500       0.0010       1.0000       0.4247
   4405.8848   2909.0688  -2887.0688    -999.2500    -999.2500      91.9035       0.0030    -999.2500       0.0010       1.0000       0.4190
   4406.0098   2909.1550  -2887.1550    -999.2500    -999.2500      94.6428       0.0030    -999.2500       0.0010       1.0000       0.4464
   4406.1348   2909.2412  -2887.2412    -999.2500    -999.2500      95.4907       0.0030    -999.2500       0.0010       1.0000       0.4549
   4406.2598   2909.3271  -2887.3271    -999.2500    -999.2500      95.2889       0.0030    -999.2500       0.0010       1.0000       0.4529
   4406.3848   2909.4133  -2887.4133    -999.2500    -999.2500      95.0674       0.0030    -999.2500       0.0010       1.0000       0.4507
   4406.5098   2909.4993  -2887.4993    -999.2500    -999.2500      95.4087       0.0030    -999.2500       0.0010       1.0000       0.4541
   4406.6348   2909.5854  -2887.5854    -999.2500    -999.2500      94.6081       0.0030    -999.2500       0.0010       1.0000       0.4461
   4406.7598   2909.6716  -2887.6716    -999.2500    -999.2500      91.5279       0.0030    -999.2500       0.0010       1.0000       0.4153
   4406.8848   2909.7576  -2887.7576    -999.2500    -999.2500      90.6353       0.0030    -999.2500       0.0010       1.0000       0.4064
   4407.0098   2909.8438  -2887.8438    -999.2500    -999.2500      88.1459       0.0030    -999.2500       0.0010       1.0000       0.3815
   4407.1348   2909.9297  -2887.9297    -999.2500    -999.2500      83.1260       0.0030    -999.2500       0.0010       1.0000       0.3313
   4407.2598   2910.0159  -2888.0159    -999.2500    -999.2500      79.5679       0.0030    -999.2500       0.0010       1.0000       0.2957
   4407.3848   2910.1021  -2888.1021    -999.2500    -999.2500      80.1415       0.0030    -999.2500       0.0010       1.0000       0.3014
   4407.5098   2910.1880  -2888.1880    -999.2500    -999.2500      82.4039       0.0030    -999.2500       0.0010       1.0000       0.3240
   4407.6348   2910.2742  -2888.2742    -999.2500    -999.2500      85.8159       0.0030    -999.2500       0.0010       1.0000       0.3582
   4407.7598   2910.3601  -2888.3601    -999.2500    -999.2500      88.9349       0.0030    -999.2500       0.0010       1.0000       0.3893
   4407.8848   2910.4463  -2888.4463    -999.2500    -999.2500      90.4940       0.0030    -999.2500       0.0010       1.0000       0.4049
   4408.0098   2910.5337  -2888.5337    -999.2500    -999.2500      90.9469       0.0030    -999.2500       0.0010       1.0000       0.4095
   4408.1348   2910.6221  -2888.6221    -999.2500    -999.2500      88.6072       0.0030    -999.2500       0.0010       1.0000       0.3861
   4408.2598   2910.7104  -2888.7104    -999.2500    -999.2500      82.8022       0.0030    -999.2500       0.0010       1.0000       0.3280
   4408.3848   2910.7988  -2888.7988    -999.2500    -999.2500      82.3958       0.0030    -999.2500       0.0010       1.0000       0.3241
   4408.5098   2910.8872  -2888.8872    -999.2500    -999.2500      88.5755       0.0030    -999.2500       0.0010       1.0000       0.3859
   4408.6348   2910.9756  -2888.9756    -999.2500    -999.2500      94.1369       0.0030    -999.2500       0.0010       1.0000       0.4414
   4408.7598   2911.0640  -2889.0640    -999.2500    -999.2500      93.7722       0.0030    -999.2500       0.0010       1.0000       0.4377
   4408.8848   2911.1523  -2889.1523    -999.2500    -999.2500      94.3292       0.0030    -999.2500       0.0010       1.0000       0.4433
   4409.0098   2911.2407  -2889.2407    -999.2500    -999.2500      92.7616       0.0030    -999.2500       0.0010       1.0000       0.4276
   4409.1348   2911.3291  -2889.3291    -999.2500    -999.2500      90.3104       0.0030    -999.2500       0.0010       1.0000       0.4031
   4409.2598   2911.4175  -2889.4175    -999.2500    -999.2500      88.6102       0.0030    -999.2500       0.0010       1.0000       0.3861
   4409.3848   2911.5059  -2889.5059    -999.2500    -999.2500      86.8178       0.0030    -999.2500       0.0010       1.0000       0.3682
   4409.5098   2911.5942  -2889.5942    -999.2500    -999.2500      86.8072       0.0030    -999.2500       0.0010       1.0000       0.3681
   4409.6348   2911.6826  -2889.6826    -999.2500    -999.2500      90.8420       0.0030    -999.2500       0.0010       1.0000       0.4084
   4409.7598   2911.7710  -2889.7710    -999.2500    -999.2500      96.1632       0.0030    -999.2500       0.0010       1.0000       0.4616
   4409.8848   2911.8594  -2889.8594    -999.2500    -999.2500     100.1679       0.0030    -999.2500       0.0010       1.0000       0.5017
   4410.0098   2911.9478  -2889.9478    -999.2500    -999.2500     101.2832    -999.2500    -999.2500    -999.2500    -999.2500    -999.2500
   4410.1348   2912.0361  -2890.0361    -999.2500    -999.2500     102.1396    -999.2500    -999.2500    -999.2500    -999.2500    -999.2500
   4410.2598   2912.1245  -2890.1245    -999.2500    -999.2500      99.4630    -999.2500    -999.2500    -999.2500    -999.2500    -999.2500
   4410.3848   2912.2129  -2890.2129    -999.2500    -999.2500      94.2603    -999.2500    -999.2500    -999.2500    -999.2500    -999.2500
   4410.5098   2912.3013  -2890.3013    -999.2500    -999.2500      94.0841    -999.2500    -999.2500    -999.2500    -999.2500    -999.2500
   4410.6348   2912.3896  -2890.3896    -999.2500    -999.2500      99.8260    -999.2500    -999.2500    -999.2500    -999.2500    -999.2500
   4410.7598   2912.4780  -2890.4780    -999.2500    -999.2500      97.3880    -999.2500    -999.2500    -999.2500    -999.2500    -999.2500
   4410.8848   2912.5664  -2890.5664    -999.2500    -999.2500      87.5733    -999.2500    -999.2500    -999.2500    -999.2500    -999.2500
   4411.0098   2912.6548  -2890.6548    -999.2500    -999.2500      77.6523    -999.2500    -999.2500    -999.2500    -999.2500    -999.2500
   4411.1348   2912.7432  -2890.7432    -999.2500    -999.2500      74.0887    -999.2500    -999.2500    -999.2500    -999.2500    -999.2500
   4411.2598   2912.8315  -2890.8315    -999.2500    -999.2500      75.3036    -999.2500    -999.2500    -999.2500    -999.2500    -999.2500
