#------------------------------------------------------------------------------
#
#   Created by  : [OpenWorks] Log Export Utility (LEXP)
#   Created on  : 2007-05-07 11:57:11
#   Project     : NORNE
#   User        : JSE
#   Interpreter : JSE
#
#------------------------------------------------------------------------------
~VERSION INFORMATION
VERS. 2.0 : CWLS Log ASCII Standard - version 2.0
WRAP.  NO : One line per depth step
~WELL INFORMATION
#MNEMONIC   .UNIT                                           VALUE :DESCRIPTION
#------------------------------------------------------------------------------
STRT        .M                                          1205.1348 :START DEPTH
STOP        .M                                          4417.7598 :STOP DEPTH
STEP        .M                                             0.1250 :STEP
NULL        .                                           -999.2500 :NULL VALUE
COMP        .                                             STATOIL :COMPANY
WELL        .                                       6608/10-C-2 H :WELL
FLD         .                                               NORNE :FIELD
LOC         .                                             UNKNOWN :LOCATION
CNTY        .                                             UNKNOWN :COUNTY
STAT        .                                             UNKNOWN :STATE
CTRY        .                                              Norway :COUNTRY
SRVC        .                                             UNKNOWN :SERVICE COMPANY
DATE        .                                             UNKNOWN :LOG DATE
UWI         .                                    NO 6608/10-C-2 H :UNIQUE WELL ID
XCOORD      .                                       457185.617758 :SURFACE X
YCOORD      .                                      7322019.729827 :SURFACE Y
LAT         .                                           66.014372 :LATITUDE
LON         .                                            8.056161 :LONGITUDE
ELEV        .M                                            22.0000 :SURFACE ELEV
ELEV_TYPE   .                                                  KB :ELEV TYPE
~CURVE INFORMATION
#MNEMONIC.UNIT        API CODE       : CURVE DESCRIPTION
#------------------------------------------------------------------------------
DEPTH    .M                          : Measured Depth
TVD      .M                          : True Vertical Depth (TVD)
TVDSS    .M                          : True Vertical Depth (TVDSS)
DT       .us/ft       UNKNOWN        : DT:DT:rC::v0 (auto-composite)
DTS      .us/ft       UNKNOWN        : DTS:DTS:rC::v0 (auto-composite)
GR       .API         UNKNOWN        : GR:GR:rC::v0 (auto-composite)
KLOGH    .mD          UNKNOWN        : KLOGH:UNKNOWN:rC:NONE:v1 
NPHI     .v/v_decimal UNKNOWN        : NPHI:NPHI:rC::v0 (auto-composite)
PHIF     .v/v_decimal UNKNOWN        : PHIF:PHIF:rC::v0 (auto-composite)
SW       .v/v_decimal UNKNOWN        : SW:SW:rC::v0 (auto-composite)
VSH      .v/v_decimal UNKNOWN        : VSH:VSH:rC::v0 (auto-composite)
~A     DEPTH         TVD       TVDSS           DT          DTS           GR        KLOGH         NPHI         PHIF           SW          VSH
# ...
   3727.3848   2527.8130  -2505.8130      93.1984     197.3092     118.9708    -999.2500       0.7788    -999.2500    -999.2500    -999.2500
   3727.5098   2527.8672  -2505.8672      92.8138     195.3131     117.8861    -999.2500       0.7719    -999.2500    -999.2500    -999.2500
   3727.6348   2527.9214  -2505.9214      92.3022     192.9777     116.7314    -999.2500       0.7155    -999.2500    -999.2500    -999.2500
   3727.7598   2527.9756  -2505.9756      91.6529     190.4544     115.1796    -999.2500       0.6408    -999.2500    -999.2500    -999.2500
   3727.8848   2528.0295  -2506.0295      90.8993     187.9376     112.9513    -999.2500       0.5756    -999.2500    -999.2500    -999.2500
   3728.0098   2528.0837  -2506.0837      90.1240     185.6630     112.2054    -999.2500       0.5375    -999.2500    -999.2500    -999.2500
   3728.1348   2528.1379  -2506.1379      89.4811     183.9917     113.9897    -999.2500       0.5440    -999.2500    -999.2500    -999.2500
   3728.2598   2528.1919  -2506.1919      89.0731     182.9624     119.5578    -999.2500       0.5675    -999.2500    -999.2500    -999.2500
   3728.3848   2528.2461  -2506.2461      88.9524     182.5859     120.5929    -999.2500       0.5865    -999.2500    -999.2500    -999.2500
   3728.5098   2528.3003  -2506.3003      89.1594     182.8428     117.9518    -999.2500       0.5874    -999.2500    -999.2500    -999.2500
   3728.6348   2528.3545  -2506.3545      89.7264     183.6847     116.9594    -999.2500       0.5649    -999.2500    -999.2500    -999.2500
   3728.7598   2528.4084  -2506.4084      90.7537     185.1173     120.1634    -999.2500       0.5273    -999.2500    -999.2500    -999.2500
   3728.8848   2528.4626  -2506.4626      92.1895     187.0226     117.1075    -999.2500       0.5104    -999.2500    -999.2500    -999.2500
   3729.0098   2528.5168  -2506.5168      93.8137     189.1857     121.2557    -999.2500       0.5074    -999.2500    -999.2500    -999.2500
   3729.1348   2528.5708  -2506.5708      95.4678     191.4586     124.6680    -999.2500       0.5129    -999.2500    -999.2500    -999.2500
   3729.2598   2528.6250  -2506.6250      96.9952     193.6638     119.5351    -999.2500       0.5260    -999.2500    -999.2500    -999.2500
   3729.3848   2528.6792  -2506.6792      98.2475     195.5959     103.9695    -999.2500       0.5517    -999.2500    -999.2500    -999.2500
   3729.5098   2528.7334  -2506.7334      98.9548     196.9498     111.4808    -999.2500       0.5988    -999.2500    -999.2500    -999.2500
   3729.6348   2528.7874  -2506.7874      99.1221     197.8232     116.2905    -999.2500       0.6454    -999.2500    -999.2500    -999.2500
   3729.7598   2528.8416  -2506.8416      98.8365     198.2904     118.2184    -999.2500       0.6625    -999.2500    -999.2500    -999.2500
   3729.8848   2528.8958  -2506.8958      98.2056     198.3507     118.5856    -999.2500       0.6379    -999.2500    -999.2500    -999.2500
   3730.0098   2528.9497  -2506.9497      97.3619     197.9758     119.6068    -999.2500       0.5753    -999.2500    -999.2500    -999.2500
   3730.1348   2529.0039  -2507.0039      96.4528     197.0847     124.3070    -999.2500       0.4998    -999.2500    -999.2500    -999.2500
   3730.2598   2529.0581  -2507.0581      95.6360     195.6690     120.1317    -999.2500       0.4637    -999.2500    -999.2500    -999.2500
   3730.3848   2529.1123  -2507.1123      94.9504     194.0420     116.0685    -999.2500       0.4672    -999.2500    -999.2500    -999.2500
   3730.5098   2529.1663  -2507.1663      94.4317     192.4133     117.0643    -999.2500       0.4867    -999.2500    -999.2500    -999.2500
   3730.6348   2529.2205  -2507.2205      94.1121     190.9392     120.9783    -999.2500       0.5130    -999.2500    -999.2500    -999.2500
   3730.7598   2529.2747  -2507.2747      94.0139     189.7133     120.1827    -999.2500       0.5554    -999.2500    -999.2500    -999.2500
   3730.8848   2529.3286  -2507.3286      94.1107     188.8427     120.5475    -999.2500       0.6382    -999.2500    -999.2500    -999.2500
   3731.0098   2529.3828  -2507.3828      94.1826     188.3348     119.7815    -999.2500       0.7242    -999.2500    -999.2500    -999.2500
   3731.1348   2529.4370  -2507.4370      94.0896     188.1675     114.7348    -999.2500       0.7744    -999.2500    -999.2500    -999.2500
   3731.2598   2529.4912  -2507.4912      93.7584     188.2746     108.5059    -999.2500       0.7716    -999.2500    -999.2500    -999.2500
   3731.3848   2529.5452  -2507.5452      93.1667     188.5644     106.1874    -999.2500       0.7197    -999.2500    -999.2500    -999.2500
   3731.5098   2529.5994  -2507.5994      92.3478     188.9427     112.7615    -999.2500       0.6521    -999.2500    -999.2500    -999.2500
   3731.6348   2529.6536  -2507.6536      91.4624     189.2719     118.4732    -999.2500       0.6068    -999.2500    -999.2500    -999.2500
   3731.7598   2529.7075  -2507.7075      90.7234     189.5203     116.6301    -999.2500       0.5960    -999.2500    -999.2500    -999.2500
   3731.8848   2529.7617  -2507.7617      90.2576     189.7222     118.5727    -999.2500       0.6053    -999.2500    -999.2500    -999.2500
   3732.0098   2529.8159  -2507.8159      90.1417     189.9189     123.7449    -999.2500       0.6172    -999.2500    -999.2500    -999.2500
   3732.1348   2529.8701  -2507.8701      90.3993     190.1587     123.3607    -999.2500       0.6185    -999.2500    -999.2500    -999.2500
   3732.2598   2529.9241  -2507.9241      91.0057     190.5533     122.4876    -999.2500       0.6236    -999.2500    -999.2500    -999.2500
   3732.3848   2529.9783  -2507.9783      91.7760     191.1185     125.4932    -999.2500       0.6305    -999.2500    -999.2500    -999.2500
   3732.5098   2530.0325  -2508.0325      92.5985     191.7491     119.6520    -999.2500       0.6432    -999.2500    -999.2500    -999.2500
   3732.6348   2530.0864  -2508.0864      93.4032     192.3230     115.0196    -999.2500       0.6638    -999.2500    -999.2500    -999.2500
   3732.7598   2530.1406  -2508.1406      94.1189     192.7165     119.0175    -999.2500       0.6881    -999.2500    -999.2500    -999.2500
   3732.8848   2530.1948  -2508.1948      94.6680     192.8240     124.4003    -999.2500       0.7017    -999.2500    -999.2500    -999.2500
   3733.0098   2530.2490  -2508.2490      94.8854     192.6213     117.7926    -999.2500       0.6471    -999.2500    -999.2500    -999.2500
   3733.1348   2530.3030  -2508.3030      94.8729     192.3437     116.7843    -999.2500       0.5775    -999.2500    -999.2500    -999.2500
   3733.2598   2530.3572  -2508.3572      94.7195     192.1120     116.1421    -999.2500       0.5501    -999.2500    -999.2500    -999.2500
   3733.3848   2530.4114  -2508.4114      94.5183     192.0442     113.3285    -999.2500       0.6250    -999.2500    -999.2500    -999.2500
   3733.5098   2530.4653  -2508.4653      94.3515     192.2444     108.7740    -999.2500       0.8484    -999.2500    -999.2500    -999.2500
   3733.6348   2530.5195  -2508.5195      94.2776     192.8294     108.0998    -999.2500       1.2231    -999.2500    -999.2500    -999.2500
   3733.7598   2530.5737  -2508.5737      94.2913     193.7389     122.2867    -999.2500       1.5067    -999.2500    -999.2500    -999.2500
   3733.8848   2530.6279  -2508.6279      94.3673     194.7569     124.9852    -999.2500       1.5747    -999.2500    -999.2500    -999.2500
   3734.0098   2530.6819  -2508.6819      94.4887     195.6655     119.5757    -999.2500       1.4214    -999.2500    -999.2500    -999.2500
   3734.1348   2530.7361  -2508.7361      94.6379     196.2190     113.9258    -999.2500       1.1235    -999.2500    -999.2500    -999.2500
   3734.2598   2530.7903  -2508.7903      94.7973     196.1624     114.2234    -999.2500       0.8345    -999.2500    -999.2500    -999.2500
   3734.3848   2530.8442  -2508.8442      94.9655     195.1572     108.9121    -999.2500       0.7432    -999.2500    -999.2500    -999.2500
