#------------------------------------------------------------------------------
#
#   Created by  : [OpenWorks] Log Export Utility (LEXP)
#   Created on  : 2007-05-07 11:57:46
#   Project     : NORNE
#   User        : JSE
#   Interpreter : JSE
#
#------------------------------------------------------------------------------
~VERSION INFORMATION
VERS. 2.0 : CWLS Log ASCII Standard - version 2.0
WRAP.  NO : One line per depth step
~WELL INFORMATION
#MNEMONIC   .UNIT                                           VALUE :DESCRIPTION
#------------------------------------------------------------------------------
STRT        .M                                          1250.1914 :START DEPTH
STOP        .M                                          3136.8164 :STOP DEPTH
STEP        .M                                             0.1250 :STEP
NULL        .                                           -999.2500 :NULL VALUE
COMP        .                                             STATOIL :COMPANY
WELL        .                                       6608/10-D-4 H :WELL
FLD         .                                               NORNE :FIELD
LOC         .                                             UNKNOWN :LOCATION
CNTY        .                                             UNKNOWN :COUNTY
STAT        .                                             UNKNOWN :STATE
CTRY        .                                              Norway :COUNTRY
SRVC        .                                             UNKNOWN :SERVICE COMPANY
DATE        .                                             UNKNOWN :LOG DATE
UWI         .                                    NO 6608/10-D-4 H :UNIQUE WELL ID
XCOORD      .                                       457259.082734 :SURFACE X
YCOORD      .                                      7321952.911776 :SURFACE Y
LAT         .                                           66.013783 :LATITUDE
LON         .                                            8.057803 :LONGITUDE
ELEV        .M                                            22.0000 :SURFACE ELEV
ELEV_TYPE   .                                                  KB :ELEV TYPE
~CURVE INFORMATION
#MNEMONIC.UNIT        API CODE       : CURVE DESCRIPTION
#------------------------------------------------------------------------------
DEPTH    .M                          : Measured Depth
TVD      .M                          : True Vertical Depth (TVD)
TVDSS    .M                          : True Vertical Depth (TVDSS)
DT       .us/ft                      : DT:UNKNOWN:rC:NONE:v1 
DTS      .us/ft                      : DTS:UNKNOWN:rC:NONE:v1 
GR       .API                        : GR:UNKNOWN:rC:NONE:v1 
KLOGH    .mD          UNKNOWN        : KLOGH:UNKNOWN:rC::v0 (auto-composite)
NPHI     .v/v_decimal                : NPHI:UNKNOWN:rC:NONE:v1 
PHIF     .v/v_decimal UNKNOWN        : PHIF:UNKNOWN:rC::v0 (auto-composite)
RHOB     .g/cm3                      : RHOB:UNKNOWN:rC:NONE:v1 
SW       .v/v_decimal UNKNOWN        : SW:UNKNOWN:rC::v0 (auto-composite)
VSH      .v/v_decimal UNKNOWN        : VSH:UNKNOWN:rC::v0 (auto-composite)
~A     DEPTH         TVD       TVDSS           DT          DTS           GR        KLOGH         NPHI         PHIF         RHOB           SW          VSH
# ...
   2790.6914   2640.2202  -2618.2202      98.4591     169.5663      67.4050     154.8539       0.2061       0.2627       2.2092       0.2419       0.1001
   2790.8164   2640.3169  -2618.3169      98.5866     168.4627      67.2818     187.9825       0.2116       0.2670       2.1971       0.2381       0.0985
   2790.9414   2640.4133  -2618.4133      98.7352     168.2842      67.0374     183.3616       0.2200       0.2663       2.1915       0.2357       0.0955
   2791.0664   2640.5100  -2618.5100      98.9798     169.0667      67.1404     141.1822       0.2292       0.2612       2.1941       0.2310       0.0968
   2791.1914   2640.6067  -2618.6067      99.3219     170.4517      67.4301     112.9168       0.2361       0.2567       2.2048       0.2265       0.1004
   2791.3164   2640.7034  -2618.7034      99.6575     171.8874      67.6241     112.6965       0.2429       0.2568       2.2132       0.2173       0.1028
   2791.4414   2640.7998  -2618.7998      99.9449     173.1768      67.9144     169.2812       0.2497       0.2640       2.2155       0.2072       0.1064
   2791.5664   2640.8965  -2618.8965     100.1776     174.2440      68.3570     273.0710       0.2547       0.2738       2.2113       0.1993       0.1119
   2791.6914   2640.9932  -2618.9932     100.3583     175.0311      69.0361     391.8348       0.2563       0.2817       2.2035       0.1942       0.1203
   2791.8164   2641.0898  -2619.0898     100.4910     175.4750      70.1030     474.6867       0.2536       0.2856       2.1970       0.1880       0.1335
   2791.9414   2641.1863  -2619.1863     100.5050     175.4032      71.6142     474.6747       0.2474       0.2856       2.1970       0.1830       0.1522
   2792.0664   2641.2830  -2619.2830     100.2774     174.9217      72.5682     394.8594       0.2425       0.2817       2.2035       0.1815       0.1641
   2792.1914   2641.3796  -2619.3796      99.6716     174.0024      72.6283     285.4197       0.2382       0.2747       2.2149       0.1833       0.1648
   2792.3164   2641.4763  -2619.4763      98.5565     172.5195      72.1160     185.0034       0.2345       0.2662       2.2292       0.1883       0.1584
   2792.4414   2641.5728  -2619.5728      96.8383     170.2984      71.7311     117.1765       0.2317       0.2574       2.2437       0.1957       0.1537
   2792.5664   2641.6694  -2619.6694      94.4588     167.0508      72.2825      78.8633       0.2295       0.2495       2.2568       0.2058       0.1605
   2792.6914   2641.7661  -2619.7661      91.7126     162.9571      73.7285      54.9267       0.2278       0.2420       2.2692       0.2204       0.1784
   2792.8164   2641.8628  -2619.8628      89.0352     158.5654      75.6969      28.4302       0.2264       0.2253       2.2968       0.2502       0.2029
   2792.9414   2641.9592  -2619.9592      86.7226     154.1600      78.0114       8.7471       0.2237       0.1956       2.3460       0.3092       0.2316
   2793.0664   2642.0559  -2620.0559      85.0157     149.9893      81.0141       0.9821       0.2189       0.1560       2.4117       0.4082       0.2689
   2793.1914   2642.1526  -2620.1526      84.0925     146.2987      85.6745       0.1076       0.2128       0.1175       2.4754       0.5471       0.3266
   2793.3164   2642.2493  -2620.2493      84.2895     144.2113      93.8205       0.0788       0.2094       0.1111       2.4860       0.5777       0.4276
   2793.4414   2642.3457  -2620.3457      85.2776     144.4843     102.2860       0.2130       0.2142       0.1279       2.4432       0.4859       0.5325
   2793.5664   2642.4424  -2620.4424      86.7310     146.6943     107.2087       0.7910       0.2251       0.1520       2.3746       0.3869       0.5935
   2793.6914   2642.5391  -2620.5391      88.4966     150.3160     106.1775       2.3502       0.2385       0.1756       2.3065       0.3136       0.5807
   2793.8164   2642.6357  -2620.6357      90.4601     154.6850      98.3632       5.2495       0.2506       0.1948       2.2605       0.2608       0.4838
   2793.9414   2642.7322  -2620.7322      92.4318     158.9664      85.1611       9.0910       0.2585       0.2062       2.2450       0.2144       0.3202
   2794.0664   2642.8289  -2620.8289      94.1481     162.4409      72.1645     103.8566       0.2600       0.2207       2.2309       0.2061       0.1591
   2794.1914   2642.9255  -2620.9255      95.5625     165.2336      63.0514     181.8494       0.2590       0.2342       2.2075       0.1764       0.0473
   2794.3164   2643.0222  -2621.0222      96.6768     167.4790      58.1850     249.8011       0.2571       0.2450       2.1813       0.1464       0.0010
   2794.4414   2643.1187  -2621.1187      97.5232     169.2904      56.8707     291.7991       0.2543       0.2504       2.1625       0.1296       0.0010
   2794.5664   2643.2153  -2621.2153      98.1520     170.7268      57.7231     268.1690       0.2490       0.2476       2.1621       0.1239       0.0011
   2794.6914   2643.3120  -2621.3120      98.5820     171.6482      59.3764     211.5200       0.2402       0.2398       2.1810       0.1264       0.0034
   2794.8164   2643.4087  -2621.4087      98.8641     172.1746      60.6810     167.5003       0.2336       0.2322       2.2020       0.1318       0.0167
   2794.9414   2643.5051  -2621.5051      99.0381     172.4854      61.5017     153.9906       0.2318       0.2298       2.2115       0.1354       0.0269
   2795.0664   2643.6018  -2621.6018      99.1318     172.6596      62.1899     179.1314       0.2350       0.2341       2.2054       0.1351       0.0354
   2795.1914   2643.6985  -2621.6985      99.1697     172.7278      63.1084     244.7115       0.2420       0.2443       2.1851       0.1309       0.0468
   2795.3164   2643.7952  -2621.7952      99.1681     172.6613      64.2547     348.4145       0.2495       0.2561       2.1589       0.1254       0.0610
   2795.4414   2643.8916  -2621.8916      99.1427     172.3376      64.7455     404.6586       0.2515       0.2609       2.1501       0.1228       0.0671
   2795.5664   2643.9883  -2621.9883      99.1029     171.7902      64.3749     351.2199       0.2494       0.2560       2.1572       0.1245       0.0625
   2795.6914   2644.0850  -2622.0850      99.0418     171.1432      63.1695     266.8475       0.2466       0.2470       2.1747       0.1287       0.0476
   2795.8164   2644.1816  -2622.1816      98.9593     170.5459      61.5072     198.7131       0.2452       0.2378       2.1963       0.1336       0.0270
   2795.9414   2644.2781  -2622.2781      98.8632     170.1431      60.0469     158.8811       0.2462       0.2307       2.2159       0.1379       0.0089
   2796.0664   2644.3748  -2622.3748      98.7746     170.0298      59.8410     153.8073       0.2482       0.2297       2.2257       0.1389       0.0063
   2796.1914   2644.4714  -2622.4714      98.7181     170.0963      60.9172     182.1483       0.2483       0.2350       2.2241       0.1361       0.0196
   2796.3164   2644.5681  -2622.5681      98.6931     170.2531      62.6173     245.0095       0.2463       0.2441       2.2145       0.1319       0.0407
   2796.4414   2644.6646  -2622.6646      98.6909     170.4678      64.3480     342.9041       0.2442       0.2550       2.1999       0.1285       0.0622
   2796.5664   2644.7612  -2622.7612      98.7048     170.7167      65.5326     458.7644       0.2441       0.2649       2.1849       0.1283       0.0769
   2796.6914   2644.8579  -2622.8579      98.7370     170.9780      65.6740     548.0405       0.2480       0.2708       2.1750       0.1334       0.0786
   2796.8164   2644.9546  -2622.9546      98.8347     171.1889      64.5343     532.2306       0.2557       0.2698       2.1815       0.1461       0.0644
   2796.9414   2645.0510  -2623.0510      98.9831     171.3035      63.0239     463.6339       0.2647       0.2652       2.1976       0.1621       0.0457
   2797.0664   2645.1477  -2623.1477      99.1245     171.3211      62.0366     400.1082       0.2736       0.2606       2.2133       0.1762       0.0335
