#------------------------------------------------------------------------------
#
#   Created by  : [OpenWorks] Log Export Utility (LEXP)
#   Created on  : 2007-05-07 11:57:08
#   Project     : NORNE
#   User        : JSE
#   Interpreter : JSE
#
#------------------------------------------------------------------------------
~VERSION INFORMATION
VERS. 2.0 : CWLS Log ASCII Standard - version 2.0
WRAP.  NO : One line per depth step
~WELL INFORMATION
#MNEMONIC   .UNIT                                           VALUE :DESCRIPTION
#------------------------------------------------------------------------------
STRT        .M                                          1375.3750 :START DEPTH
STOP        .M                                          3298.0000 :STOP DEPTH
STEP        .M                                             0.1250 :STEP
NULL        .                                           -999.2500 :NULL VALUE
COMP        .                                             STATOIL :COMPANY
WELL        .                                       6608/10-C-1 H :WELL
FLD         .                                               NORNE :FIELD
LOC         .                                             UNKNOWN :LOCATION
CNTY        .                                             UNKNOWN :COUNTY
STAT        .                                             UNKNOWN :STATE
CTRY        .                                              Norway :COUNTRY
SRVC        .                                             UNKNOWN :SERVICE COMPANY
DATE        .                                             UNKNOWN :LOG DATE
UWI         .                                    NO 6608/10-C-1 H :UNIQUE WELL ID
XCOORD      .                                       457190.110178 :SURFACE X
YCOORD      .                                      7322024.307354 :SURFACE Y
LAT         .                                           66.014414 :LATITUDE
LON         .                                            8.056259 :LONGITUDE
ELEV        .M                                            22.0000 :SURFACE ELEV
ELEV_TYPE   .                                                  KB :ELEV TYPE
~CURVE INFORMATION
#MNEMONIC.UNIT        API CODE       : CURVE DESCRIPTION
#------------------------------------------------------------------------------
DEPTH    .M                          : Measured Depth
TVD      .M                          : True Vertical Depth (TVD)
TVDSS    .M                          : True Vertical Depth (TVDSS)
DT       .us/ft                      : DT:UNKNOWN:rC:NONE:v1 
DTS      .us/ft                      : DTS:UNKNOWN:rC:NONE:v1 
GR       .API         UNKNOWN        : GR:GR:rC:NONE:v1 
KLOGH    .mD          UNKNOWN        : KLOGH:UNKNOWN:rC::v0 (auto-composite)
NPHI     .v/v_decimal                : NPHI:UNKNOWN:rC:NONE:v1 
PHIF     .v/v_decimal UNKNOWN        : PHIF:UNKNOWN:rC::v0 (auto-composite)
RHOB     .g/cm3       UNKNOWN        : RHOB:UNKNOWN:rC:NONE:v1 
SW       .v/v_decimal UNKNOWN        : SW:UNKNOWN:rC::v0 (auto-composite)
VSH      .v/v_decimal UNKNOWN        : VSH:UNKNOWN:rC::v0 (auto-composite)
~A     DEPTH         TVD       TVDSS           DT          DTS           GR        KLOGH         NPHI         PHIF         RHOB           SW          VSH
# ...
   3227.8750   2898.2166  -2876.2166      85.7767     162.5634      98.3815       0.0226       0.2326       0.1551       2.4118       0.9444       0.3323
   3228.0000   2898.3384  -2876.3384      85.7358     161.7384      99.7692       0.0178       0.2336       0.1498       2.4206       0.9518       0.3546
   3228.1250   2898.4600  -2876.4600      85.5979     160.7497     101.1066       0.0125       0.2361       0.1419       2.4338       0.9716       0.3760
   3228.2500   2898.5818  -2876.5818      85.3682     159.9302     102.1481       0.0093       0.2336       0.1354       2.4447       0.9835       0.3927
   3228.3750   2898.7036  -2876.7036      85.0652     159.4057     102.7073       0.0086       0.2280       0.1337       2.4474       0.9674       0.4017
   3228.5000   2898.8254  -2876.8254      84.7237     159.1519     102.7516       0.0097       0.2227       0.1363       2.4432       0.9294       0.4024
   3228.6250   2898.9473  -2876.9473      84.3912     159.1135     102.3442       0.0122       0.2201       0.1415       2.4346       0.8835       0.3959
   3228.7500   2899.0688  -2877.0688      84.1226     159.2392     101.6303       0.0159       0.2213       0.1474       2.4247       0.8432       0.3844
   3228.8750   2899.1907  -2877.1907      84.0063     159.5874     100.6170       0.0208       0.2249       0.1533       2.4149       0.8172       0.3682
   3229.0000   2899.3125  -2877.3125      84.0424     160.2239      99.2696       0.0271       0.2285       0.1592       2.4050       0.8052       0.3466
   3229.1250   2899.4343  -2877.4343      84.2303     161.1915      97.7050       0.0367       0.2305       0.1660       2.3937       0.8020       0.3215
   3229.2500   2899.5562  -2877.5562      84.5817     162.5051      96.0647       0.0542       0.2312       0.1747       2.3793       0.8028       0.2952
   3229.3750   2899.6777  -2877.6777      85.1083     164.1198      94.5163       0.0909       0.2325       0.1862       2.3601       0.8037       0.2703
   3229.5000   2899.7996  -2877.7996      85.8254     165.8707      93.2773       0.1804       0.2376       0.2015       2.3347       0.8012       0.2504
   3229.6250   2899.9214  -2877.9214      86.6737     167.3529      92.6566       0.3732       0.2445       0.2176       2.3078       0.8053       0.2405
   3229.7500   2900.0432  -2878.0432      87.5090     168.4615      92.3430       0.6717       0.2494       0.2307       2.2860       0.8270       0.2354
   3229.8750   2900.1650  -2878.1650      88.2246     169.1722      92.1099       0.9908       0.2508       0.2394       2.2715       0.8669       0.2317
   3230.0000   2900.2866  -2878.2866      88.7288     169.4655      91.8083       1.1675       0.2480       0.2431       2.2655       0.9209       0.2269
   3230.1250   2900.4084  -2878.4084      88.9548     169.3076      91.3872       1.1059       0.2407       0.2419       2.2675       0.9780       0.2201
   3230.2500   2900.5303  -2878.5303      88.8450     168.4875      90.8251       0.8865       0.2312       0.2369       2.2757       1.0000       0.2111
   3230.3750   2900.6521  -2878.6521      88.5204     167.1280      90.2240       0.6478       0.2272       0.2299       2.2873       1.0000       0.2015
   3230.5000   2900.7739  -2878.7739      88.0640     165.4387      89.6613       0.4524       0.2291       0.2219       2.3006       1.0000       0.1924
   3230.6250   2900.8955  -2878.8955      87.5422     163.6443      89.0180       0.3304       0.2349       0.2149       2.3123       1.0000       0.1821
   3230.7500   2901.0173  -2879.0173      87.0180     161.9884      88.1210       0.2712       0.2416       0.2105       2.3196       1.0000       0.1677
   3230.8750   2901.1392  -2879.1392      86.5503     160.7330      86.8189       0.2482       0.2477       0.2086       2.3229       1.0000       0.1468
   3231.0000   2901.2610  -2879.2610      86.2116     160.1432      85.8399       0.2321       0.2490       0.2071       2.3254       1.0000       0.1311
   3231.1250   2901.3828  -2879.3828      85.9944     160.1494      85.7670       0.2136       0.2447       0.2052       2.3284       1.0000       0.1300
   3231.2500   2901.5046  -2879.5046      85.8899     160.6502      86.6342       0.2072       0.2367       0.2045       2.3296       1.0000       0.1439
   3231.3750   2901.6262  -2879.6262      85.8767     161.4826      88.1977       0.2234       0.2281       0.2062       2.3268       1.0000       0.1689
   3231.5000   2901.7480  -2879.7480      85.9243     162.4512      89.9751       0.2757       0.2225       0.2109       2.3190       1.0000       0.1975
   3231.6250   2901.8699  -2879.8699      85.9997     163.3703      91.0474       0.3841       0.2263       0.2183       2.3067       1.0000       0.2147
   3231.7500   2901.9917  -2879.9917      86.0723     164.2008      91.0800       0.4681       0.2381       0.2227       2.2993       1.0000       0.2152
   3231.8750   2902.1135  -2880.1135      86.1202     164.8421      90.6596       0.4448       0.2497       0.2216       2.3012       1.0000       0.2084
   3232.0000   2902.2351  -2880.2351      86.1438     165.1983      90.3406       0.3175       0.2552       0.2140       2.3137       1.0000       0.2033
   3232.1250   2902.3569  -2880.3569      86.1512     165.2164      90.6064       0.1761       0.2516       0.2009       2.3356       1.0000       0.2076
   3232.2500   2902.4788  -2880.4788      86.1520     164.9100      91.7810       0.0849       0.2412       0.1847       2.3630       1.0000       0.2262
   3232.3750   2902.6006  -2880.6006      86.1423     164.3775      93.6617       0.0477       0.2340       0.1718       2.3840       1.0000       0.2566
   3232.5000   2902.7224  -2880.7224      86.1129     163.8760      95.3246       0.0335       0.2312       0.1639       2.3972       1.0000       0.2833
   3232.6250   2902.8440  -2880.8440      86.0601     163.4186      96.4833       0.0290       0.2315       0.1607       2.4025       1.0000       0.3019
   3232.7500   2902.9658  -2880.9658      85.9860     162.9377      97.2468       0.0282       0.2339       0.1601       2.4035       1.0000       0.3141
   3232.8750   2903.0876  -2881.0876      85.8966     162.3194      97.9474       0.0265       0.2378       0.1587       2.4058       1.0000       0.3254
   3233.0000   2903.2095  -2881.2095      85.7942     161.4158      98.8043       0.0217       0.2428       0.1543       2.4132       1.0000       0.3391
   3233.1250   2903.3313  -2881.3313      85.6778     160.2910      99.3167       0.0168       0.2477       0.1485       2.4228       1.0000       0.3473
   3233.2500   2903.4529  -2881.4529      85.5491     159.0784      99.3387       0.0139       0.2499       0.1443       2.4299       1.0000       0.3477
   3233.3750   2903.5747  -2881.5747      85.4199     157.8792      99.1604       0.0124       0.2487       0.1417       2.4341       1.0000       0.3448
   3233.5000   2903.6965  -2881.6965      85.3079     156.8129      99.2547       0.0116       0.2442       0.1402       2.4366       0.9696       0.3463
   3233.6250   2903.8184  -2881.8184      85.2360     156.0210     100.1520       0.0108       0.2378       0.1388       2.4390       0.9359       0.3611
   3233.7500   2903.9402  -2881.9402      85.2385     155.7058     101.9366       0.0106       0.2358       0.1383       2.4398       0.9006       0.3894
   3233.8750   2904.0618  -2882.0618      85.3107     155.9414     103.4065       0.0133       0.2412       0.1433       2.4315       0.8502       0.4129
   3234.0000   2904.1836  -2882.1836      85.4436     156.7638     103.9975       0.0218       0.2502       0.1544       2.4119       0.7903       0.4224
   3234.1250   2904.3054  -2882.3054      85.6181     158.0945     103.4354       0.0460       0.2586       0.1710       2.3824       0.7365       0.4134
   3234.2500   2904.4272  -2882.4272      85.8098     159.7352     101.6992       0.1147       0.2623       0.1913       2.3480       0.7057       0.3856
