#------------------------------------------------------------------------------
#
#   Created by  : [OpenWorks] Log Export Utility (LEXP)
#   Created on  : 2007-05-07 11:57:46
#   Project     : NORNE
#   User        : JSE
#   Interpreter : JSE
#
#------------------------------------------------------------------------------
~VERSION INFORMATION
VERS. 2.0 : CWLS Log ASCII Standard - version 2.0
WRAP.  NO : One line per depth step
~WELL INFORMATION
#MNEMONIC   .UNIT                                           VALUE :DESCRIPTION
#------------------------------------------------------------------------------
STRT        .M                                          1250.1914 :START DEPTH
STOP        .M                                          3136.8164 :STOP DEPTH
STEP        .M                                             0.1250 :STEP
NULL        .                                           -999.2500 :NULL VALUE
COMP        .                                             STATOIL :COMPANY
WELL        .                                       6608/10-D-4 H :WELL
FLD         .                                               NORNE :FIELD
LOC         .                                             UNKNOWN :LOCATION
CNTY        .                                             UNKNOWN :COUNTY
STAT        .                                             UNKNOWN :STATE
CTRY        .                                              Norway :COUNTRY
SRVC        .                                             UNKNOWN :SERVICE COMPANY
DATE        .                                             UNKNOWN :LOG DATE
UWI         .                                    NO 6608/10-D-4 H :UNIQUE WELL ID
XCOORD      .                                       457259.082734 :SURFACE X
YCOORD      .                                      7321952.911776 :SURFACE Y
LAT         .                                           66.013783 :LATITUDE
LON         .                                            8.057803 :LONGITUDE
ELEV        .M                                            22.0000 :SURFACE ELEV
ELEV_TYPE   .                                                  KB :ELEV TYPE
~CURVE INFORMATION
#MNEMONIC.UNIT        API CODE       : CURVE DESCRIPTION
#------------------------------------------------------------------------------
DEPTH    .M                          : Measured Depth
TVD      .M                          : True Vertical Depth (TVD)
TVDSS    .M                          : True Vertical Depth (TVDSS)
DT       .us/ft                      : DT:UNKNOWN:rC:NONE:v1 
DTS      .us/ft                      : DTS:UNKNOWN:rC:NONE:v1 
GR       .API                        : GR:UNKNOWN:rC:NONE:v1 
KLOGH    .mD          UNKNOWN        : KLOGH:UNKNOWN:rC::v0 (auto-composite)
NPHI     .v/v_decimal                : NPHI:UNKNOWN:rC:NONE:v1 
PHIF     .v/v_decimal UNKNOWN        : PHIF:UNKNOWN:rC::v0 (auto-composite)
RHOB     .g/cm3                      : RHOB:UNKNOWN:rC:NONE:v1 
SW       .v/v_decimal UNKNOWN        : SW:UNKNOWN:rC::v0 (auto-composite)
VSH      .v/v_decimal UNKNOWN        : VSH:UNKNOWN:rC::v0 (auto-composite)
~A     DEPTH         TVD       TVDSS           DT          DTS           GR        KLOGH         NPHI         PHIF         RHOB           SW          VSH
# ...
   2914.1914   2733.3262  -2711.3262      88.7440     154.8130      91.1210       5.1296       0.2074       0.1666       2.3770       1.0000       0.3941
   2914.3164   2733.4177  -2711.4177      88.5972     153.0671      87.6609       5.0342       0.2068       0.1661       2.3762       1.0000       0.3512
   2914.4414   2733.5093  -2711.5093      88.4026     151.7173      84.0013       2.8453       0.2076       0.1498       2.4038       1.0000       0.3058
   2914.5664   2733.6006  -2711.6006      88.2249     151.0161      81.2613       0.9579       0.2099       0.1196       2.4539       1.0000       0.2719
   2914.6914   2733.6921  -2711.6921      88.1143     151.0895      80.0064       0.1620       0.2129       0.0865       2.5083       1.0000       0.2563
   2914.8164   2733.7837  -2711.7837      88.1013     151.9508      80.1750       0.0571       0.2158       0.0659       2.5420       1.0000       0.2584
   2914.9414   2733.8752  -2711.8752      88.1940     153.5213      80.5254       0.0929       0.2155       0.0769       2.5239       1.0000       0.2627
   2915.0664   2733.9666  -2711.9666      88.3461     155.4733      79.9288       0.4207       0.2124       0.1061       2.4671       1.0000       0.2553
   2915.1914   2734.0581  -2712.0581      88.5285     157.4796      79.1010       1.1445       0.2096       0.1300       2.4066       1.0000       0.2450
   2915.3164   2734.1497  -2712.1497      88.7108     159.3411      78.8431       2.1750       0.2096       0.1464       2.3643       1.0000       0.2419
   2915.4414   2734.2410  -2712.2410      88.8486     160.9044      79.6412       3.4252       0.2131       0.1572       2.3496       1.0000       0.2518
   2915.5664   2734.3325  -2712.3325      88.8850     162.0570      81.4100       4.8516       0.2185       0.1653       2.3563       1.0000       0.2737
   2915.6914   2734.4241  -2712.4241      88.7258     162.6203      83.0983       5.4484       0.2243       0.1679       2.3710       1.0000       0.2946
   2915.8164   2734.5156  -2712.5156      88.4652     162.6232      84.0637       3.8668       0.2284       0.1592       2.3890       1.0000       0.3066
   2915.9414   2734.6069  -2712.6069      88.1832     162.1035      84.6446       2.5182       0.2294       0.1503       2.4036       1.0000       0.3138
   2916.0664   2734.6985  -2712.6985      87.9414     161.1383      85.2603       1.9316       0.2279       0.1447       2.4128       1.0000       0.3214
   2916.1914   2734.7900  -2712.7900      87.7782     159.8503      86.2267       1.7102       0.2252       0.1420       2.4171       1.0000       0.3333
   2916.3164   2734.8816  -2712.8816      87.7002     158.4029      87.2991       1.6721       0.2224       0.1415       2.4179       1.0000       0.3466
   2916.4414   2734.9729  -2712.9729      87.6615     157.0235      87.1495       1.8940       0.2205       0.1443       2.4135       1.0000       0.3448
   2916.5664   2735.0645  -2713.0645      87.6343     155.8409      86.0495       2.3648       0.2192       0.1491       2.4057       1.0000       0.3312
   2916.6914   2735.1560  -2713.1560      87.6078     154.9568      84.8340       2.9159       0.2179       0.1538       2.3978       1.0000       0.3161
   2916.8164   2735.2473  -2713.2473      87.5763     154.4466      84.4019       3.3704       0.2153       0.1572       2.3924       1.0000       0.3108
   2916.9414   2735.3389  -2713.3389      87.5409     154.3535      85.5048       3.5995       0.2091       0.1586       2.3899       1.0000       0.3244
   2917.0664   2735.4304  -2713.4304      87.5393     154.6899      88.0369       3.7654       0.1984       0.1596       2.3883       1.0000       0.3558
   2917.1914   2735.5220  -2713.5220      87.6127     155.3286      90.0131       3.8657       0.1887       0.1602       2.3873       1.0000       0.3803
   2917.3164   2735.6133  -2713.6133      87.7601     156.2349      90.8631       3.8998       0.1834       0.1604       2.3870       1.0000       0.3908
   2917.4414   2735.7048  -2713.7048      87.9614     157.3491      90.8791       4.0427       0.1839       0.1612       2.3857       1.0000       0.3910
   2917.5664   2735.7964  -2713.7964      88.1859     158.5892      90.7109       4.5376       0.1899       0.1637       2.3816       1.0000       0.3890
   2917.6914   2735.8879  -2713.8879      88.3959     159.8552      91.0416       5.6618       0.1985       0.1687       2.3734       1.0000       0.3931
   2917.8164   2735.9792  -2713.9792      88.5430     161.0894      90.8872      10.3352       0.2056       0.1813       2.3528       1.0000       0.3912
   2917.9414   2736.0708  -2714.0708      88.6161     162.3105      89.1260      23.8780       0.2101       0.1983       2.3249       0.9861       0.3693
   2918.0664   2736.1624  -2714.1624      88.5876     163.4173      85.8422      46.0112       0.2131       0.2140       2.2991       0.9787       0.3286
   2918.1914   2736.2537  -2714.2537      88.4214     164.2092      81.6577      66.2832       0.2163       0.2236       2.2835       0.9858       0.2768
   2918.3164   2736.3452  -2714.3452      88.0764     164.4117      77.5487      67.5392       0.2219       0.2239       2.2830       1.0000       0.2259
   2918.4414   2736.4368  -2714.4368      87.4987     163.6257      74.5153      45.4819       0.2334       0.2148       2.2978       1.0000       0.1882
   2918.5664   2736.5283  -2714.5283      86.7883     162.0913      71.9458      24.6654       0.2436       0.1995       2.3231       1.0000       0.1563
   2918.6914   2736.6196  -2714.6196      86.0638     160.1534      69.4975      11.2744       0.2493       0.1810       2.3533       1.0000       0.1259
   2918.8164   2736.7112  -2714.7112      85.4053     158.0351      67.5435       4.3274       0.2502       0.1582       2.3907       1.0000       0.1018
   2918.9414   2736.8027  -2714.8027      84.8759     155.9255      66.7749       1.1343       0.2476       0.1299       2.4370       1.0000       0.0923
   2919.0664   2736.8943  -2714.8943      84.5239     153.9833      68.1501       0.2548       0.2441       0.0984       2.4887       1.0000       0.1093
   2919.1914   2736.9856  -2714.9856      84.4638     152.5266      71.6676       0.1240       0.2441       0.0820       2.5156       1.0000       0.1529
   2919.3164   2737.0771  -2715.0771      84.7049     151.7777      75.0800       0.1849       0.2445       0.0906       2.5015       1.0000       0.1953
   2919.4414   2737.1687  -2715.1687      85.2553     151.8914      77.2660       0.9155       0.2452       0.1179       2.4515       1.0000       0.2223
   2919.5664   2737.2603  -2715.2603      86.0653     152.8968      77.6494       3.5261       0.2474       0.1520       2.3803       1.0000       0.2271
   2919.6914   2737.3516  -2715.3516      87.0301     154.6934      76.2340      10.0132       0.2529       0.1799       2.3093       1.0000       0.2095
   2919.8164   2737.4431  -2715.4431      87.9630     157.0631      73.8176      25.3505       0.2644       0.2011       2.2716       1.0000       0.1795
   2919.9414   2737.5347  -2715.5347      88.7308     159.5351      71.5389      32.7662       0.2725       0.2077       2.2901       1.0000       0.1513
   2920.0664   2737.6260  -2715.6260      89.3609     161.8234      69.7678      19.7062       0.2718       0.1875       2.3391       1.0000       0.1294
   2920.1914   2737.7175  -2715.7175      89.8847     163.8008      68.6387       5.1894       0.2641       0.1589       2.3896       1.0000       0.1154
   2920.3164   2737.8091  -2715.8091      90.3242     165.3989      68.1104       2.5819       0.2532       0.1430       2.4156       1.0000       0.1088
   2920.4414   2737.9006  -2715.9006      90.6780     166.5970      67.9450       3.6408       0.2438       0.1525       2.4000       1.0000       0.1068
   2920.5664   2737.9919  -2715.9919      90.8885     167.1955      67.8118      12.8904       0.2432       0.1831       2.3499       1.0000       0.1051
