#------------------------------------------------------------------------------
#
#   Created by  : [OpenWorks] Log Export Utility (LEXP)
#   Created on  : 2007-05-07 11:57:08
#   Project     : NORNE
#   User        : JSE
#   Interpreter : JSE
#
#------------------------------------------------------------------------------
~VERSION INFORMATION
VERS. 2.0 : CWLS Log ASCII Standard - version 2.0
WRAP.  NO : One line per depth step
~WELL INFORMATION
#MNEMONIC   .UNIT                                           VALUE :DESCRIPTION
#------------------------------------------------------------------------------
STRT        .M                                          1375.3750 :START DEPTH
STOP        .M                                          3298.0000 :STOP DEPTH
STEP        .M                                             0.1250 :STEP
NULL        .                                           -999.2500 :NULL VALUE
COMP        .                                             STATOIL :COMPANY
WELL        .                                       6608/10-C-1 H :WELL
FLD         .                                               NORNE :FIELD
LOC         .                                             UNKNOWN :LOCATION
CNTY        .                                             UNKNOWN :COUNTY
STAT        .                                             UNKNOWN :STATE
CTRY        .                                              Norway :COUNTRY
SRVC        .                                             UNKNOWN :SERVICE COMPANY
DATE        .                                             UNKNOWN :LOG DATE
UWI         .                                    NO 6608/10-C-1 H :UNIQUE WELL ID
XCOORD      .                                       457190.110178 :SURFACE X
YCOORD      .                                      7322024.307354 :SURFACE Y
LAT         .                                           66.014414 :LATITUDE
LON         .                                            8.056259 :LONGITUDE
ELEV        .M                                            22.0000 :SURFACE ELEV
ELEV_TYPE   .                                                  KB :ELEV TYPE
~CURVE INFORMATION
#MNEMONIC.UNIT        API CODE       : CURVE DESCRIPTION
#------------------------------------------------------------------------------
DEPTH    .M                          : Measured Depth
TVD      .M                          : True Vertical Depth (TVD)
TVDSS    .M                          : True Vertical Depth (TVDSS)
DT       .us/ft                      : DT:UNKNOWN:rC:NONE:v1 
DTS      .us/ft                      : DTS:UNKNOWN:rC:NONE:v1 
GR       .API         UNKNOWN        : GR:GR:rC:NONE:v1 
KLOGH    .mD          UNKNOWN        : KLOGH:UNKNOWN:rC::v0 (auto-composite)
NPHI     .v/v_decimal                : NPHI:UNKNOWN:rC:NONE:v1 
PHIF     .v/v_decimal UNKNOWN        : PHIF:UNKNOWN:rC::v0 (auto-composite)
RHOB     .g/cm3       UNKNOWN        : RHOB:UNKNOWN:rC:NONE:v1 
SW       .v/v_decimal UNKNOWN        : SW:UNKNOWN:rC::v0 (auto-composite)
VSH      .v/v_decimal UNKNOWN        : VSH:UNKNOWN:rC::v0 (auto-composite)
~A     DEPTH         TVD       TVDSS           DT          DTS           GR        KLOGH         NPHI         PHIF         RHOB           SW          VSH
# ...
   2974.3750   2651.0144  -2629.0144      91.5269     159.3044      84.8610      24.7417       0.2188       0.2264       2.2949       0.2053       0.1154
   2974.5000   2651.1367  -2629.1367      91.9292     162.3523      82.7938      21.6660       0.2231       0.2238       2.2993       0.1788       0.0822
   2974.6250   2651.2588  -2629.2588      92.4874     165.1675      80.3971      18.6781       0.2256       0.2208       2.3042       0.1588       0.0438
   2974.7500   2651.3809  -2629.3809      93.1343     167.5908      78.2207      19.3337       0.2290       0.2215       2.3031       0.1437       0.0089
   2974.8750   2651.5029  -2629.5029      93.8075     169.5859      76.8137      29.6252       0.2351       0.2300       2.2889       0.1312       0.0010
   2975.0000   2651.6252  -2629.6252      94.4580     171.2570      76.6130     287.3153       0.2437       0.2499       2.2560       0.1697       0.0010
   2975.1250   2651.7473  -2629.7473      94.9868     172.5827      77.6559     630.9136       0.2491       0.2754       2.2110       0.1609       0.0010
   2975.2500   2651.8694  -2629.8694      95.3404     173.5863      78.8655    1152.9449       0.2478       0.2948       2.1723       0.1582       0.0192
   2975.3750   2651.9917  -2629.9917      95.4433     174.1365      79.5447    1672.4830       0.2422       0.3069       2.1455       0.1528       0.0301
   2975.5000   2652.1138  -2630.1138      95.2787     174.2262      79.2854    1980.9774       0.2355       0.3124       2.1313       0.1418       0.0260
   2975.6250   2652.2358  -2630.2358      94.8841     173.9526      78.0061    2025.2616       0.2310       0.3131       2.1275       0.1272       0.0055
   2975.7500   2652.3579  -2630.3579      94.3647     173.5210      76.1244    1865.4952       0.2316       0.3104       2.1316       0.1136       0.0010
   2975.8750   2652.4802  -2630.4802      93.8638     173.0887      74.3915    1618.5078       0.2342       0.3058       2.1401       0.1054       0.0010
   2976.0000   2652.6023  -2630.6023      93.4013     172.6188      73.1873    1406.3162       0.2342       0.3013       2.1492       0.1017       0.0010
   2976.1250   2652.7244  -2630.7244      92.9569     171.9753      72.5782    1253.3188       0.2305       0.2975       2.1574       0.1015       0.0010
   2976.2500   2652.8467  -2630.8467      92.5124     171.0672      72.4244    1158.4445       0.2238       0.2950       2.1646       0.1037       0.0010
   2976.3750   2652.9688  -2630.9688      92.0642     169.8975      72.3980    1113.6345       0.2153       0.2937       2.1711       0.1076       0.0010
   2976.5000   2653.0908  -2631.0908      91.6474     168.5970      72.2257    1117.1842       0.2108       0.2938       2.1752       0.1095       0.0010
   2976.6250   2653.2129  -2631.2129      91.3012     167.1968      72.1147    1194.2920       0.2123       0.2960       2.1760       0.1128       0.0010
   2976.7500   2653.3352  -2631.3352      91.0237     165.6580      72.1822    1238.3905       0.2168       0.2972       2.1770       0.1157       0.0010
   2976.8750   2653.4573  -2631.4573      90.8069     164.0317      72.3825    1101.2106       0.2217       0.2934       2.1840       0.1195       0.0010
   2977.0000   2653.5793  -2631.5793      90.6424     162.4511      72.5816     764.6265       0.2249       0.2816       2.2035       0.1263       0.0010
   2977.1250   2653.7017  -2631.7017      90.5357     161.2022      72.5997     378.0711       0.2262       0.2588       2.2413       0.1391       0.0010
   2977.2500   2653.8237  -2631.8237      90.4884     160.7025      72.6802     174.1199       0.2287       0.2337       2.2828       0.1576       0.0010
   2977.3750   2653.9458  -2631.9458      90.5173     160.8934      73.0313     115.3295       0.2315       0.2204       2.3049       0.1748       0.0010
   2977.5000   2654.0679  -2632.0679      90.6562     161.6615      73.5122     128.3427       0.2331       0.2239       2.2991       0.1844       0.0010
   2977.6250   2654.1902  -2632.1902      90.9296     162.8681      73.8862     232.3090       0.2329       0.2430       2.2674       0.1846       0.0010
   2977.7500   2654.3123  -2632.3123      91.3473     164.3827      73.9109     547.9674       0.2321       0.2708       2.2211       0.1785       0.0010
   2977.8750   2654.4343  -2632.4343      91.9036     166.1887      73.8305    1081.2616       0.2373       0.2928       2.1842       0.1708       0.0010
   2978.0000   2654.5564  -2632.5564      92.5295     168.1250      74.3782    1535.0150       0.2482       0.3041       2.1657       0.1653       0.0010
   2978.1250   2654.6787  -2632.6787      93.1871     169.9931      75.4482    1677.4817       0.2569       0.3070       2.1610       0.1624       0.0010
   2978.2500   2654.8008  -2632.8008      93.8451     171.6142      76.7334    1528.8589       0.2602       0.3040       2.1655       0.1620       0.0010
   2978.3750   2654.9229  -2632.9229      94.4687     172.8315      77.8978    1265.3586       0.2588       0.2979       2.1750       0.1636       0.0037
   2978.5000   2655.0452  -2633.0452      95.0078     173.4961      78.7363    1006.3763       0.2588       0.2905       2.1865       0.1665       0.0172
   2978.6250   2655.1672  -2633.1672      95.3549     173.6279      79.3304     871.1344       0.2655       0.2858       2.1933       0.1675       0.0267
   2978.7500   2655.2893  -2633.2893      95.5135     173.5068      79.7674     875.6448       0.2734       0.2860       2.1914       0.1642       0.0337
   2978.8750   2655.4114  -2633.4114      95.5043     173.2538      79.8647    1011.1428       0.2769       0.2906       2.1818       0.1567       0.0353
   2979.0000   2655.5337  -2633.5337      95.3630     172.9541      79.4897    1259.5618       0.2729       0.2977       2.1686       0.1467       0.0293
   2979.1250   2655.6558  -2633.6558      95.1324     172.6504      78.6141    1557.9834       0.2614       0.3046       2.1579       0.1386       0.0152
   2979.2500   2655.7778  -2633.7778      94.8436     172.2976      77.4892    1645.1874       0.2483       0.3063       2.1562       0.1295       0.0010
   2979.3750   2655.9001  -2633.9001      94.5153     171.8334      76.5518    1641.6093       0.2391       0.3063       2.1588       0.1255       0.0010
   2979.5000   2656.0222  -2634.0222      94.1557     171.2774      75.7897    1598.8004       0.2316       0.3054       2.1616       0.1240       0.0010
   2979.6250   2656.1443  -2634.1443      93.7722     170.6405      75.1482    1583.5906       0.2249       0.3051       2.1620       0.1237       0.0010
   2979.7500   2656.2664  -2634.2664      93.3763     169.9342      74.6709    1632.7295       0.2193       0.3061       2.1593       0.1237       0.0010
   2979.8750   2656.3887  -2634.3887      92.9849     169.1694      74.6307    1715.8231       0.2177       0.3077       2.1561       0.1231       0.0010
   2980.0000   2656.5107  -2634.5107      92.6072     168.4063      75.3200    1632.8604       0.2212       0.3061       2.1592       0.1214       0.0010
   2980.1250   2656.6328  -2634.6328      92.2435     167.7523      76.0311    1377.2826       0.2291       0.3006       2.1694       0.1198       0.0010
   2980.2500   2656.7551  -2634.7551      91.9068     167.2892      76.3163    1059.2568       0.2394       0.2921       2.1848       0.1192       0.0010
   2980.3750   2656.8772  -2634.8772      91.6103     167.0685      75.9358     789.6640       0.2496       0.2826       2.2018       0.1199       0.0010
   2980.5000   2656.9993  -2634.9993      91.3688     167.1067      74.8720     612.1668       0.2563       0.2744       2.2154       0.1215       0.0010
   2980.6250   2657.1213  -2635.1213      91.2154     167.3792      73.4501     567.0419       0.2553       0.2719       2.2195       0.1233       0.0010
   2980.7500   2657.2437  -2635.2437      91.1624     167.7556      72.3483     632.1055       0.2487       0.2754       2.2127       0.1244       0.0010
