#------------------------------------------------------------------------------
#
#   Created by  : [OpenWorks] Log Export Utility (LEXP)
#   Created on  : 2007-05-07 11:57:08
#   Project     : NORNE
#   User        : JSE
#   Interpreter : JSE
#
#------------------------------------------------------------------------------
~VERSION INFORMATION
VERS. 2.0 : CWLS Log ASCII Standard - version 2.0
WRAP.  NO : One line per depth step
~WELL INFORMATION
#MNEMONIC   .UNIT                                           VALUE :DESCRIPTION
#------------------------------------------------------------------------------
STRT        .M                                          1375.3750 :START DEPTH
STOP        .M                                          3298.0000 :STOP DEPTH
STEP        .M                                             0.1250 :STEP
NULL        .                                           -999.2500 :NULL VALUE
COMP        .                                             STATOIL :COMPANY
WELL        .                                       6608/10-C-1 H :WELL
FLD         .                                               NORNE :FIELD
LOC         .                                             UNKNOWN :LOCATION
CNTY        .                                             UNKNOWN :COUNTY
STAT        .                                             UNKNOWN :STATE
CTRY        .                                              Norway :COUNTRY
SRVC        .                                             UNKNOWN :SERVICE COMPANY
DATE        .                                             UNKNOWN :LOG DATE
UWI         .                                    NO 6608/10-C-1 H :UNIQUE WELL ID
XCOORD      .                                       457190.110178 :SURFACE X
YCOORD      .                                      7322024.307354 :SURFACE Y
LAT         .                                           66.014414 :LATITUDE
LON         .                                            8.056259 :LONGITUDE
ELEV        .M                                            22.0000 :SURFACE ELEV
ELEV_TYPE   .                                                  KB :ELEV TYPE
~CURVE INFORMATION
#MNEMONIC.UNIT        API CODE       : CURVE DESCRIPTION
#------------------------------------------------------------------------------
DEPTH    .M                          : Measured Depth
TVD      .M                          : True Vertical Depth (TVD)
TVDSS    .M                          : True Vertical Depth (TVDSS)
DT       .us/ft                      : DT:UNKNOWN:rC:NONE:v1 
DTS      .us/ft                      : DTS:UNKNOWN:rC:NONE:v1 
GR       .API         UNKNOWN        : GR:GR:rC:NONE:v1 
KLOGH    .mD          UNKNOWN        : KLOGH:UNKNOWN:rC::v0 (auto-composite)
NPHI     .v/v_decimal                : NPHI:UNKNOWN:rC:NONE:v1 
PHIF     .v/v_decimal UNKNOWN        : PHIF:UNKNOWN:rC::v0 (auto-composite)
RHOB     .g/cm3       UNKNOWN        : RHOB:UNKNOWN:rC:NONE:v1 
SW       .v/v_decimal UNKNOWN        : SW:UNKNOWN:rC::v0 (auto-composite)
VSH      .v/v_decimal UNKNOWN        : VSH:UNKNOWN:rC::v0 (auto-composite)
~A     DEPTH         TVD       TVDSS           DT          DTS           GR        KLOGH         NPHI         PHIF         RHOB           SW          VSH
# ...
   3123.8750   2796.8708  -2774.8708      87.8720     158.2936      67.4754     894.3820       0.2298       0.2816       2.1879       0.9982       0.0010
   3124.0000   2796.9927  -2774.9927      87.8921     158.3479      68.4230    1007.7723       0.2310       0.2842       2.1836       0.9940       0.0010
   3124.1250   2797.1145  -2775.1145      88.0492     158.3163      69.5009    1008.7996       0.2266       0.2842       2.1835       0.9975       0.0010
   3124.2500   2797.2361  -2775.2361      88.3095     158.2034      70.3740     901.7566       0.2197       0.2817       2.1876       1.0000       0.0010
   3124.3750   2797.3579  -2775.3579      88.6173     158.0277      70.7586     750.5668       0.2143       0.2776       2.1943       1.0000       0.0010
   3124.5000   2797.4797  -2775.4797      88.9105     157.8442      70.5473     613.3569       0.2143       0.2732       2.2017       1.0000       0.0010
   3124.6250   2797.6016  -2775.6016      89.1633     157.7605      70.0927     546.3865       0.2196       0.2706       2.2059       1.0000       0.0010
   3124.7500   2797.7234  -2775.7234      89.4070     157.7790      69.8177     522.0449       0.2262       0.2696       2.2076       1.0000       0.0010
   3124.8750   2797.8452  -2775.8452      89.6427     157.8830      69.8219     534.9818       0.2333       0.2701       2.2067       1.0000       0.0010
   3125.0000   2797.9670  -2775.9670      89.8579     158.0644      70.1382     572.2016       0.2384       0.2716       2.2043       1.0000       0.0010
   3125.1250   2798.0889  -2776.0889      90.0314     158.3253      70.7512     610.8468       0.2391       0.2731       2.2019       1.0000       0.0010
   3125.2500   2798.2104  -2776.2104      90.1315     158.6978      71.6613     638.8518       0.2335       0.2741       2.2002       1.0000       0.0010
   3125.3750   2798.3323  -2776.3323      90.1833     159.1449      72.5784     618.2242       0.2253       0.2733       2.2014       1.0000       0.0010
   3125.5000   2798.4541  -2776.4541      90.2085     159.6253      73.3194     565.9341       0.2180       0.2714       2.2047       1.0000       0.0010
   3125.6250   2798.5759  -2776.5759      90.2163     160.1432      73.8210     505.8810       0.2142       0.2689       2.2088       1.0000       0.0010
   3125.7500   2798.6978  -2776.6978      90.2124     160.7140      74.0756     471.5937       0.2155       0.2673       2.2113       1.0000       0.0010
   3125.8750   2798.8196  -2776.8196      90.2000     161.3640      74.1170     515.8401       0.2212       0.2693       2.2080       1.0000       0.0010
   3126.0000   2798.9414  -2776.9414      90.1757     162.0751      73.9167     658.9937       0.2275       0.2748       2.1991       1.0000       0.0010
   3126.1250   2799.0632  -2777.0632      90.1479     162.8067      73.6320     872.9785       0.2289       0.2810       2.1888       1.0000       0.0010
   3126.2500   2799.1848  -2777.1848      90.1233     163.5532      73.5382    1085.0547       0.2256       0.2859       2.1808       1.0000       0.0010
   3126.3750   2799.3066  -2777.3066      90.1047     164.3439      73.8789    1169.8682       0.2198       0.2875       2.1781       1.0000       0.0010
   3126.5000   2799.4285  -2777.4285      90.0928     165.2145      74.8099    1056.1110       0.2149       0.2853       2.1818       1.0000       0.0010
   3126.6250   2799.5503  -2777.5503      90.0912     166.1622      76.2999     863.0470       0.2134       0.2808       2.1892       1.0000       0.0010
   3126.7500   2799.6721  -2777.6721      90.0991     167.0594      77.6662     734.0937       0.2155       0.2772       2.1951       1.0000       0.0010
   3126.8750   2799.7939  -2777.7939      90.1142     167.8376      78.4249     686.9457       0.2175       0.2757       2.1976       1.0000       0.0122
   3127.0000   2799.9158  -2777.9158      90.1370     168.5012      78.4901     678.5716       0.2191       0.2754       2.1980       1.0000       0.0132
   3127.1250   2800.0376  -2778.0376      90.1680     169.0794      77.9587     664.3865       0.2212       0.2749       2.1988       1.0000       0.0047
   3127.2500   2800.1592  -2778.1592      90.2060     169.6060      77.0870     606.7087       0.2263       0.2729       2.2020       1.0000       0.0010
   3127.3750   2800.2810  -2778.2810      90.2535     170.0435      76.1395     518.5443       0.2386       0.2694       2.2078       1.0000       0.0010
   3127.5000   2800.4028  -2778.4028      90.2977     170.2742      75.4903     493.3521       0.2504       0.2683       2.2097       1.0000       0.0010
   3127.6250   2800.5247  -2778.5247      90.3354     170.2297      75.3552     508.0524       0.2559       0.2690       2.2086       1.0000       0.0010
   3127.7500   2800.6465  -2778.6465      90.3637     169.8939      76.0167     509.5563       0.2538       0.2690       2.2085       1.0000       0.0010
   3127.8750   2800.7683  -2778.7683      90.3805     169.3051      77.7847     430.6066       0.2460       0.2653       2.2146       1.0000       0.0019
   3128.0000   2800.8901  -2778.8901      90.3837     168.5699      81.1718     257.0701       0.2373       0.2538       2.2335       1.0000       0.0563
   3128.1250   2801.0120  -2779.0120      90.3742     167.8626      85.7771     124.8577       0.2340       0.2377       2.2599       1.0000       0.1301
   3128.2500   2801.1338  -2779.1338      90.3532     167.2941      90.0426      73.0662       0.2354       0.2257       2.2795       1.0000       0.1985
   3128.3750   2801.2554  -2779.2554      90.3238     166.9122      93.0365      58.5337       0.2396       0.2208       2.2876       1.0000       0.2466
   3128.5000   2801.3772  -2779.3772      90.2926     166.7399      94.3997      63.8625       0.2445       0.2227       2.2844       1.0000       0.2684
   3128.6250   2801.4990  -2779.4990      90.2686     166.7804      94.4353      83.5820       0.2476       0.2287       2.2746       1.0000       0.2690
   3128.7500   2801.6208  -2779.6208      90.2596     167.0454      94.4436     109.3910       0.2488       0.2347       2.2647       1.0000       0.2691
   3128.8750   2801.7427  -2779.7427      90.2289     167.5316      95.2396     130.5333       0.2488       0.2387       2.2583       1.0000       0.2819
   3129.0000   2801.8645  -2779.8645      90.1203     168.1343      96.5127     137.0152       0.2474       0.2398       2.2565       1.0000       0.3023
   3129.1250   2801.9863  -2779.9863      89.8734     168.6167      97.8669     122.8748       0.2456       0.2373       2.2605       1.0000       0.3241
   3129.2500   2802.1082  -2780.1082      89.4380     168.6674      98.9401      90.7842       0.2444       0.2306       2.2715       1.0000       0.3413
   3129.3750   2802.2297  -2780.2297      88.7816     167.8805      99.5612      50.6720       0.2427       0.2176       2.2929       1.0000       0.3513
   3129.5000   2802.3516  -2780.3516      87.9597     166.0374      99.9647      24.3752       0.2379       0.2013       2.3196       1.0000       0.3577
   3129.6250   2802.4734  -2780.4734      87.1121     163.6196     100.4075      11.8200       0.2308       0.1852       2.3461       1.0000       0.3648
   3129.7500   2802.5952  -2780.5952      86.3049     160.9358     100.8954       5.7015       0.2240       0.1689       2.3728       1.0000       0.3727
   3129.8750   2802.7170  -2780.7170      85.5839     158.2733     101.4891       2.5991       0.2207       0.1514       2.4015       1.0000       0.3822
   3130.0000   2802.8389  -2780.8389      84.9749     155.8742     102.3560       1.0548       0.2243       0.1313       2.4345       1.0000       0.3961
   3130.1250   2802.9607  -2780.9607      84.5048     153.9427     104.2055       0.4021       0.2387       0.1098       2.4698       1.0000       0.4258
   3130.2500   2803.0825  -2781.0825      84.1387     152.6212     107.2050       0.1928       0.2598       0.0934       2.4967       1.0000       0.4739
