#------------------------------------------------------------------------------
#
#   Created by  : [OpenWorks] Log Export Utility (LEXP)
#   Created on  : 2007-05-07 11:57:18
#   Project     : NORNE
#   User        : JSE
#   Interpreter : JSE
#
#------------------------------------------------------------------------------
~VERSION INFORMATION
VERS. 2.0 : CWLS Log ASCII Standard - version 2.0
WRAP.  NO : One line per depth step
~WELL INFORMATION
#MNEMONIC   .UNIT                                           VALUE :DESCRIPTION
#------------------------------------------------------------------------------
STRT        .M                                           437.6250 :START DEPTH
STOP        .M                                          2890.0000 :STOP DEPTH
STEP        .M                                             0.1250 :STEP
NULL        .                                           -999.2500 :NULL VALUE
COMP        .                                             STATOIL :COMPANY
WELL        .                                       6608/10-C-4 H :WELL
FLD         .                                               NORNE :FIELD
LOC         .                                             UNKNOWN :LOCATION
CNTY        .                                             UNKNOWN :COUNTY
STAT        .                                             UNKNOWN :STATE
CTRY        .                                              Norway :COUNTRY
SRVC        .                                             UNKNOWN :SERVICE COMPANY
DATE        .                                             UNKNOWN :LOG DATE
UWI         .                                    NO 6608/10-C-4 H :UNIQUE WELL ID
XCOORD      .                                       457180.075915 :SURFACE X
YCOORD      .                                      7322034.182216 :SURFACE Y
LAT         .                                           66.014501 :LATITUDE
LON         .                                            8.056034 :LONGITUDE
ELEV        .M                                            25.0000 :SURFACE ELEV
ELEV_TYPE   .                                                  KB :ELEV TYPE
~CURVE INFORMATION
#MNEMONIC.UNIT        API CODE       : CURVE DESCRIPTION
#------------------------------------------------------------------------------
DEPTH    .M                          : Measured Depth
TVD      .M                          : True Vertical Depth (TVD)
TVDSS    .M                          : True Vertical Depth (TVDSS)
DT       .us/ft                      : DT:UNKNOWN:rC:NONE:v1 
GR       .API                        : GR:UNKNOWN:rC:NONE:v1 
KLOGH    .mD          UNKNOWN        : KLOGH:UNKNOWN:rC::v0 (auto-composite)
NPHI     .v/v_decimal                : NPHI:UNKNOWN:rC:NONE:v1 
PHIF     .v/v_decimal UNKNOWN        : PHIF:UNKNOWN:rC::v0 (auto-composite)
RHOB     .g/cm3                      : RHOB:UNKNOWN:rC:NONE:v1 
SW       .v/v_decimal UNKNOWN        : SW:UNKNOWN:rC::v0 (auto-composite)
VSH      .v/v_decimal UNKNOWN        : VSH:UNKNOWN:rC::v0 (auto-composite)
~A     DEPTH         TVD       TVDSS           DT           GR        KLOGH         NPHI         PHIF         RHOB           SW          VSH
# ...
   2625.0000   2601.0076  -2576.0076      98.1186     110.5669      26.5378       0.2064       0.2278       2.2672       0.3553       0.4879
   2625.1250   2601.1326  -2576.1326      98.6805      92.7869     442.3145       0.1761       0.2842       2.1625       0.2467       0.2569
   2625.2500   2601.2576  -2576.2576      99.2291      83.8893    3621.7083       0.1542       0.3263       2.0861       0.1727       0.1414
   2625.3750   2601.3826  -2576.3826      99.8757      80.6072    8323.5820       0.1449       0.3429       2.0705       0.1286       0.0988
   2625.5000   2601.5076  -2576.5076     100.6438      81.9197    8437.5596       0.1468       0.3432       2.0749       0.1063       0.1158
   2625.6250   2601.6326  -2576.6326     101.4151      83.6215    5535.0903       0.1555       0.3348       2.0943       0.1043       0.1379
   2625.7500   2601.7576  -2576.7576     102.0681      83.9725    3263.1233       0.1668       0.3242       2.1202       0.1152       0.1425
   2625.8750   2601.8826  -2576.8826     102.4959      83.2668    1648.4728       0.1769       0.3105       2.1422       0.1376       0.1333
   2626.0000   2602.0076  -2577.0076     102.6264      84.8890     874.4981       0.1830       0.2978       2.1488       0.1516       0.1544
   2626.1250   2602.1326  -2577.1326     102.4806      87.4516    1083.4940       0.1818       0.3021       2.1522       0.1591       0.1877
   2626.2500   2602.2576  -2577.2576     102.2503      86.8965    2135.2065       0.1768       0.3157       2.1280       0.1577       0.1805
   2626.3750   2602.3826  -2577.3826     102.0393      84.0530    2430.6499       0.1704       0.3183       2.1193       0.1570       0.1435
   2626.5000   2602.5076  -2577.5076     101.9082      82.6683    2238.1885       0.1648       0.3166       2.1220       0.1558       0.1256
   2626.6250   2602.6326  -2577.6326     101.8639      86.3583    4110.3018       0.1618       0.3288       2.1040       0.1484       0.1735
   2626.7500   2602.7576  -2577.7576     101.7950      82.7095    1614.6313       0.1632       0.3101       2.1384       0.1554       0.1261
   2626.8750   2602.8826  -2577.8826     101.5033      82.3554    1055.8767       0.1674       0.3016       2.1522       0.1628       0.1215
   2627.0000   2603.0073  -2578.0073     100.9862      81.5147     449.3382       0.1712       0.2845       2.1810       0.1720       0.1106
   2627.1250   2603.1323  -2578.1323     100.3475      78.8256     170.6150       0.1735       0.2651       2.2139       0.1790       0.0756
   2627.2500   2603.2573  -2578.2573      99.7430      74.6552     120.8325       0.1742       0.2582       2.2233       0.1785       0.0215
   2627.3750   2603.3823  -2578.3823      99.3510      71.4740     416.0602       0.1747       0.2829       2.1720       0.1685       0.0010
   2627.5000   2603.5073  -2578.5073      99.2346      75.7195     449.1172       0.1746       0.2845       2.1777       0.1688       0.0353
   2627.6250   2603.6323  -2578.6323      99.1168      80.3512     753.3938       0.1736       0.2948       2.1581       0.1686       0.0955
   2627.7500   2603.7573  -2578.7573      98.9361      87.0995     892.8112       0.1738       0.2982       2.1537       0.1757       0.1832
   2627.8750   2603.8823  -2578.8823      98.7327      89.8222    1176.8481       0.1762       0.3038       2.1490       0.1804       0.2184
   2628.0000   2604.0073  -2579.0073      98.6258      82.6304    2841.1135       0.1807       0.3214       2.1161       0.1721       0.1251
   2628.1250   2604.1323  -2579.1323      98.8326      85.8969    1056.8615       0.1843       0.3016       2.1513       0.1889       0.1675
   2628.2500   2604.2573  -2579.2573      99.4019      89.9761     297.5194       0.1849       0.2762       2.1932       0.2082       0.2204
   2628.3750   2604.3823  -2579.3823     100.0929      87.1959     237.0050       0.1840       0.2717       2.1992       0.2117       0.1844
   2628.5000   2604.5073  -2579.5073     100.6964      83.9810     336.9939       0.1816       0.2787       2.1862       0.2057       0.1426
   2628.6250   2604.6323  -2579.6323     101.0555      84.4722     600.4528       0.1780       0.2903       2.1639       0.1962       0.1490
   2628.7500   2604.7573  -2579.7573     101.1080      85.8292    1722.3368       0.1735       0.3114       2.1178       0.1799       0.1666
   2628.8750   2604.8823  -2579.8823     100.9557      83.4325    3275.3887       0.1706       0.3243       2.1080       0.1673       0.1355
   2629.0000   2605.0073  -2580.0073     100.8293      81.6115    5775.9971       0.1719       0.3356       2.0909       0.1587       0.1118
   2629.1250   2605.1323  -2580.1323     100.7628      79.1145    5871.0220       0.1767       0.3359       2.0906       0.1576       0.0794
   2629.2500   2605.2571  -2580.2571     100.6910      77.1004    1626.0619       0.1824       0.3102       2.1390       0.1715       0.0533
   2629.3750   2605.3821  -2580.3821     100.4859      77.5547      52.0722       0.1860       0.2413       2.2628       0.2231       0.0591
   2629.5000   2605.5071  -2580.5071      99.9452      81.4168       0.1462       0.1859       0.1237       2.4652       0.4409       0.1093
   2629.6250   2605.6321  -2580.6321      99.1237      82.0046       4.9391       0.1848       0.1942       2.3441       0.2863       0.1169
   2629.7500   2605.7571  -2580.7571      98.3855      81.7863      29.9519       0.1840       0.2303       2.2775       0.2361       0.1141
   2629.8750   2605.8821  -2580.8821      97.9581      83.5100     129.4242       0.1842       0.2596       2.2240       0.2076       0.1365
   2630.0000   2606.0071  -2581.0071      97.9555      85.3220     388.5567       0.1858       0.2816       2.1861       0.1948       0.1600
   2630.1250   2606.1321  -2581.1321      98.3554      81.4535      59.5977       0.1883       0.2440       2.2555       0.2254       0.1097
   2630.2500   2606.2571  -2581.2571      98.9616      86.8820       3.2318       0.1891       0.1857       2.3565       0.2831       0.1802
   2630.3750   2606.3821  -2581.3821      99.4954      83.8308      80.9928       0.1875       0.2502       2.2208       0.2045       0.1407
   2630.5000   2606.5071  -2581.5071      99.8665      80.2808     129.3361       0.1860       0.2596       2.2058       0.1908       0.0945
   2630.6250   2606.6321  -2581.6321     100.0433      81.4674     112.4886       0.1848       0.2568       2.2267       0.1855       0.1100
   2630.7500   2606.7571  -2581.7571     100.0369      86.0565    1051.5729       0.1836       0.3015       2.1419       0.1536       0.1696
   2630.8750   2606.8821  -2581.8821      99.8952      77.1375    2277.2249       0.1818       0.3170       2.1115       0.1517       0.0538
   2631.0000   2607.0071  -2582.0071      99.7587      80.0136    1790.1440       0.1826       0.3122       2.1209       0.1546       0.0911
   2631.1250   2607.1321  -2582.1321      99.7268      79.1803    2604.0291       0.1888       0.3197       2.1060       0.1447       0.0803
   2631.2500   2607.2571  -2582.2571      99.7758      78.0896     351.9136       0.1988       0.2796       2.1830       0.1615       0.0661
   2631.3750   2607.3821  -2582.3821      99.8289      77.1584       9.1324       0.2097       0.2065       2.3238       0.2184       0.0540
   2631.5000   2607.5068  -2582.5068      99.7822      73.6067       1.8061       0.2175       0.1740       2.3722       0.2543       0.0079
   2631.6250   2607.6318  -2582.6318      99.5823      70.9083      19.4618       0.2191       0.2216       2.2639       0.1983       0.0010
   2631.7500   2607.7568  -2582.7568      99.5201      77.5288     200.6700       0.2174       0.2683       2.1822       0.1641       0.0589
   2631.8750   2607.8818  -2582.8818      99.7701      76.9529    1161.3053       0.2152       0.3035       2.1373       0.1426       0.0513
   2632.0000   2608.0068  -2583.0068     100.3113      76.4594    1749.3618       0.2148       0.3117       2.1240       0.1358       0.0449
