#------------------------------------------------------------------------------
#
#   Created by  : [OpenWorks] Log Export Utility (LEXP)
#   Created on  : 2007-05-07 11:57:11
#   Project     : NORNE
#   User        : JSE
#   Interpreter : JSE
#
#------------------------------------------------------------------------------
~VERSION INFORMATION
VERS. 2.0 : CWLS Log ASCII Standard - version 2.0
WRAP.  NO : One line per depth step
~WELL INFORMATION
#MNEMONIC   .UNIT                                           VALUE :DESCRIPTION
#------------------------------------------------------------------------------
STRT        .M                                          1205.1348 :START DEPTH
STOP        .M                                          4417.7598 :STOP DEPTH
STEP        .M                                             0.1250 :STEP
NULL        .                                           -999.2500 :NULL VALUE
COMP        .                                             STATOIL :COMPANY
WELL        .                                       6608/10-C-2 H :WELL
FLD         .                                               NORNE :FIELD
LOC         .                                             UNKNOWN :LOCATION
CNTY        .                                             UNKNOWN :COUNTY
STAT        .                                             UNKNOWN :STATE
CTRY        .                                              Norway :COUNTRY
SRVC        .                                             UNKNOWN :SERVICE COMPANY
DATE        .                                             UNKNOWN :LOG DATE
UWI         .                                    NO 6608/10-C-2 H :UNIQUE WELL ID
XCOORD      .                                       457185.617758 :SURFACE X
YCOORD      .                                      7322019.729827 :SURFACE Y
LAT         .                                           66.014372 :LATITUDE
LON         .                                            8.056161 :LONGITUDE
ELEV        .M                                            22.0000 :SURFACE ELEV
ELEV_TYPE   .                                                  KB :ELEV TYPE
~CURVE INFORMATION
#MNEMONIC.UNIT        API CODE       : CURVE DESCRIPTION
#------------------------------------------------------------------------------
DEPTH    .M                          : Measured Depth
TVD      .M                          : True Vertical Depth (TVD)
TVDSS    .M                          : True Vertical Depth (TVDSS)
DT       .us/ft       UNKNOWN        : DT:DT:rC::v0 (auto-composite)
DTS      .us/ft       UNKNOWN        : DTS:DTS:rC::v0 (auto-composite)
GR       .API         UNKNOWN        : GR:GR:rC::v0 (auto-composite)
KLOGH    .mD          UNKNOWN        : KLOGH:UNKNOWN:rC:NONE:v1 
NPHI     .v/v_decimal UNKNOWN        : NPHI:NPHI:rC::v0 (auto-composite)
PHIF     .v/v_decimal UNKNOWN        : PHIF:PHIF:rC::v0 (auto-composite)
SW       .v/v_decimal UNKNOWN        : SW:SW:rC::v0 (auto-composite)
VSH      .v/v_decimal UNKNOWN        : VSH:VSH:rC::v0 (auto-composite)
~A     DEPTH         TVD       TVDSS           DT          DTS           GR        KLOGH         NPHI         PHIF           SW          VSH
# ...
   4019.5098   2668.4541  -2646.4541     105.0392     174.9314      61.2277      16.1442       0.2358       0.2225       0.2782       0.0733
   4019.6348   2668.5220  -2646.5220     104.6568     174.6295      60.1082      16.9699       0.2315       0.2233       0.2772       0.0601
   4019.7598   2668.5901  -2646.5901     104.2565     174.2369      59.6079      16.5403       0.2285       0.2228       0.2787       0.0542
   4019.8848   2668.6580  -2646.6580     103.8615     173.7458      60.8039      13.7739       0.2306       0.2197       0.2832       0.0683
   4020.0098   2668.7261  -2646.7261     103.4727     173.1598      63.3304      11.7862       0.2395       0.2170       0.2866       0.0980
   4020.1348   2668.7939  -2646.7939     103.0452     172.4845      64.2507      17.4570       0.2513       0.2236       0.2811       0.1088
   4020.2598   2668.8621  -2646.8621     102.6215     171.7806      62.6036      46.7995       0.2604       0.2386       0.2676       0.0895
   4020.3848   2668.9302  -2646.9302     102.1337     171.0869      61.2048      67.5798       0.2637       0.2472       0.2621       0.0730
   4020.5098   2668.9980  -2646.9980     101.5101     170.4448      61.4195      61.0216       0.2613       0.2442       0.2690       0.0755
   4020.6348   2669.0662  -2647.0662     100.7214     169.8997      62.9466      30.3786       0.2562       0.2334       0.2817       0.0935
   4020.7598   2669.1340  -2647.1340      99.8829     169.5255      62.0744      33.6646       0.2542       0.2352       0.2742       0.0832
   4020.8848   2669.2021  -2647.2021      99.3135     169.3804      59.2661      83.4211       0.2571       0.2495       0.2428       0.0502
   4021.0098   2669.2700  -2647.2700      99.1308     169.4168      59.6560      89.7101       0.2619       0.2521       0.2214       0.0548
   4021.1348   2669.3381  -2647.3381      99.2897     169.6180      62.2651      62.5081       0.2653       0.2442       0.2255       0.0855
   4021.2598   2669.4062  -2647.4062      99.6740     169.9707      64.3332      33.4874       0.2646       0.2351       0.2446       0.1098
   4021.3848   2669.4741  -2647.4741     100.1266     170.4684      62.8292      37.9177       0.2593       0.2366       0.2466       0.0921
   4021.5098   2669.5422  -2647.5422     100.5237     171.1593      67.4773      10.9195       0.2518       0.2106       0.2840       0.1468
   4021.6348   2669.6101  -2647.6101     100.9794     171.9747      64.8357      12.3684       0.2461       0.2166       0.2859       0.1157
   4021.7598   2669.6782  -2647.6782     101.5164     172.8208      63.0384      13.8279       0.2412       0.2197       0.2883       0.0946
   4021.8848   2669.7461  -2647.7461     102.0755     173.6149      62.3461      12.4385       0.2360       0.2180       0.3035       0.0864
   4022.0098   2669.8142  -2647.8142     102.5797     174.2861      61.5908      11.5612       0.2304       0.2162       0.3299       0.0775
   4022.1348   2669.8821  -2647.8821     102.9900     174.7808      63.6211       6.1048       0.2278       0.2054       0.3516       0.1014
   4022.2598   2669.9502  -2647.9502     103.2843     175.0910      62.9423       7.7716       0.2294       0.2097       0.3569       0.0934
   4022.3848   2670.0183  -2648.0183     103.4795     175.2871      60.4505      17.5187       0.2314       0.2219       0.3459       0.0641
   4022.5098   2670.0862  -2648.0862     103.5908     175.4182      59.4915      22.4632       0.2341       0.2282       0.3212       0.0528
   4022.6348   2670.1543  -2648.1543     103.6425     175.5444      60.9300      19.6373       0.2381       0.2258       0.2961       0.0698
   4022.7598   2670.2222  -2648.2222     103.6639     175.7358      63.2783      15.7642       0.2450       0.2221       0.2885       0.0974
   4022.8848   2670.2903  -2648.2903     103.6762     176.1232      65.9092      15.5481       0.2571       0.2218       0.2843       0.1283
   4023.0098   2670.3582  -2648.3582     103.7053     176.7676      67.9817      17.8017       0.2694       0.2241       0.2756       0.1527
   4023.1348   2670.4263  -2648.4263     103.7566     177.6508      67.1974      32.5372       0.2758       0.2330       0.2555       0.1435
   4023.2598   2670.4944  -2648.4944     103.8333     178.7515      65.1506      46.8645       0.2751       0.2409       0.2352       0.1194
   4023.3848   2670.5623  -2648.5623     103.9361     180.0188      64.1676      45.2837       0.2689       0.2396       0.2295       0.1079
   4023.5098   2670.6304  -2648.6304     104.0633     181.3612      65.7222      20.6192       0.2615       0.2266       0.2495       0.1261
   4023.6348   2670.6982  -2648.6982     104.1854     182.5475      62.8385      31.3874       0.2560       0.2337       0.2607       0.0922
   4023.7598   2670.7664  -2648.7664     104.2535     183.4720      61.5964      35.5401       0.2530       0.2362       0.2641       0.0776
   4023.8848   2670.8342  -2648.8342     104.2363     184.1223      61.0883      44.6549       0.2546       0.2398       0.2621       0.0716
   4024.0098   2670.9023  -2648.9023     104.1293     184.5290      60.4238      80.2085       0.2613       0.2483       0.2485       0.0638
   4024.1348   2670.9705  -2648.9705     103.9515     184.7548      59.4279     147.9492       0.2707       0.2608       0.2211       0.0521
   4024.2598   2671.0383  -2649.0383     103.7402     184.8810      61.3668     120.3845       0.2758       0.2573       0.2391       0.0749
   4024.3848   2671.1064  -2649.1064     103.5300     184.9863      63.5976      65.0662       0.2723       0.2449       0.2757       0.1011
   4024.5098   2671.1743  -2649.1743     103.3422     185.0976      66.8407      25.4816       0.2651       0.2250       0.3074       0.1393
   4024.6348   2671.2424  -2649.2424     103.1796     185.2282      68.7828       9.0310       0.2600       0.2124       0.3207       0.1622
   4024.7598   2671.3103  -2649.3103     103.0446     185.3878      67.8641      14.9641       0.2614       0.2175       0.3111       0.1513
   4024.8848   2671.3784  -2649.3784     102.9450     185.5820      64.8608      40.3271       0.2708       0.2384       0.2861       0.1160
   4025.0098   2671.4470  -2649.4470     102.9236     185.8003      63.5284      73.1445       0.2757       0.2482       0.2698       0.1003
   4025.1348   2671.5159  -2649.5159     102.9808     185.9932      63.0209      64.3583       0.2710       0.2462       0.2703       0.0944
   4025.2598   2671.5850  -2649.5850     103.0875     186.1414      65.6653      33.2340       0.2625       0.2277       0.2918       0.1255
   4025.3848   2671.6541  -2649.6541     103.2195     186.2227      69.0826       6.4990       0.2545       0.2063       0.3183       0.1657
   4025.5098   2671.7229  -2649.7229     103.3626     186.2228      69.8615       4.1771       0.2499       0.1990       0.3325       0.1748
   4025.6348   2671.7920  -2649.7920     103.5306     186.1516      71.4582       3.0694       0.2514       0.1936       0.3620       0.1936
   4025.7598   2671.8608  -2649.8608     103.7010     186.0615      71.8066       4.8141       0.2613       0.2010       0.3686       0.1977
   4025.8848   2671.9299  -2649.9299     103.8349     185.9730      69.1063      25.5508       0.2740       0.2235       0.3393       0.1660
   4026.0098   2671.9988  -2649.9988     103.9009     185.8845      65.9728      65.0423       0.2834       0.2448       0.3046       0.1291
   4026.1348   2672.0679  -2650.0679     103.8930     185.8009      64.0913     101.7876       0.2854       0.2544       0.2856       0.1070
   4026.2598   2672.1367  -2650.1367     103.8391     185.7414      62.9901      95.6643       0.2790       0.2533       0.2813       0.0940
   4026.3848   2672.2058  -2650.2058     103.8407     185.8177      61.1578      90.0674       0.2692       0.2523       0.2972       0.0724
   4026.5098   2672.2749  -2650.2749     103.9663     186.0980      63.2734      47.5226       0.2632       0.2382       0.3435       0.0973
