#------------------------------------------------------------------------------
#
#   Created by  : [OpenWorks] Log Export Utility (LEXP)
#   Created on  : 2007-05-07 11:56:53
#   Project     : NORNE
#   User        : JSE
#   Interpreter : JSE
#
#------------------------------------------------------------------------------
~VERSION INFORMATION
VERS. 2.0 : CWLS Log ASCII Standard - version 2.0
WRAP.  NO : One line per depth step
~WELL INFORMATION
#MNEMONIC   .UNIT                                           VALUE :DESCRIPTION
#------------------------------------------------------------------------------
STRT        .M                                           450.6626 :START DEPTH
STOP        .M                                          3861.9126 :STOP DEPTH
STEP        .M                                             0.1250 :STEP
NULL        .                                           -999.2500 :NULL VALUE
COMP        .                                             STATOIL :COMPANY
WELL        .                                       6608/10-B-2 H :WELL
FLD         .                                               NORNE :FIELD
LOC         .                                             UNKNOWN :LOCATION
CNTY        .                                             UNKNOWN :COUNTY
STAT        .                                             UNKNOWN :STATE
CTRY        .                                              Norway :COUNTRY
SRVC        .                                             UNKNOWN :SERVICE COMPANY
DATE        .                                             UNKNOWN :LOG DATE
UWI         .                                    NO 6608/10-B-2 H :UNIQUE WELL ID
XCOORD      .                                       457121.854690 :SURFACE X
YCOORD      .                                      7322122.976330 :SURFACE Y
LAT         .                                           66.015290 :LATITUDE
LON         .                                            8.054722 :LONGITUDE
ELEV        .M                                            25.0000 :SURFACE ELEV
ELEV_TYPE   .                                                  KB :ELEV TYPE
~CURVE INFORMATION
#MNEMONIC.UNIT        API CODE       : CURVE DESCRIPTION
#------------------------------------------------------------------------------
DEPTH    .M                          : Measured Depth
TVD      .M                          : True Vertical Depth (TVD)
TVDSS    .M                          : True Vertical Depth (TVDSS)
DT       .us/ft                      : DT:UNKNOWN:rC:NONE:v1 
GR       .API                        : GR:UNKNOWN:rC:NONE:v1 
KLOGH    .mD                         : KLOGH:UNKNOWN:rC:NONE:v1 
NPHI     .v/v_decimal                : NPHI:UNKNOWN:rC:NONE:v1 
PHIF     .v/v_decimal                : PHIF:UNKNOWN:rC:NONE:v1 
RHOB     .g/cm3                      : RHOB:UNKNOWN:rC:NONE:v1 
SW       .v/v_decimal                : SW:UNKNOWN:rC:NONE:v1 
VSH      .v/v_decimal                : VSH:UNKNOWN:rC:NONE:v1 
~A     DEPTH         TVD       TVDSS           DT           GR        KLOGH         NPHI         PHIF         RHOB           SW          VSH
# ...
   3086.9126   2654.1116  -2629.1116      87.6419      35.6970     246.7418       0.2096       0.2444       2.2003       0.0837       0.0000
   3087.0376   2654.1135  -2629.1135      89.1893      38.7616     164.1497       0.1947       0.2303       2.2280       0.0879       0.0000
   3087.1626   2654.1152  -2629.1152      91.7663      36.5494      72.5007       0.1872       0.2048       2.2764       0.0965       0.0000
   3087.2876   2654.1169  -2629.1169      91.1937      41.6731      78.6709       0.1928       0.2080       2.2701       0.0938       0.0000
   3087.4126   2654.1187  -2629.1187      89.5333      47.2222      73.9547       0.1999       0.2059       2.2747       0.0930       0.0157
   3087.5376   2654.1204  -2629.1204      88.0542      42.7003     104.5141       0.1999       0.2148       2.2578       0.0905       0.0145
   3087.6626   2654.1221  -2629.1221      86.8230      34.6461     155.4939       0.1892       0.2300       2.2282       0.0864       0.0000
   3087.7876   2654.1238  -2629.1238      85.2959      38.4127     172.3894       0.1706       0.2334       2.2223       0.0835       0.0000
   3087.9126   2654.1255  -2629.1255      85.5391      36.0168     195.7533       0.1706       0.2375       2.2141       0.0834       0.0000
   3088.0376   2654.1272  -2629.1272      87.0927      32.5974     262.4940       0.2095       0.2466       2.1966       0.0802       0.0000
   3088.1626   2654.1289  -2629.1289      88.6840      30.8452     303.0155       0.2258       0.2516       2.1868       0.0777       0.0000
   3088.2876   2654.1306  -2629.1306      90.8839      33.6740     323.2168       0.2263       0.2537       2.1829       0.0770       0.0000
   3088.4126   2654.1323  -2629.1323      93.2608      39.1017     336.2404       0.2270       0.2550       2.1808       0.0773       0.0000
   3088.5376   2654.1340  -2629.1340      92.9185      36.5820     336.2404       0.2302       0.2550       2.1800       0.0772       0.0000
   3088.6626   2654.1357  -2629.1357      94.2698      39.9829     459.2757       0.2303       0.2648       2.1621       0.0764       0.0000
   3088.7876   2654.1375  -2629.1375      96.9470      43.4208     468.7679       0.2301       0.2657       2.1599       0.0777       0.0000
   3088.9126   2654.1392  -2629.1392      97.5829      40.9284     485.5410       0.2345       0.2668       2.1578       0.0764       0.0000
   3089.0376   2654.1411  -2629.1411      95.4860      36.1090     487.0888       0.2420       0.2668       2.1579       0.0744       0.0000
   3089.1626   2654.1428  -2629.1428      91.8166      35.8317     412.7255       0.2453       0.2616       2.1670       0.0755       0.0000
   3089.2876   2654.1445  -2629.1445      87.9753      33.4650     480.4381       0.2317       0.2665       2.1588       0.0731       0.0000
   3089.4126   2654.1462  -2629.1462      88.2394      34.1262     383.8967       0.2285       0.2589       2.1734       0.0767       0.0000
   3089.5376   2654.1479  -2629.1479      90.0229      36.7631     254.6869       0.2202       0.2443       2.2007       0.0801       0.0000
   3089.6626   2654.1497  -2629.1497      92.4421      35.9142     224.8271       0.2137       0.2410       2.2067       0.0800       0.0000
   3089.7876   2654.1514  -2629.1514      93.9795      33.3889     281.5403       0.2172       0.2490       2.1919       0.0773       0.0000
   3089.9126   2654.1531  -2629.1531      92.2917      41.2053     217.8569       0.2337       0.2410       2.2081       0.0784       0.0000
   3090.0376   2654.1548  -2629.1548      93.4568      38.3782     207.1422       0.2351       0.2393       2.2113       0.0791       0.0000
   3090.1626   2654.1565  -2629.1565      96.2587      34.7643     209.2381       0.2282       0.2397       2.2107       0.0816       0.0000
   3090.2876   2654.1582  -2629.1582      98.3641      34.4595     232.0330       0.2260       0.2429       2.2038       0.0811       0.0000
   3090.4126   2654.1599  -2629.1599      98.6171      38.7108     267.2416       0.2307       0.2475       2.1946       0.0794       0.0014
   3090.5376   2654.1616  -2629.1616      97.2865      45.0536     301.7507       0.2366       0.2515       2.1879       0.0796       0.0046
   3090.6626   2654.1633  -2629.1633      97.5778      42.6222     333.7993       0.2276       0.2548       2.1806       0.0782       0.0035
   3090.7876   2654.1650  -2629.1650      99.6214      39.7779     361.0169       0.2248       0.2573       2.1755       0.0778       0.0008
   3090.9126   2654.1667  -2629.1667      99.6496      37.9351     382.5437       0.2321       0.2592       2.1723       0.0771       0.0000
   3091.0376   2654.1685  -2629.1685      97.9940      40.6304     392.4642       0.2432       0.2600       2.1706       0.0764       0.0037
   3091.1626   2654.1704  -2629.1704      95.9046      43.7029     461.3605       0.2494       0.2642       2.1623       0.0756       0.0072
   3091.2876   2654.1721  -2629.1721      95.0044      36.1405     705.4088       0.2432       0.2790       2.1350       0.0741       0.0000
   3091.4126   2654.1738  -2629.1738      96.4608      32.6516     687.7907       0.2413       0.2781       2.1359       0.0742       0.0000
   3091.5376   2654.1755  -2629.1755      96.9527      29.8532     643.5392       0.2492       0.2760       2.1401       0.0730       0.0000
   3091.6626   2654.1772  -2629.1772      96.2667      32.6440     563.3573       0.2503       0.2715       2.1485       0.0732       0.0000
   3091.7876   2654.1790  -2629.1790      96.8342      38.6236     523.8320       0.2433       0.2693       2.1528       0.0737       0.0000
   3091.9126   2654.1807  -2629.1807     100.2339      42.8151     559.4827       0.2344       0.2714       2.1491       0.0733       0.0000
   3092.0376   2654.1824  -2629.1824     103.1467      40.6631     505.2675       0.2344       0.2682       2.1557       0.0741       0.0000
   3092.1626   2654.1841  -2629.1841     103.8439      36.4895     372.7694       0.2511       0.2579       2.1747       0.0776       0.0000
   3092.2876   2654.1858  -2629.1858     103.7863      38.1208     312.7298       0.2529       0.2526       2.1848       0.0792       0.0000
   3092.4126   2654.1875  -2629.1875     102.8951      38.7636     245.9180       0.2444       0.2438       2.2019       0.0812       0.0000
   3092.5376   2654.1892  -2629.1892     101.0063      37.2245     191.0162       0.2345       0.2364       2.2164       0.0831       0.0000
   3092.6626   2654.1909  -2629.1909      98.1336      37.6247     235.4115       0.2309       0.2434       2.2031       0.0827       0.0000
   3092.7876   2654.1926  -2629.1926      95.8035      38.4288     183.1868       0.2204       0.2352       2.2179       0.0842       0.0000
   3092.9126   2654.1943  -2629.1943      89.1026      38.0565     311.3118       0.2185       0.2508       2.1884       0.0776       0.0000
   3093.0376   2654.1960  -2629.1960      85.0068      31.9502     533.9306       0.2166       0.2684       2.1551       0.0733       0.0000
   3093.1626   2654.1978  -2629.1978      83.1846      26.5580     692.1382       0.2139       0.2783       2.1360       0.0710       0.0000
   3093.2876   2654.1997  -2629.1997      81.9592      29.4708     768.7153       0.2113       0.2813       2.1296       0.0688       0.0000
   3093.4126   2654.2014  -2629.2014      81.0855      44.2368    1082.1710       0.2080       0.2928       2.1075       0.0686       0.0000
   3093.5376   2654.2031  -2629.2031      80.6384      44.5540    1144.6830       0.2141       0.2946       2.1046       0.0681       0.0000
   3093.6626   2654.2048  -2629.2048      80.8658      43.9368    1361.0634       0.2176       0.3000       2.0940       0.0672       0.0000
   3093.7876   2654.2065  -2629.2065      81.7770      42.4227    1504.1912       0.2377       0.3034       2.0876       0.0674       0.0000
   3093.9126   2654.2083  -2629.2083      82.9639      41.0223    1388.1552       0.2613       0.3003       2.0938       0.0688       0.0000
