#------------------------------------------------------------------------------
#
#   Created by  : [OpenWorks] Log Export Utility (LEXP)
#   Created on  : 2007-05-07 11:57:18
#   Project     : NORNE
#   User        : JSE
#   Interpreter : JSE
#
#------------------------------------------------------------------------------
~VERSION INFORMATION
VERS. 2.0 : CWLS Log ASCII Standard - version 2.0
WRAP.  NO : One line per depth step
~WELL INFORMATION
#MNEMONIC   .UNIT                                           VALUE :DESCRIPTION
#------------------------------------------------------------------------------
STRT        .M                                           437.6250 :START DEPTH
STOP        .M                                          2890.0000 :STOP DEPTH
STEP        .M                                             0.1250 :STEP
NULL        .                                           -999.2500 :NULL VALUE
COMP        .                                             STATOIL :COMPANY
WELL        .                                       6608/10-C-4 H :WELL
FLD         .                                               NORNE :FIELD
LOC         .                                             UNKNOWN :LOCATION
CNTY        .                                             UNKNOWN :COUNTY
STAT        .                                             UNKNOWN :STATE
CTRY        .                                              Norway :COUNTRY
SRVC        .                                             UNKNOWN :SERVICE COMPANY
DATE        .                                             UNKNOWN :LOG DATE
UWI         .                                    NO 6608/10-C-4 H :UNIQUE WELL ID
XCOORD      .                                       457180.075915 :SURFACE X
YCOORD      .                                      7322034.182216 :SURFACE Y
LAT         .                                           66.014501 :LATITUDE
LON         .                                            8.056034 :LONGITUDE
ELEV        .M                                            25.0000 :SURFACE ELEV
ELEV_TYPE   .                                                  KB :ELEV TYPE
~CURVE INFORMATION
#MNEMONIC.UNIT        API CODE       : CURVE DESCRIPTION
#------------------------------------------------------------------------------
DEPTH    .M                          : Measured Depth
TVD      .M                          : True Vertical Depth (TVD)
TVDSS    .M                          : True Vertical Depth (TVDSS)
DT       .us/ft                      : DT:UNKNOWN:rC:NONE:v1 
GR       .API                        : GR:UNKNOWN:rC:NONE:v1 
KLOGH    .mD          UNKNOWN        : KLOGH:UNKNOWN:rC::v0 (auto-composite)
NPHI     .v/v_decimal                : NPHI:UNKNOWN:rC:NONE:v1 
PHIF     .v/v_decimal UNKNOWN        : PHIF:UNKNOWN:rC::v0 (auto-composite)
RHOB     .g/cm3                      : RHOB:UNKNOWN:rC:NONE:v1 
SW       .v/v_decimal UNKNOWN        : SW:UNKNOWN:rC::v0 (auto-composite)
VSH      .v/v_decimal UNKNOWN        : VSH:UNKNOWN:rC::v0 (auto-composite)
~A     DEPTH         TVD       TVDSS           DT           GR        KLOGH         NPHI         PHIF         RHOB           SW          VSH
# ...
   2724.7500   2700.7478  -2675.7478      87.5182      81.4592       0.3896       0.2135       0.1091       2.5247       0.7316       0.1099
   2724.8750   2700.8728  -2675.8728      86.7560      77.7976       0.3084       0.2046       0.1039       2.5336       0.7275       0.0623
   2725.0000   2700.9978  -2675.9978      86.4025      73.9050       0.1309       0.2025       0.0848       2.5660       0.8126       0.0117
   2725.1250   2701.1228  -2676.1228      86.4298      73.5100       0.0971       0.2070       0.0782       2.5773       0.8236       0.0066
   2725.2500   2701.2478  -2676.2478      86.8085      77.0750       0.2940       0.2177       0.1028       2.5353       0.6261       0.0529
   2725.3750   2701.3728  -2676.3728      87.5178      80.5282       3.1344       0.2339       0.1556       2.4406       0.4400       0.0978
   2725.5000   2701.4978  -2676.4978      88.6016      79.6372      12.0437       0.2535       0.1856       2.3873       0.3939       0.0862
   2725.6250   2701.6228  -2676.6228      89.8902      80.9500      75.3563       0.2707       0.2264       2.3177       0.3453       0.1032
   2725.7500   2701.7478  -2676.7478      91.1696      78.2828     125.4240       0.2803       0.2378       2.3010       0.3433       0.0686
   2725.8750   2701.8728  -2676.8728      92.2470      77.2580     154.7021       0.2802       0.2425       2.2929       0.3449       0.0553
   2726.0000   2701.9978  -2676.9978      92.9841      81.0540     404.6706       0.2712       0.2639       2.2536       0.3226       0.1046
   2726.1250   2702.1228  -2677.1228      93.3494      73.7449     272.0473       0.2600       0.2550       2.2749       0.3385       0.0097
   2726.2500   2702.2478  -2677.2478      93.5541      76.2508      28.9706       0.2513       0.2051       2.3617       0.4251       0.0422
   2726.3750   2702.3728  -2677.3728      93.8084      77.6302     174.3569       0.2431       0.2451       2.2889       0.3565       0.0601
   2726.5000   2702.4978  -2677.4978      94.2004      74.1925     151.9599       0.2364       0.2421       2.2752       0.3602       0.0155
   2726.6250   2702.6226  -2677.6226      94.7793      71.2932      39.4530       0.2324       0.2120       2.3273       0.4114       0.0010
   2726.7500   2702.7476  -2677.7476      95.5547      78.6932     292.9531       0.2325       0.2567       2.2732       0.3388       0.0739
   2726.8750   2702.8726  -2677.8726      96.4944      77.2678      44.4984       0.2367       0.2147       2.3454       0.3963       0.0554
   2727.0000   2702.9976  -2677.9976      97.4829      77.8798     410.9030       0.2418       0.2642       2.2489       0.3255       0.0634
   2727.1250   2703.1226  -2678.1226      98.4194      72.9122     981.6312       0.2445       0.2836       2.2046       0.2904       0.0010
   2727.2500   2703.2476  -2678.2476      99.2006      67.5995    2407.6030       0.2447       0.3036       2.1644       0.2443       0.0010
   2727.3750   2703.3726  -2678.3726      99.7322      66.5318   10000.0000       0.2442       0.3459       2.0893       0.1890       0.0010
   2727.5000   2703.4976  -2678.4976      99.9362      65.2231    9112.7871       0.2467       0.3333       2.1164       0.1762       0.0010
   2727.6250   2703.6226  -2678.6226      99.8088      67.5533    8475.1064       0.2496       0.3317       2.1282       0.1719       0.0010
   2727.7500   2703.7476  -2678.7476      99.5055      67.6930    5240.2271       0.2475       0.3210       2.1509       0.1954       0.0010
   2727.8750   2703.8726  -2678.8726      99.1150      68.1524    2973.9658       0.2430       0.3083       2.1714       0.2191       0.0010
   2728.0000   2703.9976  -2678.9976      98.7387      66.9400    1833.1345       0.2393       0.2975       2.1896       0.2251       0.0010
   2728.1250   2704.1226  -2679.1226      98.4736      61.2822    1211.0726       0.2392       0.2883       2.2094       0.2260       0.0010
   2728.2500   2704.2476  -2679.2476      98.3891      64.4550    1589.8623       0.2423       0.2944       2.1939       0.2141       0.0010
   2728.3750   2704.3726  -2679.3726      98.4072      66.9196     969.0038       0.2459       0.2833       2.2209       0.2115       0.0010
   2728.5000   2704.4976  -2679.4976      98.4577      66.4124    1697.2195       0.2476       0.2958       2.2010       0.2041       0.0010
   2728.6250   2704.6226  -2679.6226      98.5252      65.8794    3108.8701       0.2484       0.3093       2.1728       0.2060       0.0010
   2728.7500   2704.7476  -2679.7476      98.6058      66.5981    3313.5532       0.2497       0.3107       2.1655       0.2201       0.0010
   2728.8750   2704.8726  -2679.8726      98.6980      65.3920    5705.4663       0.2521       0.3228       2.1500       0.2193       0.0010
   2729.0000   2704.9976  -2679.9976      98.7334      66.7890    2415.3528       0.2514       0.3037       2.1895       0.2468       0.0010
   2729.1250   2705.1226  -2680.1226      98.5832      69.0239    1179.6425       0.2486       0.2877       2.2186       0.2756       0.0010
   2729.2500   2705.2476  -2680.2476      98.1888      67.8185    1884.6849       0.2459       0.2982       2.1957       0.2745       0.0010
   2729.3750   2705.3726  -2680.3726      97.5849      65.8180    4351.4736       0.2438       0.3168       2.1532       0.2569       0.0010
   2729.5000   2705.4976  -2680.4976      96.8792      67.1609    4612.2568       0.2425       0.3181       2.1438       0.2463       0.0010
   2729.6250   2705.6226  -2680.6226      96.2663      65.5462    9316.8281       0.2438       0.3338       2.1266       0.2202       0.0010
   2729.7500   2705.7476  -2680.7476      95.8754      66.9629   10000.0000       0.2502       0.3367       2.1257       0.2043       0.0010
   2729.8750   2705.8726  -2680.8726      95.6094      67.2536    8123.0698       0.2570       0.3307       2.1384       0.2074       0.0010
   2730.0000   2705.9976  -2680.9976      95.3854      66.1611    3806.7114       0.2611       0.3138       2.1695       0.2309       0.0010
   2730.1250   2706.1223  -2681.1223      95.1572      64.9719    1269.1404       0.2618       0.2894       2.2151       0.2745       0.0010
   2730.2500   2706.2473  -2681.2473      94.9353      66.1082     425.3573       0.2613       0.2650       2.2575       0.3180       0.0010
   2730.3750   2706.3723  -2681.3723      94.8803      71.8419     551.1191       0.2620       0.2708       2.2419       0.3191       0.0010
   2730.5000   2706.4973  -2681.4973      95.0400      78.1430     860.8655       0.2623       0.2807       2.2210       0.3202       0.0668
   2730.6250   2706.6223  -2681.6223      95.3364      76.9628    1812.3732       0.2609       0.2973       2.1921       0.3080       0.0515
   2730.7500   2706.7473  -2681.7473      95.6671      70.6740    3240.3416       0.2572       0.3102       2.1701       0.2935       0.0010
   2730.8750   2706.8723  -2681.8723      95.9275      65.9999    3688.1409       0.2522       0.3131       2.1620       0.2863       0.0010
   2731.0000   2706.9973  -2681.9973      96.0341      69.2655    9886.9990       0.2488       0.3351       2.1235       0.2631       0.0010
   2731.1250   2707.1223  -2682.1223      96.0026      69.6403   10000.0000       0.2484       0.3464       2.1033       0.2524       0.0010
   2731.2500   2707.2473  -2682.2473      95.8910      70.8439   10000.0000       0.2514       0.3480       2.0980       0.2554       0.0010
   2731.3750   2707.3723  -2682.3723      95.6782      73.3234    1523.7427       0.2561       0.2934       2.1932       0.3006       0.0042
   2731.5000   2707.4973  -2682.4973      95.3374      76.3652       5.2683       0.2607       0.1671       2.3761       0.5263       0.0437
   2731.6250   2707.6223  -2682.6223      94.8502      78.1620       0.1080       0.2630       0.0805       2.5181       0.9648       0.0670
   2731.7500   2707.7473  -2682.7473      94.2734      72.9739       4.1320       0.2619       0.1617       2.3827       0.5314       0.0010
