#------------------------------------------------------------------------------
#
#   Created by  : [OpenWorks] Log Export Utility (LEXP)
#   Created on  : 2007-05-07 11:57:46
#   Project     : NORNE
#   User        : JSE
#   Interpreter : JSE
#
#------------------------------------------------------------------------------
~VERSION INFORMATION
VERS. 2.0 : CWLS Log ASCII Standard - version 2.0
WRAP.  NO : One line per depth step
~WELL INFORMATION
#MNEMONIC   .UNIT                                           VALUE :DESCRIPTION
#------------------------------------------------------------------------------
STRT        .M                                          1250.1914 :START DEPTH
STOP        .M                                          3136.8164 :STOP DEPTH
STEP        .M                                             0.1250 :STEP
NULL        .                                           -999.2500 :NULL VALUE
COMP        .                                             STATOIL :COMPANY
WELL        .                                       6608/10-D-4 H :WELL
FLD         .                                               NORNE :FIELD
LOC         .                                             UNKNOWN :LOCATION
CNTY        .                                             UNKNOWN :COUNTY
STAT        .                                             UNKNOWN :STATE
CTRY        .                                              Norway :COUNTRY
SRVC        .                                             UNKNOWN :SERVICE COMPANY
DATE        .                                             UNKNOWN :LOG DATE
UWI         .                                    NO 6608/10-D-4 H :UNIQUE WELL ID
XCOORD      .                                       457259.082734 :SURFACE X
YCOORD      .                                      7321952.911776 :SURFACE Y
LAT         .                                           66.013783 :LATITUDE
LON         .                                            8.057803 :LONGITUDE
ELEV        .M                                            22.0000 :SURFACE ELEV
ELEV_TYPE   .                                                  KB :ELEV TYPE
~CURVE INFORMATION
#MNEMONIC.UNIT        API CODE       : CURVE DESCRIPTION
#------------------------------------------------------------------------------
DEPTH    .M                          : Measured Depth
TVD      .M                          : True Vertical Depth (TVD)
TVDSS    .M                          : True Vertical Depth (TVDSS)
DT       .us/ft                      : DT:UNKNOWN:rC:NONE:v1 
DTS      .us/ft                      : DTS:UNKNOWN:rC:NONE:v1 
GR       .API                        : GR:UNKNOWN:rC:NONE:v1 
KLOGH    .mD          UNKNOWN        : KLOGH:UNKNOWN:rC::v0 (auto-composite)
NPHI     .v/v_decimal                : NPHI:UNKNOWN:rC:NONE:v1 
PHIF     .v/v_decimal UNKNOWN        : PHIF:UNKNOWN:rC::v0 (auto-composite)
RHOB     .g/cm3                      : RHOB:UNKNOWN:rC:NONE:v1 
SW       .v/v_decimal UNKNOWN        : SW:UNKNOWN:rC::v0 (auto-composite)
VSH      .v/v_decimal UNKNOWN        : VSH:UNKNOWN:rC::v0 (auto-composite)
~A     DEPTH         TVD       TVDSS           DT          DTS           GR        KLOGH         NPHI         PHIF         RHOB           SW          VSH
# ...
   2725.6914   2589.4685  -2567.4685     115.3873     192.7061      94.7567     722.4249       0.2169       0.3112       2.1552       0.1448       0.2831
   2725.8164   2589.5657  -2567.5657     115.3824     193.6948      95.2236     504.9731       0.2204       0.2972       2.1782       0.1606       0.2894
   2725.9414   2589.6628  -2567.6628     115.6930     195.9705      95.2391     343.6304       0.2226       0.2815       2.2042       0.1839       0.2896
   2726.0664   2589.7603  -2567.7603     116.6932     200.1135      95.1802     259.3542       0.2246       0.2712       2.2212       0.2056       0.2888
   2726.1914   2589.8574  -2567.8574     118.5462     203.8666      95.2187     234.0495       0.2282       0.2675       2.2256       0.2190       0.2893
   2726.3164   2589.9546  -2567.9546     121.1356     206.3996      95.4994     237.8337       0.2347       0.2681       2.2190       0.2232       0.2931
   2726.4414   2590.0518  -2568.0518     124.0645     208.8653      96.1340     239.1390       0.2444       0.2683       2.2076       0.2231       0.3018
   2726.5664   2590.1489  -2568.1489     126.7287     209.7802      96.9947     258.3277       0.2584       0.2714       2.1977       0.2184       0.3135
   2726.6914   2590.2461  -2568.2461     128.2331     210.6944      97.3563     303.5170       0.2750       0.2775       2.1852       0.2106       0.3185
   2726.8164   2590.3433  -2568.3433     127.7221     211.6075      96.7636     383.7888       0.2880       0.2864       2.1691       0.2005       0.3104
   2726.9414   2590.4407  -2568.4407     124.5364     212.5210      95.3401     698.1531       0.2926       0.2965       2.1504       0.1906       0.2910
   2727.0664   2590.5378  -2568.5378     118.5995     212.8371      93.5037    1347.3947       0.2860       0.3069       2.1325       0.1829       0.2660
   2727.1914   2590.6350  -2568.6350     111.0729     210.1450      91.8274    1967.3092       0.2685       0.3189       2.1235       0.1779       0.2431
   2727.3164   2590.7322  -2568.7322     103.2183     202.0751      90.6680    2000.0000       0.2511       0.3239       2.1300       0.1786       0.2273
   2727.4414   2590.8293  -2568.8293      96.1758     192.1619      89.2498    1003.6036       0.2428       0.2972       2.1499       0.1934       0.2080
   2727.5664   2590.9265  -2568.9265      91.2560     184.4401      87.1377     205.3489       0.2431       0.2575       2.1796       0.2175       0.1792
   2727.6914   2591.0239  -2569.0239      88.7252     180.2946      84.4654      22.3018       0.2476       0.2216       2.2128       0.2426       0.1427
   2727.8164   2591.1211  -2569.1211      87.9251     178.5165      81.9242       6.4661       0.2493       0.1994       2.2418       0.2587       0.1081
   2727.9414   2591.2183  -2569.2183      89.0213     178.2679      80.9880       4.1087       0.2438       0.1901       2.2533       0.2627       0.0953
   2728.0664   2591.3154  -2569.3154      91.2117     178.2464      82.1500       4.4503       0.2386       0.1920       2.2445       0.2577       0.1111
   2728.1914   2591.4126  -2569.4126      93.7003     178.3448      84.7820       7.4725       0.2342       0.2011       2.2239       0.2495       0.1471
   2728.3164   2591.5098  -2569.5098      96.0207     178.5879      88.2212      17.5459       0.2287       0.2162       2.1958       0.2397       0.1940
   2728.4414   2591.6069  -2569.6069      97.9270     178.9771      91.7375      58.0947       0.2194       0.2374       2.1632       0.2271       0.2419
   2728.5664   2591.7043  -2569.7043      99.4786     179.3915      94.5847     191.7221       0.2026       0.2670       2.1279       0.2075       0.2807
   2728.6914   2591.8015  -2569.8015     100.8359     179.4564      96.1820    1638.4445       0.1778       0.3108       2.0974       0.1831       0.3025
   2728.8164   2591.8987  -2569.8987     102.0415     179.1932      97.3708    2000.0000       0.1566       0.3274       2.0782       0.1685       0.3187
   2728.9414   2591.9958  -2569.9958     102.8913     178.8351      98.5331    2000.0000       0.1438       0.3248       2.0741       0.1611       0.3346
   2729.0664   2592.0930  -2570.0930     103.2552     178.5854      99.8799    1883.3812       0.1413       0.3149       2.0861       0.1583       0.3529
   2729.1914   2592.1902  -2570.1902     103.1277     178.5758     101.3697    1494.5300       0.1481       0.3083       2.1120       0.1583       0.3732
   2729.3164   2592.2874  -2570.2874     102.8077     178.7579     102.1451     918.3080       0.1604       0.2984       2.1432       0.1650       0.3838
   2729.4414   2592.3848  -2570.3848     102.7726     178.8399     100.9106     686.0322       0.1719       0.2927       2.1585       0.1807       0.3670
   2729.5664   2592.4819  -2570.4819     103.0709     178.7300      97.8455     551.8778       0.1783       0.2885       2.1538       0.2012       0.3252
   2729.6914   2592.5791  -2570.5791     103.5945     178.5254      93.6096     504.4843       0.1787       0.2868       2.1326       0.2197       0.2674
   2729.8164   2592.6763  -2570.6763     104.2064     178.3804      89.2768     535.3809       0.1743       0.2880       2.1052       0.2295       0.2083
   2729.9414   2592.7734  -2570.7734     104.7960     178.4590      86.2780     569.5146       0.1692       0.2892       2.0880       0.2253       0.1674
   2730.0664   2592.8706  -2570.8706     105.3345     178.6949      86.7688     508.2808       0.1689       0.2869       2.0962       0.2158       0.1741
   2730.1914   2592.9680  -2570.9680     105.8353     178.7710      89.4517     484.2461       0.1739       0.2860       2.1166       0.2091       0.2108
   2730.3164   2593.0652  -2571.0652     106.2946     178.5842      92.9079     527.1907       0.1812       0.2875       2.1362       0.1998       0.2579
   2730.4414   2593.1624  -2571.1624     106.6951     178.2014      95.9515     617.5786       0.1883       0.2907       2.1495       0.1906       0.2993
   2730.5664   2593.2595  -2571.2595     107.0114     177.8276      97.6937     687.4261       0.1931       0.2929       2.1566       0.1868       0.3231
   2730.6914   2593.3567  -2571.3567     107.1985     177.8645      97.5715     564.3080       0.1965       0.2890       2.1615       0.1879       0.3215
   2730.8164   2593.4539  -2571.4539     107.2843     178.4033      96.2370     474.2544       0.2005       0.2855       2.1657       0.1899       0.3032
   2730.9414   2593.5510  -2571.5510     107.3862     179.1791      95.1908     504.9836       0.2050       0.2867       2.1642       0.1907       0.2889
   2731.0664   2593.6484  -2571.6484     107.5856     180.0582      95.0331     642.2525       0.2075       0.2913       2.1566       0.1918       0.2868
   2731.1914   2593.7456  -2571.7456     107.9327     180.9636      95.8498     814.6351       0.2060       0.2963       2.1456       0.1946       0.2980
   2731.3164   2593.8428  -2571.8428     108.4335     181.8911      97.1834     903.5459       0.1994       0.2984       2.1359       0.2003       0.3161
   2731.4414   2593.9399  -2571.9399     108.9955     183.0218      97.9809     802.8259       0.1901       0.2961       2.1335       0.2065       0.3270
   2731.5664   2594.0371  -2572.0371     109.4579     184.3323      97.5809     759.4738       0.1840       0.2950       2.1323       0.2108       0.3216
   2731.6914   2594.1343  -2572.1343     109.7648     185.5878      96.1284     835.1764       0.1817       0.2968       2.1252       0.2092       0.3018
   2731.8164   2594.2314  -2572.2314     109.8954     186.5150      94.1267    1116.3041       0.1819       0.3021       2.1110       0.2033       0.2745
   2731.9414   2594.3289  -2572.3289     109.8509     186.8266      92.3635    1601.1534       0.1823       0.3104       2.0930       0.1967       0.2504
   2732.0664   2594.4260  -2572.4260     109.6269     186.1743      92.0386    1975.1635       0.1818       0.3182       2.0799       0.1923       0.2460
