#------------------------------------------------------------------------------
#
#   Created by  : [OpenWorks] Log Export Utility (LEXP)
#   Created on  : 2007-05-07 11:57:11
#   Project     : NORNE
#   User        : JSE
#   Interpreter : JSE
#
#------------------------------------------------------------------------------
~VERSION INFORMATION
VERS. 2.0 : CWLS Log ASCII Standard - version 2.0
WRAP.  NO : One line per depth step
~WELL INFORMATION
#MNEMONIC   .UNIT                                           VALUE :DESCRIPTION
#------------------------------------------------------------------------------
STRT        .M                                          1205.1348 :START DEPTH
STOP        .M                                          4417.7598 :STOP DEPTH
STEP        .M                                             0.1250 :STEP
NULL        .                                           -999.2500 :NULL VALUE
COMP        .                                             STATOIL :COMPANY
WELL        .                                       6608/10-C-2 H :WELL
FLD         .                                               NORNE :FIELD
LOC         .                                             UNKNOWN :LOCATION
CNTY        .                                             UNKNOWN :COUNTY
STAT        .                                             UNKNOWN :STATE
CTRY        .                                              Norway :COUNTRY
SRVC        .                                             UNKNOWN :SERVICE COMPANY
DATE        .                                             UNKNOWN :LOG DATE
UWI         .                                    NO 6608/10-C-2 H :UNIQUE WELL ID
XCOORD      .                                       457185.617758 :SURFACE X
YCOORD      .                                      7322019.729827 :SURFACE Y
LAT         .                                           66.014372 :LATITUDE
LON         .                                            8.056161 :LONGITUDE
ELEV        .M                                            22.0000 :SURFACE ELEV
ELEV_TYPE   .                                                  KB :ELEV TYPE
~CURVE INFORMATION
#MNEMONIC.UNIT        API CODE       : CURVE DESCRIPTION
#------------------------------------------------------------------------------
DEPTH    .M                          : Measured Depth
TVD      .M                          : True Vertical Depth (TVD)
TVDSS    .M                          : True Vertical Depth (TVDSS)
DT       .us/ft       UNKNOWN        : DT:DT:rC::v0 (auto-composite)
DTS      .us/ft       UNKNOWN        : DTS:DTS:rC::v0 (auto-composite)
GR       .API         UNKNOWN        : GR:GR:rC::v0 (auto-composite)
KLOGH    .mD          UNKNOWN        : KLOGH:UNKNOWN:rC:NONE:v1 
NPHI     .v/v_decimal UNKNOWN        : NPHI:NPHI:rC::v0 (auto-composite)
PHIF     .v/v_decimal UNKNOWN        : PHIF:PHIF:rC::v0 (auto-composite)
SW       .v/v_decimal UNKNOWN        : SW:SW:rC::v0 (auto-composite)
VSH      .v/v_decimal UNKNOWN        : VSH:VSH:rC::v0 (auto-composite)
~A     DEPTH         TVD       TVDSS           DT          DTS           GR        KLOGH         NPHI         PHIF           SW          VSH
# ...
   4162.0098   2750.5999  -2728.5999      86.4050     148.7812      82.9315       0.7860       0.2155       0.1241       1.0000       0.3286
   4162.1348   2750.6746  -2728.6746      86.4737     148.7366      83.0681       0.4994       0.2059       0.1138       1.0000       0.3302
   4162.2598   2750.7490  -2728.7490      86.2605     149.1066      80.6832       0.8368       0.2021       0.1212       1.0000       0.3022
   4162.3848   2750.8237  -2728.8237      85.8826     149.6878      76.6118       2.3238       0.2070       0.1453       1.0000       0.2543
   4162.5098   2750.8984  -2728.8984      85.5043     150.3083      74.9161       5.1795       0.2205       0.1667       0.9895       0.2343
   4162.6348   2750.9729  -2728.9729      85.2524     150.8400      76.4550       6.7358       0.2335       0.1725       0.8318       0.2524
   4162.7598   2751.0476  -2729.0476      85.1104     151.2569      75.3869      11.1052       0.2389       0.1829       0.8793       0.2398
   4162.8848   2751.1221  -2729.1221      85.1016     151.6610      71.7927      22.2573       0.2362       0.1972       0.9341       0.1976
   4163.0098   2751.1968  -2729.1968      85.3366     152.2072      68.1479      29.8948       0.2277       0.2058       0.9568       0.1547
   4163.1348   2751.2712  -2729.2712      85.9305     153.0842      66.8818      25.1130       0.2169       0.2010       0.9647       0.1398
   4163.2598   2751.3459  -2729.3459      86.9676     154.5217      68.5964      11.7204       0.2087       0.1847       0.9991       0.1600
   4163.3848   2751.4204  -2729.4204      88.2737     156.6735      69.8804       8.8802       0.2086       0.1786       1.0000       0.1751
   4163.5098   2751.4951  -2729.4951      89.5182     159.2175      71.3438       7.5453       0.2120       0.1751       1.0000       0.1923
   4163.6348   2751.5698  -2729.5698      90.6136     161.9395      71.8302       8.0321       0.2156       0.1764       1.0000       0.1980
   4163.7598   2751.6443  -2729.6443      91.5180     164.6263      71.9659       8.6748       0.2180       0.1781       1.0000       0.1996
   4163.8848   2751.7190  -2729.7190      92.2205     167.0835      73.3367       6.8991       0.2192       0.1729       1.0000       0.2157
   4164.0098   2751.7935  -2729.7935      92.6627     169.1266      75.1176       4.3789       0.2173       0.1626       1.0000       0.2367
   4164.1348   2751.8682  -2729.8682      92.8451     170.6528      74.1414       4.6387       0.2143       0.1642       1.0000       0.2252
   4164.2598   2751.9426  -2729.9426      92.8180     171.6824      72.7582       5.9628       0.2131       0.1696       1.0000       0.2089
   4164.3848   2752.0173  -2730.0173      92.6285     172.2626      70.8055      10.1027       0.2142       0.1798       0.9795       0.1859
   4164.5098   2752.0918  -2730.0918      92.3360     172.5134      69.7823      13.9333       0.2169       0.1873       0.9532       0.1739
   4164.6348   2752.1665  -2730.1665      92.0070     172.6340      74.6617       5.3346       0.2200       0.1674       1.0000       0.2313
   4164.7598   2752.2412  -2730.2412      91.7355     172.8965      69.8011      17.5973       0.2215       0.1918       0.9374       0.1741
   4164.8848   2752.3157  -2730.3157      91.5921     173.3281      70.3998      14.3345       0.2209       0.1885       0.9714       0.1812
   4165.0098   2752.3904  -2730.3904      91.6266     173.8384      71.9668       8.9533       0.2181       0.1782       0.9990       0.1996
   4165.1348   2752.4648  -2730.4648      91.8750     174.3644      72.2555       7.0085       0.2146       0.1734       1.0000       0.2030
   4165.2598   2752.5396  -2730.5396      92.3533     174.8961      70.9224       9.2641       0.2138       0.1789       1.0000       0.1873
   4165.3848   2752.6140  -2730.6140      93.0582     175.5820      69.6972      17.9951       0.2232       0.1941       1.0000       0.1729
   4165.5098   2752.6887  -2730.6887      93.9533     176.6567      65.6012     147.2596       0.2438       0.2339       0.9683       0.1247
   4165.6348   2752.7632  -2730.7632      94.9924     178.1312      61.7548     920.4210       0.2647       0.2729       0.9133       0.0795
   4165.7598   2752.8379  -2730.8379      96.1301     179.9236      59.5573    1912.8101       0.2791       0.2977       0.8761       0.0536
   4165.8848   2752.9126  -2730.9126      97.3004     181.8936      59.4086    2330.1831       0.2829       0.3021       0.8826       0.0519
   4166.0098   2752.9871  -2730.9871      98.4181     183.8629      60.4228    1296.7634       0.2755       0.2897       0.9262       0.0644
   4166.1348   2753.0618  -2731.0618      99.3349     185.5395      53.8170    2188.5964       0.2652       0.3010       0.9204       0.0104
   4166.2598   2753.1362  -2731.1362     100.0448     186.8283      49.3118    2243.6714       0.2620       0.3020       0.9363       0.0000
   4166.3848   2753.2109  -2731.2109     100.5444     187.6692      47.5117    2708.1826       0.2658       0.3058       0.9413       0.0000
   4166.5098   2753.2854  -2731.2854     100.8399     188.0165      47.2869    3692.3845       0.2729       0.3128       0.9346       0.0000
   4166.6348   2753.3601  -2731.3601     100.9394     187.8462      47.6217    4658.8423       0.2783       0.3183       0.9307       0.0000
   4166.7598   2753.4346  -2731.4346     100.8138     187.1135      50.7705    4562.0005       0.2779       0.3179       0.9486       0.0000
   4166.8848   2753.5093  -2731.5093     100.3710     185.7713      53.8244    4411.6533       0.2771       0.3171       0.9622       0.0000
   4167.0098   2753.5837  -2731.5837      99.6643     183.9723      53.0609    4772.3354       0.2788       0.3188       0.9480       0.0000
   4167.1348   2753.6584  -2731.6584      98.7249     181.8129      50.9796    6515.6250       0.2850       0.3250       0.9156       0.0000
   4167.2598   2753.7332  -2731.7332      97.5932     179.4288      49.9441    8961.9463       0.2962       0.3362       0.8751       0.0000
   4167.3848   2753.8076  -2731.8076      96.3175     176.9920      51.1695   10000.0000       0.3104       0.3504       0.8330       0.0000
   4167.5098   2753.8823  -2731.8823      94.9729     174.7976      54.3958   10000.0000       0.3155       0.3555       0.8048       0.0000
   4167.6348   2753.9568  -2731.9568      93.7011     173.0097      51.4336   10000.0000       0.3080       0.3480       0.7914       0.0000
   4167.7598   2754.0315  -2732.0315      92.6418     171.6646      50.0738    7848.0737       0.2935       0.3335       0.8014       0.0000
   4167.8848   2754.1060  -2732.1060      91.8983     170.7867      49.0680    4854.3325       0.2783       0.3183       0.8393       0.0000
   4168.0098   2754.1807  -2732.1807      91.5444     170.3940      46.8136    2961.6462       0.2682       0.3082       0.8947       0.0000
   4168.1348   2754.2551  -2732.2551      91.6437     170.5532      48.7297    2684.6914       0.2660       0.3060       0.9245       0.0000
   4168.2598   2754.3298  -2732.3298      92.2008     171.4269      51.5445    3070.8757       0.2690       0.3090       0.9131       0.0000
   4168.3848   2754.4045  -2732.4045      93.0177     172.8531      51.4452    3144.6228       0.2696       0.3096       0.9048       0.0000
   4168.5098   2754.4790  -2732.4790      93.9949     174.7277      50.4488    2703.8271       0.2658       0.3058       0.9119       0.0000
   4168.6348   2754.5537  -2732.5537      95.0197     176.8990      48.7290    2058.8774       0.2601       0.3001       0.9327       0.0000
   4168.7598   2754.6282  -2732.6282      95.9789     179.1804      45.4933    1835.3842       0.2575       0.2975       0.9547       0.0000
   4168.8848   2754.7029  -2732.7029      96.7715     181.3096      47.7235    2178.6628       0.2613       0.3013       0.9643       0.0000
   4169.0098   2754.7773  -2732.7773      97.3801     183.0566      48.9189    3549.8281       0.2715       0.3115       0.9677       0.0000
