#------------------------------------------------------------------------------
#
#   Created by  : [OpenWorks] Log Export Utility (LEXP)
#   Created on  : 2007-05-07 11:57:11
#   Project     : NORNE
#   User        : JSE
#   Interpreter : JSE
#
#------------------------------------------------------------------------------
~VERSION INFORMATION
VERS. 2.0 : CWLS Log ASCII Standard - version 2.0
WRAP.  NO : One line per depth step
~WELL INFORMATION
#MNEMONIC   .UNIT                                           VALUE :DESCRIPTION
#------------------------------------------------------------------------------
STRT        .M                                          1205.1348 :START DEPTH
STOP        .M                                          4417.7598 :STOP DEPTH
STEP        .M                                             0.1250 :STEP
NULL        .                                           -999.2500 :NULL VALUE
COMP        .                                             STATOIL :COMPANY
WELL        .                                       6608/10-C-2 H :WELL
FLD         .                                               NORNE :FIELD
LOC         .                                             UNKNOWN :LOCATION
CNTY        .                                             UNKNOWN :COUNTY
STAT        .                                             UNKNOWN :STATE
CTRY        .                                              Norway :COUNTRY
SRVC        .                                             UNKNOWN :SERVICE COMPANY
DATE        .                                             UNKNOWN :LOG DATE
UWI         .                                    NO 6608/10-C-2 H :UNIQUE WELL ID
XCOORD      .                                       457185.617758 :SURFACE X
YCOORD      .                                      7322019.729827 :SURFACE Y
LAT         .                                           66.014372 :LATITUDE
LON         .                                            8.056161 :LONGITUDE
ELEV        .M                                            22.0000 :SURFACE ELEV
ELEV_TYPE   .                                                  KB :ELEV TYPE
~CURVE INFORMATION
#MNEMONIC.UNIT        API CODE       : CURVE DESCRIPTION
#------------------------------------------------------------------------------
DEPTH    .M                          : Measured Depth
TVD      .M                          : True Vertical Depth (TVD)
TVDSS    .M                          : True Vertical Depth (TVDSS)
DT       .us/ft       UNKNOWN        : DT:DT:rC::v0 (auto-composite)
DTS      .us/ft       UNKNOWN        : DTS:DTS:rC::v0 (auto-composite)
GR       .API         UNKNOWN        : GR:GR:rC::v0 (auto-composite)
KLOGH    .mD          UNKNOWN        : KLOGH:UNKNOWN:rC:NONE:v1 
NPHI     .v/v_decimal UNKNOWN        : NPHI:NPHI:rC::v0 (auto-composite)
PHIF     .v/v_decimal UNKNOWN        : PHIF:PHIF:rC::v0 (auto-composite)
SW       .v/v_decimal UNKNOWN        : SW:SW:rC::v0 (auto-composite)
VSH      .v/v_decimal UNKNOWN        : VSH:VSH:rC::v0 (auto-composite)
~A     DEPTH         TVD       TVDSS           DT          DTS           GR        KLOGH         NPHI         PHIF           SW          VSH
# ...
   3777.2598   2549.6558  -2527.6558    -999.2500     235.2024     108.3709    -999.2500       0.5884    -999.2500    -999.2500    -999.2500
   3777.3848   2549.7109  -2527.7109    -999.2500     236.0000     110.3030    -999.2500       0.5901    -999.2500    -999.2500    -999.2500
   3777.5098   2549.7661  -2527.7661    -999.2500     237.0908     115.6330    -999.2500       0.5382    -999.2500    -999.2500    -999.2500
   3777.6348   2549.8213  -2527.8213    -999.2500     238.2760     116.2292    -999.2500       0.4951    -999.2500    -999.2500    -999.2500
   3777.7598   2549.8765  -2527.8765    -999.2500     239.4091     115.2858    -999.2500       0.4863    -999.2500    -999.2500    -999.2500
   3777.8848   2549.9316  -2527.9316    -999.2500     240.3695     113.5495    -999.2500       0.5156    -999.2500    -999.2500    -999.2500
   3778.0098   2549.9868  -2527.9868    -999.2500     241.0561     110.6352    -999.2500       0.5650    -999.2500    -999.2500    -999.2500
   3778.1348   2550.0420  -2528.0420    -999.2500     241.3403     110.1978    -999.2500       0.5754    -999.2500    -999.2500    -999.2500
   3778.2598   2550.0969  -2528.0969    -999.2500     241.1248     114.3331    -999.2500       0.5322    -999.2500    -999.2500    -999.2500
   3778.3848   2550.1521  -2528.1521    -999.2500     240.4481     117.8881    -999.2500       0.4915    -999.2500    -999.2500    -999.2500
   3778.5098   2550.2073  -2528.2073    -999.2500     239.3556     121.8028    -999.2500       0.4879    -999.2500    -999.2500    -999.2500
   3778.6348   2550.2625  -2528.2625    -999.2500     237.9588     123.6831    -999.2500       0.5387    -999.2500    -999.2500    -999.2500
   3778.7598   2550.3176  -2528.3176    -999.2500     236.4600     115.2758    -999.2500       0.6376    -999.2500    -999.2500    -999.2500
   3778.8848   2550.3728  -2528.3728    -999.2500     235.1505     106.6815    -999.2500       0.7226    -999.2500    -999.2500    -999.2500
   3779.0098   2550.4280  -2528.4280    -999.2500     234.2681     105.3222    -999.2500       0.7499    -999.2500    -999.2500    -999.2500
   3779.1348   2550.4832  -2528.4832    -999.2500     233.8400     104.9209    -999.2500       0.7241    -999.2500    -999.2500    -999.2500
   3779.2598   2550.5383  -2528.5383    -999.2500     233.8472     103.2930    -999.2500       0.6641    -999.2500    -999.2500    -999.2500
   3779.3848   2550.5935  -2528.5935    -999.2500     234.2288     100.9962    -999.2500       0.5961    -999.2500    -999.2500    -999.2500
   3779.5098   2550.6487  -2528.6487    -999.2500     234.9366     101.1185    -999.2500       0.5453    -999.2500    -999.2500    -999.2500
   3779.6348   2550.7039  -2528.7039    -999.2500     235.8543     106.3663    -999.2500       0.5331    -999.2500    -999.2500    -999.2500
   3779.7598   2550.7590  -2528.7590    -999.2500     236.8245     108.6367    -999.2500       0.5521    -999.2500    -999.2500    -999.2500
   3779.8848   2550.8142  -2528.8142    -999.2500     237.7361     114.3125    -999.2500       0.5805    -999.2500    -999.2500    -999.2500
   3780.0098   2550.8691  -2528.8691    -999.2500     238.5014     122.8554    -999.2500       0.5963    -999.2500    -999.2500    -999.2500
   3780.1348   2550.9243  -2528.9243    -999.2500     239.0654     124.3722    -999.2500       0.5828    -999.2500    -999.2500    -999.2500
   3780.2598   2550.9795  -2528.9795    -999.2500     239.3575     125.1562    -999.2500       0.5285    -999.2500    -999.2500    -999.2500
   3780.3848   2551.0347  -2529.0347    -999.2500     239.3851     126.9863    -999.2500       0.4681    -999.2500    -999.2500    -999.2500
   3780.5098   2551.0898  -2529.0898    -999.2500     239.1227     130.3206    -999.2500       0.4272    -999.2500    -999.2500    -999.2500
   3780.6348   2551.1450  -2529.1450    -999.2500     238.5868     133.8601    -999.2500       0.4152    -999.2500    -999.2500    -999.2500
   3780.7598   2551.2002  -2529.2002    -999.2500     237.8524     135.6184    -999.2500       0.4296    -999.2500    -999.2500    -999.2500
   3780.8848   2551.2554  -2529.2554    -999.2500     237.0930     133.5705    -999.2500       0.4555    -999.2500    -999.2500    -999.2500
   3781.0098   2551.3105  -2529.3105    -999.2500     236.5353     133.1494    -999.2500       0.4745    -999.2500    -999.2500    -999.2500
   3781.1348   2551.3657  -2529.3657    -999.2500     236.2239     128.8798    -999.2500       0.4865    -999.2500    -999.2500    -999.2500
   3781.2598   2551.4209  -2529.4209    -999.2500     236.1713     124.1719    -999.2500       0.4913    -999.2500    -999.2500    -999.2500
   3781.3848   2551.4761  -2529.4761    -999.2500     236.3621     120.6385    -999.2500       0.4889    -999.2500    -999.2500    -999.2500
   3781.5098   2551.5312  -2529.5312    -999.2500     236.7585     117.4871    -999.2500       0.4801    -999.2500    -999.2500    -999.2500
   3781.6348   2551.5864  -2529.5864    -999.2500     237.3377     114.3528    -999.2500       0.4734    -999.2500    -999.2500    -999.2500
   3781.7598   2551.6414  -2529.6414    -999.2500     237.9775     108.8910    -999.2500       0.4801    -999.2500    -999.2500    -999.2500
   3781.8848   2551.6965  -2529.6965    -999.2500     238.5028     106.2255    -999.2500       0.5025    -999.2500    -999.2500    -999.2500
   3782.0098   2551.7517  -2529.7517    -999.2500     238.8456     100.3005    -999.2500       0.5349    -999.2500    -999.2500    -999.2500
   3782.1348   2551.8069  -2529.8069    -999.2500     239.0059      89.1557    -999.2500       0.5695    -999.2500    -999.2500    -999.2500
   3782.2598   2551.8621  -2529.8621    -999.2500     239.0526      87.2642    -999.2500       0.6003    -999.2500    -999.2500    -999.2500
   3782.3848   2551.9172  -2529.9172    -999.2500     238.8246      87.9788    -999.2500       0.6254    -999.2500    -999.2500    -999.2500
   3782.5098   2551.9724  -2529.9724    -999.2500     238.3822      89.4373    -999.2500       0.6301    -999.2500    -999.2500    -999.2500
   3782.6348   2552.0276  -2530.0276    -999.2500     237.8636      90.3389    -999.2500       0.6374    -999.2500    -999.2500    -999.2500
   3782.7598   2552.0828  -2530.0828    -999.2500     237.3518      93.8238    -999.2500       0.6731    -999.2500    -999.2500    -999.2500
   3782.8848   2552.1379  -2530.1379    -999.2500     236.8878     104.0613    -999.2500       0.7545    -999.2500    -999.2500    -999.2500
   3783.0098   2552.1931  -2530.1931    -999.2500     236.5866     110.8547    -999.2500       0.8531    -999.2500    -999.2500    -999.2500
   3783.1348   2552.2483  -2530.2483    -999.2500     236.1075     116.9862    -999.2500       0.8807    -999.2500    -999.2500    -999.2500
   3783.2598   2552.3035  -2530.3035    -999.2500     235.4133     123.6622    -999.2500       0.8112    -999.2500    -999.2500    -999.2500
   3783.3848   2552.3586  -2530.3586    -999.2500     234.6867     127.9847    -999.2500       0.6703    -999.2500    -999.2500    -999.2500
   3783.5098   2552.4136  -2530.4136    -999.2500     234.1171     128.6573    -999.2500       0.5077    -999.2500    -999.2500    -999.2500
   3783.6348   2552.4688  -2530.4688    -999.2500     233.8030     128.6337    -999.2500       0.3853    -999.2500    -999.2500    -999.2500
   3783.7598   2552.5239  -2530.5239    -999.2500     233.4632     128.9395    -999.2500       0.3739    -999.2500    -999.2500    -999.2500
   3783.8848   2552.5791  -2530.5791    -999.2500     232.7882     129.2819    -999.2500       0.4093    -999.2500    -999.2500    -999.2500
   3784.0098   2552.6343  -2530.6343    -999.2500     232.0831     128.9453    -999.2500       0.4517    -999.2500    -999.2500    -999.2500
   3784.1348   2552.6895  -2530.6895    -999.2500     231.6806     127.9033    -999.2500       0.4970    -999.2500    -999.2500    -999.2500
   3784.2598   2552.7446  -2530.7446    -999.2500     231.9021     126.8797    -999.2500       0.5626    -999.2500    -999.2500    -999.2500
