#------------------------------------------------------------------------------
#
#   Created by  : [OpenWorks] Log Export Utility (LEXP)
#   Created on  : 2007-05-07 11:57:11
#   Project     : NORNE
#   User        : JSE
#   Interpreter : JSE
#
#------------------------------------------------------------------------------
~VERSION INFORMATION
VERS. 2.0 : CWLS Log ASCII Standard - version 2.0
WRAP.  NO : One line per depth step
~WELL INFORMATION
#MNEMONIC   .UNIT                                           VALUE :DESCRIPTION
#------------------------------------------------------------------------------
STRT        .M                                          1205.1348 :START DEPTH
STOP        .M                                          4417.7598 :STOP DEPTH
STEP        .M                                             0.1250 :STEP
NULL        .                                           -999.2500 :NULL VALUE
COMP        .                                             STATOIL :COMPANY
WELL        .                                       6608/10-C-2 H :WELL
FLD         .                                               NORNE :FIELD
LOC         .                                             UNKNOWN :LOCATION
CNTY        .                                             UNKNOWN :COUNTY
STAT        .                                             UNKNOWN :STATE
CTRY        .                                              Norway :COUNTRY
SRVC        .                                             UNKNOWN :SERVICE COMPANY
DATE        .                                             UNKNOWN :LOG DATE
UWI         .                                    NO 6608/10-C-2 H :UNIQUE WELL ID
XCOORD      .                                       457185.617758 :SURFACE X
YCOORD      .                                      7322019.729827 :SURFACE Y
LAT         .                                           66.014372 :LATITUDE
LON         .                                            8.056161 :LONGITUDE
ELEV        .M                                            22.0000 :SURFACE ELEV
ELEV_TYPE   .                                                  KB :ELEV TYPE
~CURVE INFORMATION
#MNEMONIC.UNIT        API CODE       : CURVE DESCRIPTION
#------------------------------------------------------------------------------
DEPTH    .M                          : Measured Depth
TVD      .M                          : True Vertical Depth (TVD)
TVDSS    .M                          : True Vertical Depth (TVDSS)
DT       .us/ft       UNKNOWN        : DT:DT:rC::v0 (auto-composite)
DTS      .us/ft       UNKNOWN        : DTS:DTS:rC::v0 (auto-composite)
GR       .API         UNKNOWN        : GR:GR:rC::v0 (auto-composite)
KLOGH    .mD          UNKNOWN        : KLOGH:UNKNOWN:rC:NONE:v1 
NPHI     .v/v_decimal UNKNOWN        : NPHI:NPHI:rC::v0 (auto-composite)
PHIF     .v/v_decimal UNKNOWN        : PHIF:PHIF:rC::v0 (auto-composite)
SW       .v/v_decimal UNKNOWN        : SW:SW:rC::v0 (auto-composite)
VSH      .v/v_decimal UNKNOWN        : VSH:VSH:rC::v0 (auto-composite)
~A     DEPTH         TVD       TVDSS           DT          DTS           GR        KLOGH         NPHI         PHIF           SW          VSH
# ...
   4261.7598   2812.6013  -2790.6013      73.0878     131.5507      75.3246       0.0273       0.1101       0.0489       1.0000       0.2532
   4261.8848   2812.6812  -2790.6812      71.3816     129.7625      70.5756       0.0175       0.0820       0.0397       1.0000       0.2058
   4262.0098   2812.7612  -2790.7612      70.3888     128.4391      63.9136       0.0254       0.0638       0.0481       1.0000       0.1391
   4262.1348   2812.8411  -2790.8411      70.1626     127.7129      61.0744       0.0401       0.0622       0.0579       1.0000       0.1107
   4262.2598   2812.9209  -2790.9209      70.6244     127.5644      62.4187       0.0531       0.0742       0.0645       1.0000       0.1242
   4262.3848   2813.0010  -2791.0010      71.5928     127.9354      66.2336       0.0731       0.0962       0.0713       1.0000       0.1623
   4262.5098   2813.0808  -2791.0808      72.7039     128.7068      71.6499       0.0958       0.1244       0.0778       1.0000       0.2165
   4262.6348   2813.1609  -2791.1609      73.4661     129.7135      79.0204       0.1014       0.1550       0.0790       1.0000       0.2902
   4262.7598   2813.2407  -2791.2407      73.5037     130.7465      88.6698       0.0627       0.1825       0.0679       1.0000       0.3867
   4262.8848   2813.3206  -2791.3206      73.2922     131.7235     103.7683       0.0208       0.2025       0.0274       1.0000       0.5377
   4263.0098   2813.4006  -2791.4006      73.1583     132.6853     119.3081       0.0038       0.2200       0.0053       1.0000       0.6931
   4263.1348   2813.4805  -2791.4805      73.2804     133.6477     128.8001       0.0030       0.2423       0.0010       1.0000       0.7880
   4263.2598   2813.5605  -2791.5605      73.7681     134.6143     128.7281       0.0090       0.2748       0.0096       1.0000       0.7873
   4263.3848   2813.6404  -2791.6404      74.7076     135.5776     124.5260       0.0426       0.3162       0.0585       1.0000       0.7453
   4263.5098   2813.7202  -2791.7202      75.9196     136.4961     119.9692       0.8841       0.3569       0.1171       0.8786       0.6997
   4263.6348   2813.8003  -2791.8003      77.1529     137.6895     108.3417      81.9768       0.3906       0.1972       0.6392       0.5834
   4263.7598   2813.8801  -2791.8801      78.2752     138.8250      92.1598    4340.0439       0.4132       0.2845       0.4460       0.4216
   4263.8848   2813.9602  -2791.9602      79.1060     139.1480      74.3447   10000.0000       0.4212       0.3638       0.3509       0.2434
   4264.0098   2814.0400  -2792.0400      79.4666     137.7148      58.4876   10000.0000       0.4116       0.4176       0.3033       0.0849
   4264.1348   2814.1199  -2792.1199      79.3723     133.8846      57.6224   10000.0000       0.3772       0.3867       0.3069       0.0762
   4264.2598   2814.2000  -2792.2000      79.4655     129.2034      55.4020    6607.9316       0.3203       0.3389       0.3268       0.0540
   4264.3848   2814.2798  -2792.2798      80.0130     125.2743      50.4538    2578.2107       0.2520       0.2835       0.4428       0.0215
   4264.5098   2814.3599  -2792.3599      81.0492     122.6786      46.5968     143.3777       0.1826       0.2226       0.6994       0.0000
   4264.6348   2814.4397  -2792.4397      82.4195     121.3680      46.0552       5.3192       0.1213       0.1613       1.0000       0.0000
   4264.7598   2814.5195  -2792.5195      83.7720     120.6080      45.0581       0.4445       0.0720       0.1120       1.0000       0.0000
   4264.8848   2814.5996  -2792.5996      84.2187     119.5322      40.6488       0.1521       0.0417       0.0817       1.0000       0.0000
   4265.0098   2814.6794  -2792.6794      84.0498     118.5730      37.9094       0.0589       0.0260       0.0660       1.0000       0.0000
   4265.1348   2814.7595  -2792.7595      83.6173     118.1817      37.9941       0.0528       0.0243       0.0643       1.0000       0.0000
   4265.2598   2814.8394  -2792.8394      83.2286     118.3094      39.6086       0.0891       0.0340       0.0740       1.0000       0.0000
   4265.3848   2814.9192  -2792.9192      83.0901     118.5998      40.7477       0.2003       0.0521       0.0921       1.0000       0.0000
   4265.5098   2814.9993  -2792.9993      83.2616     118.8353      44.1709       0.5552       0.0759       0.1159       1.0000       0.0000
   4265.6348   2815.0791  -2793.0791      83.6222     119.3407      47.6292       1.8865       0.1010       0.1410       1.0000       0.0000
   4265.7598   2815.1592  -2793.1592      84.1084     120.5000      48.9494       4.3671       0.1207       0.1607       1.0000       0.0000
   4265.8848   2815.2390  -2793.2390      84.7037     122.5608      52.5635       4.4796       0.1330       0.1604       1.0000       0.0314
   4266.0098   2815.3188  -2793.3188      85.3997     125.5810      58.7949       1.8590       0.1391       0.1439       1.0000       0.0879
   4266.1348   2815.3989  -2793.3989      86.1830     129.3290      60.0000       1.9017       0.1444       0.1444       1.0000       0.1000
   4266.2598   2815.4788  -2793.4788      86.5989     133.7810      68.6399       0.9067       0.1606       0.1260       1.0000       0.1864
   4266.3848   2815.5588  -2793.5588      86.1928     138.2536      72.3884       1.3582       0.1847       0.1352       1.0000       0.2239
   4266.5098   2815.6387  -2793.6387      84.9551     142.8012      73.7024       3.5145       0.2092       0.1544       1.0000       0.2370
   4266.6348   2815.7185  -2793.7185      83.0930     146.9600      72.9167       8.4600       0.2266       0.1750       0.9403       0.2292
   4266.7598   2815.7986  -2793.7986      81.0008     149.9422      69.8201      16.7011       0.2318       0.1925       0.7838       0.1982
   4266.8848   2815.8784  -2793.8784      79.3729     150.3352      66.1202      25.1074       0.2263       0.2018       0.6996       0.1612
   4267.0098   2815.9585  -2793.9585      78.6405     148.1070      65.4045      27.6310       0.2257       0.2041       0.6744       0.1540
   4267.1348   2816.0396  -2794.0396      78.4436     145.0162      72.1693      15.1403       0.2319       0.1832       0.7170       0.2217
   4267.2598   2816.1206  -2794.1206      78.5257     142.4664      79.8158       4.1470       0.2395       0.1603       0.7674       0.2982
   4267.3848   2816.2014  -2794.2014      78.7497     141.3799      83.8313       2.1663       0.2421       0.1468       0.7959       0.3383
   4267.5098   2816.2825  -2794.2825      79.1395     141.9739      84.5903       1.3253       0.2345       0.1361       0.8262       0.3459
   4267.6348   2816.3635  -2794.3635      79.8935     143.3549      85.0771       0.5838       0.2163       0.1160       0.9095       0.3508
   4267.7598   2816.4446  -2794.4446      80.7458     144.1569      81.6523       0.5118       0.2017       0.1151       0.8918       0.3165
   4267.8848   2816.5256  -2794.5256      81.5206     144.5761      76.9236       1.2477       0.1984       0.1307       0.8175       0.2692
   4268.0098   2816.6067  -2794.6067      82.1525     144.8526      73.3903       3.4581       0.2074       0.1538       0.7490       0.2339
   4268.1348   2816.6877  -2794.6877      82.6628     145.2203      72.7002       7.8917       0.2258       0.1750       0.7351       0.2270
   4268.2598   2816.7686  -2794.7686      83.1986     145.8340      74.2447      15.1367       0.2474       0.1904       0.7649       0.2425
   4268.3848   2816.8496  -2794.8496      84.0890     147.5724      78.5804      15.0197       0.2648       0.1905       0.8380       0.2858
   4268.5098   2816.9307  -2794.9307      85.3702     150.3159      82.8791      11.4094       0.2752       0.1837       0.9426       0.3288
   4268.6348   2817.0117  -2795.0117      86.9695     153.6627      83.6644      12.4679       0.2798       0.1852       1.0000       0.3366
   4268.7598   2817.0928  -2795.0928      88.7323     157.0557      81.7455      18.0959       0.2816       0.1946       1.0000       0.3175
