#------------------------------------------------------------------------------
#
#   Created by  : [OpenWorks] Log Export Utility (LEXP)
#   Created on  : 2007-05-07 11:56:53
#   Project     : NORNE
#   User        : JSE
#   Interpreter : JSE
#
#------------------------------------------------------------------------------
~VERSION INFORMATION
VERS. 2.0 : CWLS Log ASCII Standard - version 2.0
WRAP.  NO : One line per depth step
~WELL INFORMATION
#MNEMONIC   .UNIT                                           VALUE :DESCRIPTION
#------------------------------------------------------------------------------
STRT        .M                                           450.6626 :START DEPTH
STOP        .M                                          3861.9126 :STOP DEPTH
STEP        .M                                             0.1250 :STEP
NULL        .                                           -999.2500 :NULL VALUE
COMP        .                                             STATOIL :COMPANY
WELL        .                                       6608/10-B-2 H :WELL
FLD         .                                               NORNE :FIELD
LOC         .                                             UNKNOWN :LOCATION
CNTY        .                                             UNKNOWN :COUNTY
STAT        .                                             UNKNOWN :STATE
CTRY        .                                              Norway :COUNTRY
SRVC        .                                             UNKNOWN :SERVICE COMPANY
DATE        .                                             UNKNOWN :LOG DATE
UWI         .                                    NO 6608/10-B-2 H :UNIQUE WELL ID
XCOORD      .                                       457121.854690 :SURFACE X
YCOORD      .                                      7322122.976330 :SURFACE Y
LAT         .                                           66.015290 :LATITUDE
LON         .                                            8.054722 :LONGITUDE
ELEV        .M                                            25.0000 :SURFACE ELEV
ELEV_TYPE   .                                                  KB :ELEV TYPE
~CURVE INFORMATION
#MNEMONIC.UNIT        API CODE       : CURVE DESCRIPTION
#------------------------------------------------------------------------------
DEPTH    .M                          : Measured Depth
TVD      .M                          : True Vertical Depth (TVD)
TVDSS    .M                          : True Vertical Depth (TVDSS)
DT       .us/ft                      : DT:UNKNOWN:rC:NONE:v1 
GR       .API                        : GR:UNKNOWN:rC:NONE:v1 
KLOGH    .mD                         : KLOGH:UNKNOWN:rC:NONE:v1 
NPHI     .v/v_decimal                : NPHI:UNKNOWN:rC:NONE:v1 
PHIF     .v/v_decimal                : PHIF:UNKNOWN:rC:NONE:v1 
RHOB     .g/cm3                      : RHOB:UNKNOWN:rC:NONE:v1 
SW       .v/v_decimal                : SW:UNKNOWN:rC:NONE:v1 
VSH      .v/v_decimal                : VSH:UNKNOWN:rC:NONE:v1 
~A     DEPTH         TVD       TVDSS           DT           GR        KLOGH         NPHI         PHIF         RHOB           SW          VSH
# ...
   3471.6626   2655.7112  -2630.7112      91.4222      57.2971     211.0445       0.2749       0.2399       2.2092       0.1208       0.1592
   3471.7876   2655.7114  -2630.7114      91.2430      59.2439     192.7977       0.2885       0.2370       2.2151       0.1212       0.1713
   3471.9126   2655.7117  -2630.7117      90.8915      58.1643     168.5390       0.2886       0.2325       2.2239       0.1198       0.1179
   3472.0376   2655.7119  -2630.7119      90.3829      54.3469     183.0294       0.2865       0.2348       2.2198       0.1184       0.0715
   3472.1626   2655.7124  -2630.7124      89.7214      50.7411     236.8720       0.2862       0.2435       2.2027       0.1171       0.0675
   3472.2876   2655.7126  -2630.7126      88.9031      52.0834     281.9995       0.2787       0.2493       2.1905       0.1146       0.0835
   3472.4126   2655.7129  -2630.7129      89.1943      57.3823     337.2968       0.2685       0.2550       2.1807       0.1126       0.1457
   3472.5376   2655.7131  -2630.7131      90.3316      54.2168     377.8286       0.2680       0.2587       2.1736       0.1119       0.1084
   3472.6626   2655.7136  -2630.7136      91.2001      51.1380     369.6326       0.2699       0.2580       2.1745       0.1123       0.0722
   3472.7876   2655.7139  -2630.7139      91.8975      49.0243     343.4162       0.2729       0.2557       2.1786       0.1128       0.0473
   3472.9126   2655.7141  -2630.7141      92.5221      46.1748     344.1568       0.2761       0.2557       2.1787       0.1120       0.0202
   3473.0376   2655.7144  -2630.7144      91.9395      41.4087     390.2153       0.2737       0.2598       2.1714       0.1100       0.0009
   3473.1626   2655.7148  -2630.7148      91.0786      49.2068     365.3268       0.2632       0.2577       2.1757       0.1115       0.0594
   3473.2876   2655.7151  -2630.7151      91.6992      51.7701     305.4703       0.2738       0.2516       2.1866       0.1135       0.0796
   3473.4126   2655.7153  -2630.7153      93.3906      53.9133     322.0753       0.2922       0.2531       2.1837       0.1136       0.1049
   3473.5376   2655.7156  -2630.7156      95.4065      57.1001     381.4320       0.3010       0.2590       2.1729       0.1131       0.1329
   3473.6626   2655.7161  -2630.7161      96.9222      58.5431     348.8540       0.2854       0.2562       2.1786       0.1154       0.1226
   3473.7876   2655.7163  -2630.7163      97.3591      55.9035     376.5156       0.2503       0.2586       2.1737       0.1133       0.1236
   3473.9126   2655.7166  -2630.7166      96.4239      61.2328     425.1746       0.2469       0.2625       2.1660       0.1156       0.1738
   3474.0376   2655.7168  -2630.7168      95.8142      60.3254     333.3112       0.2554       0.2530       2.1839       0.1199       0.1686
   3474.1626   2655.7173  -2630.7173      95.7663      54.8620     248.2220       0.2614       0.2451       2.1992       0.1207       0.1070
   3474.2876   2655.7175  -2630.7175      96.0290      50.3021     288.5922       0.2584       0.2500       2.1901       0.1160       0.0406
   3474.4126   2655.7178  -2630.7178      96.1747      50.7181     335.2383       0.2538       0.2549       2.1802       0.1137       0.0668
   3474.5376   2655.7180  -2630.7180      97.3197      56.0132     434.0708       0.2524       0.2630       2.1655       0.1067       0.1102
   3474.6626   2655.7185  -2630.7185      98.1541      53.2315     612.8038       0.2613       0.2737       2.1452       0.1040       0.0877
   3474.7876   2655.7188  -2630.7188      97.6208      52.7220     687.4661       0.2687       0.2781       2.1363       0.1050       0.0744
   3474.9126   2655.7190  -2630.7190      95.9701      53.7892     625.4980       0.2745       0.2749       2.1422       0.1076       0.0762
   3475.0376   2655.7192  -2630.7192      94.3407      49.8763     512.2171       0.2844       0.2686       2.1548       0.1098       0.0582
   3475.1626   2655.7197  -2630.7197      93.7573      49.2790     451.2811       0.2823       0.2645       2.1630       0.1136       0.0594
   3475.2876   2655.7200  -2630.7200      94.2040      55.0575     454.2442       0.2821       0.2647       2.1618       0.1131       0.1211
   3475.4126   2655.7202  -2630.7202      94.5938      54.7025     422.3319       0.2888       0.2623       2.1664       0.1141       0.1141
   3475.5376   2655.7205  -2630.7205      94.5607      53.0325     375.8063       0.2910       0.2585       2.1739       0.1155       0.0945
   3475.6626   2655.7209  -2630.7209      94.0242      53.7475     342.9678       0.2896       0.2556       2.1796       0.1158       0.1029
   3475.7876   2655.7212  -2630.7212      93.1556      53.1700     326.0019       0.3099       0.2540       2.1820       0.1147       0.0961
   3475.9126   2655.7214  -2630.7214      93.3023      54.7777     352.1569       0.3111       0.2565       2.1779       0.1124       0.1150
   3476.0376   2655.7217  -2630.7217      93.6778      50.4228     413.5233       0.3138       0.2615       2.1686       0.1083       0.0638
   3476.1626   2655.7222  -2630.7222      93.8667      48.4989     384.4174       0.3120       0.2589       2.1733       0.1078       0.0412
   3476.2876   2655.7224  -2630.7224      94.1722      49.6933     383.4950       0.2924       0.2582       2.1740       0.1089       0.0552
   3476.4126   2655.7227  -2630.7227      95.0085      50.8538     555.2017       0.2524       0.2712       2.1487       0.1073       0.0689
   3476.5376   2655.7229  -2630.7229      95.5920      51.1623     584.0712       0.2534       0.2729       2.1462       0.1051       0.0725
   3476.6626   2655.7234  -2630.7234      95.9100      52.3050     573.3242       0.2606       0.2723       2.1475       0.1053       0.0859
   3476.7876   2655.7236  -2630.7236      96.3025      48.5927     468.7638       0.2645       0.2652       2.1605       0.1076       0.1057
   3476.9126   2655.7239  -2630.7239      96.6710      51.1463     355.5464       0.2629       0.2565       2.1770       0.1097       0.1408
   3477.0376   2655.7241  -2630.7241      96.8154      59.6067     314.3590       0.2550       0.2527       2.1847       0.1087       0.1774
   3477.1626   2655.7246  -2630.7246      96.5236      57.7260     383.0190       0.2429       0.2592       2.1717       0.1026       0.1756
   3477.2876   2655.7249  -2630.7249      96.2319      60.9802     458.4756       0.2664       0.2649       2.1618       0.1030       0.1921
   3477.4126   2655.7251  -2630.7251      95.7026      58.6643     453.5402       0.2718       0.2647       2.1627       0.1040       0.1362
   3477.5376   2655.7253  -2630.7253      95.2929      54.5095     407.4359       0.2628       0.2611       2.1689       0.1054       0.0931
   3477.6626   2655.7258  -2630.7258      95.2758      52.0347     368.9265       0.2529       0.2580       2.1740       0.1066       0.1182
   3477.7876   2655.7261  -2630.7261      95.7356      54.4788     382.2021       0.2547       0.2590       2.1722       0.1068       0.2118
   3477.9126   2655.7263  -2630.7263      96.3191      64.8837     467.1661       0.2656       0.2656       2.1607       0.1059       0.2398
   3478.0376   2655.7266  -2630.7266      97.3128      56.1509     495.6640       0.2633       0.2675       2.1569       0.1052       0.1262
   3478.1626   2655.7271  -2630.7271      98.2291      54.3894     468.1320       0.2664       0.2656       2.1607       0.1053       0.1078
   3478.2876   2655.7273  -2630.7273      99.9046      57.1151     510.0651       0.2660       0.2681       2.1558       0.1033       0.1024
   3478.4126   2655.7275  -2630.7275     101.5259      56.4118     578.0998       0.2599       0.2724       2.1470       0.1009       0.0604
   3478.5376   2655.7278  -2630.7278     100.6599      44.5472     493.1662       0.2552       0.2673       2.1563       0.1025       0.0018
   3478.6626   2655.7283  -2630.7283      95.4086      47.6553     589.8018       0.2614       0.2731       2.1448       0.1013       0.0322
