#------------------------------------------------------------------------------
#
#   Created by  : [OpenWorks] Log Export Utility (LEXP)
#   Created on  : 2007-05-07 11:57:18
#   Project     : NORNE
#   User        : JSE
#   Interpreter : JSE
#
#------------------------------------------------------------------------------
~VERSION INFORMATION
VERS. 2.0 : CWLS Log ASCII Standard - version 2.0
WRAP.  NO : One line per depth step
~WELL INFORMATION
#MNEMONIC   .UNIT                                           VALUE :DESCRIPTION
#------------------------------------------------------------------------------
STRT        .M                                           437.6250 :START DEPTH
STOP        .M                                          2890.0000 :STOP DEPTH
STEP        .M                                             0.1250 :STEP
NULL        .                                           -999.2500 :NULL VALUE
COMP        .                                             STATOIL :COMPANY
WELL        .                                       6608/10-C-4 H :WELL
FLD         .                                               NORNE :FIELD
LOC         .                                             UNKNOWN :LOCATION
CNTY        .                                             UNKNOWN :COUNTY
STAT        .                                             UNKNOWN :STATE
CTRY        .                                              Norway :COUNTRY
SRVC        .                                             UNKNOWN :SERVICE COMPANY
DATE        .                                             UNKNOWN :LOG DATE
UWI         .                                    NO 6608/10-C-4 H :UNIQUE WELL ID
XCOORD      .                                       457180.075915 :SURFACE X
YCOORD      .                                      7322034.182216 :SURFACE Y
LAT         .                                           66.014501 :LATITUDE
LON         .                                            8.056034 :LONGITUDE
ELEV        .M                                            25.0000 :SURFACE ELEV
ELEV_TYPE   .                                                  KB :ELEV TYPE
~CURVE INFORMATION
#MNEMONIC.UNIT        API CODE       : CURVE DESCRIPTION
#------------------------------------------------------------------------------
DEPTH    .M                          : Measured Depth
TVD      .M                          : True Vertical Depth (TVD)
TVDSS    .M                          : True Vertical Depth (TVDSS)
DT       .us/ft                      : DT:UNKNOWN:rC:NONE:v1 
GR       .API                        : GR:UNKNOWN:rC:NONE:v1 
KLOGH    .mD          UNKNOWN        : KLOGH:UNKNOWN:rC::v0 (auto-composite)
NPHI     .v/v_decimal                : NPHI:UNKNOWN:rC:NONE:v1 
PHIF     .v/v_decimal UNKNOWN        : PHIF:UNKNOWN:rC::v0 (auto-composite)
RHOB     .g/cm3                      : RHOB:UNKNOWN:rC:NONE:v1 
SW       .v/v_decimal UNKNOWN        : SW:UNKNOWN:rC::v0 (auto-composite)
VSH      .v/v_decimal UNKNOWN        : VSH:UNKNOWN:rC::v0 (auto-composite)
~A     DEPTH         TVD       TVDSS           DT           GR        KLOGH         NPHI         PHIF         RHOB           SW          VSH
# ...
   2746.1250   2722.1213  -2697.1213      92.1796      95.5383      13.9516       0.2244       0.1888       2.3405       0.7942       0.2927
   2746.2500   2722.2463  -2697.2463      92.0940      93.9480      19.1303       0.2216       0.1959       2.3260       0.7079       0.2719
   2746.3750   2722.3713  -2697.3713      91.9048      93.0922       3.7412       0.2263       0.1595       2.3885       0.8076       0.2609
   2746.5000   2722.4963  -2697.4963      91.6761      89.5602       2.6166       0.2313       0.1516       2.4017       0.7991       0.2151
   2746.6250   2722.6213  -2697.6213      91.4504      91.4391       1.0739       0.2331       0.1317       2.4341       0.8636       0.2395
   2746.7500   2722.7463  -2697.7463      91.2835      95.6402       0.4843       0.2308       0.1140       2.4633       0.9429       0.2940
   2746.8750   2722.8713  -2697.8713      91.2330      94.9871       0.4624       0.2261       0.1129       2.4650       0.9164       0.2855
   2747.0000   2722.9963  -2697.9963      91.3626      87.9283       0.0133       0.2238       0.0338       2.5946       1.0000       0.1939
   2747.1250   2723.1211  -2698.1211      91.6885      85.1612       0.0566       0.2260       0.0661       2.5417       1.0000       0.1579
   2747.2500   2723.2461  -2698.2461      92.1322      86.9515       0.4367       0.2278       0.1117       2.4671       0.8999       0.1812
   2747.3750   2723.3711  -2698.3711      92.6290      92.1341       2.1596       0.2264       0.1473       2.4049       0.7146       0.2485
   2747.5000   2723.4961  -2698.4961      93.1142      97.2943       4.0320       0.2219       0.1612       2.3807       0.6665       0.3155
   2747.6250   2723.6211  -2698.6211      93.5280      97.4151       1.7882       0.2175       0.1431       2.4155       0.7552       0.3171
   2747.7500   2723.7461  -2698.7461      93.7831      95.1833       2.3946       0.2181       0.1496       2.4049       0.7489       0.2881
   2747.8750   2723.8711  -2698.8711      93.8605      89.4747       8.7558       0.2199       0.1785       2.3544       0.6532       0.2140
   2748.0000   2723.9961  -2698.9961      93.7887      86.6195      15.3990       0.2216       0.1910       2.3310       0.6472       0.1769
   2748.1250   2724.1211  -2699.1211      93.6353      84.8628      14.3676       0.2244       0.1895       2.3389       0.6991       0.1540
   2748.2500   2724.2461  -2699.2461      93.4876      81.1554       6.1335       0.2296       0.1705       2.3706       0.8045       0.1059
   2748.3750   2724.3711  -2699.3711      93.4433      77.6404       0.5545       0.2372       0.1170       2.4584       1.0000       0.0603
   2748.5000   2724.4961  -2699.4961      93.5739      74.7012       2.7865       0.2455       0.1530       2.3994       0.8812       0.0221
   2748.6250   2724.6211  -2699.6211      93.8465      73.4346       2.9091       0.2568       0.1539       2.3923       0.8320       0.0056
   2748.7500   2724.7461  -2699.7461      94.2146      80.9637       1.8299       0.2732       0.1436       2.4113       0.8780       0.1036
   2748.8750   2724.8711  -2699.8711      94.5953      92.9192       1.3942       0.2944       0.1375       2.4246       0.9425       0.2587
   2749.0000   2724.9961  -2699.9961      94.8745      96.2029       1.8205       0.3174       0.1435       2.4149       0.9316       0.3013
   2749.1250   2725.1211  -2700.1211      94.8532      98.8466       4.1794       0.3296       0.1620       2.3846       0.9476       0.3357
   2749.2500   2725.2461  -2700.2461      94.5159      82.4628       7.0681       0.3208       0.1737       2.3654       0.9291       0.1231
   2749.3750   2725.3711  -2700.3711      93.9999      75.2969      30.9973       0.3021       0.2066       2.3114       0.8083       0.0298
   2749.5000   2725.4961  -2700.4961      93.4670      74.7605      53.2907       0.2827       0.2234       2.2839       0.7734       0.0229
   2749.6250   2725.6211  -2700.6211      93.0910      73.7107      15.9436       0.2692       0.1915       2.3362       0.9267       0.0092
   2749.7500   2725.7461  -2700.7461      93.0393      74.3507       1.6106       0.2626       0.1310       2.4353       1.0000       0.0175
   2749.8750   2725.8711  -2700.8711      93.3035      73.2475       2.7357       0.2621       0.1450       2.4125       1.0000       0.0032
   2750.0000   2725.9961  -2700.9961      93.6183      75.0234       1.9529       0.2657       0.1361       2.4270       1.0000       0.0263
   2750.1250   2726.1211  -2701.1211      93.9330      72.5947       6.8284       0.2709       0.1691       2.3724       0.8608       0.0010
   2750.2500   2726.2461  -2701.2461      94.2747      69.0206      30.0204       0.2755       0.2082       2.3063       0.6937       0.0010
   2750.3750   2726.3711  -2701.3711      94.7241      72.5213       9.3506       0.2779       0.1774       2.3592       0.8004       0.0010
   2750.5000   2726.4958  -2701.4958      95.3903      74.9722      29.1414       0.2787       0.2075       2.3100       0.8044       0.0256
   2750.6250   2726.6208  -2701.6208      96.1492      72.1975      34.6223       0.2769       0.2120       2.3026       0.8716       0.0010
   2750.7500   2726.7458  -2701.7458      96.7279      70.1573       7.1043       0.2726       0.1702       2.3711       1.0000       0.0010
   2750.8750   2726.8708  -2701.8708      96.9127      70.7059      10.7325       0.2676       0.1811       2.3532       1.0000       0.0010
   2751.0000   2726.9958  -2701.9958      96.6067      72.5313     224.1586       0.2643       0.2613       2.2217       0.7289       0.0010
   2751.1250   2727.1208  -2702.1208      95.8910      70.6110     137.0246       0.2644       0.2483       2.2430       0.7377       0.0010
   2751.2500   2727.2458  -2702.2458      95.2089      68.8961     568.0560       0.2658       0.2859       2.1815       0.6458       0.0010
   2751.3750   2727.3708  -2702.3708      94.8036      70.0020    1421.7085       0.2624       0.3101       2.1417       0.6183       0.0010
   2751.5000   2727.4958  -2702.4958      94.5580      72.6538    1290.2572       0.2543       0.3076       2.1459       0.6667       0.0010
   2751.6250   2727.6208  -2702.6208      94.3172      75.2696     448.6330       0.2434       0.2797       2.1917       0.7743       0.0295
   2751.7500   2727.7458  -2702.7458      93.9403      77.1481      88.1934       0.2334       0.2367       2.2621       0.8868       0.0539
   2751.8750   2727.8708  -2702.8708      93.4070      82.3092      13.5170       0.2282       0.1872       2.3432       1.0000       0.1209
   2752.0000   2727.9958  -2702.9958      93.0333      79.3876       3.8400       0.2315       0.1539       2.3977       1.0000       0.0829
   2752.1250   2728.1208  -2703.1208      92.9986      77.9602       0.8304       0.2422       0.1135       2.4641       1.0000       0.0644
   2752.2500   2728.2458  -2703.2458      93.2635      77.0367       0.1034       0.2535       0.0584       2.5543       1.0000       0.0524
   2752.3750   2728.3708  -2703.3708      93.6813      73.5659       0.0191       0.2580       0.0137       2.6274       1.0000       0.0074
   2752.5000   2728.4958  -2703.4958      94.0296      64.6194       0.0491       0.2498       0.0388       2.5865       1.0000       0.0010
   2752.6250   2728.6208  -2703.6208      94.1181      65.2830       0.7711       0.2398       0.1115       2.4602       0.9312       0.0010
   2752.7500   2728.7458  -2703.7458      94.1111      66.5392       7.3119       0.2393       0.1709       2.3531       0.6919       0.0010
   2752.8750   2728.8708  -2703.8708      94.0632      66.7558      48.7338       0.2454       0.2210       2.2689       0.6179       0.0010
   2753.0000   2728.9958  -2703.9958      93.9559      67.9045     226.2929       0.2538       0.2616       2.2213       0.6040       0.0010
   2753.1250   2729.1208  -2704.1208      93.7151      71.5571     189.7378       0.2601       0.2569       2.2288       0.6858       0.0010
