#------------------------------------------------------------------------------
#
#   Created by  : [OpenWorks] Log Export Utility (LEXP)
#   Created on  : 2007-05-07 11:57:46
#   Project     : NORNE
#   User        : JSE
#   Interpreter : JSE
#
#------------------------------------------------------------------------------
~VERSION INFORMATION
VERS. 2.0 : CWLS Log ASCII Standard - version 2.0
WRAP.  NO : One line per depth step
~WELL INFORMATION
#MNEMONIC   .UNIT                                           VALUE :DESCRIPTION
#------------------------------------------------------------------------------
STRT        .M                                          1250.1914 :START DEPTH
STOP        .M                                          3136.8164 :STOP DEPTH
STEP        .M                                             0.1250 :STEP
NULL        .                                           -999.2500 :NULL VALUE
COMP        .                                             STATOIL :COMPANY
WELL        .                                       6608/10-D-4 H :WELL
FLD         .                                               NORNE :FIELD
LOC         .                                             UNKNOWN :LOCATION
CNTY        .                                             UNKNOWN :COUNTY
STAT        .                                             UNKNOWN :STATE
CTRY        .                                              Norway :COUNTRY
SRVC        .                                             UNKNOWN :SERVICE COMPANY
DATE        .                                             UNKNOWN :LOG DATE
UWI         .                                    NO 6608/10-D-4 H :UNIQUE WELL ID
XCOORD      .                                       457259.082734 :SURFACE X
YCOORD      .                                      7321952.911776 :SURFACE Y
LAT         .                                           66.013783 :LATITUDE
LON         .                                            8.057803 :LONGITUDE
ELEV        .M                                            22.0000 :SURFACE ELEV
ELEV_TYPE   .                                                  KB :ELEV TYPE
~CURVE INFORMATION
#MNEMONIC.UNIT        API CODE       : CURVE DESCRIPTION
#------------------------------------------------------------------------------
DEPTH    .M                          : Measured Depth
TVD      .M                          : True Vertical Depth (TVD)
TVDSS    .M                          : True Vertical Depth (TVDSS)
DT       .us/ft                      : DT:UNKNOWN:rC:NONE:v1 
DTS      .us/ft                      : DTS:UNKNOWN:rC:NONE:v1 
GR       .API                        : GR:UNKNOWN:rC:NONE:v1 
KLOGH    .mD          UNKNOWN        : KLOGH:UNKNOWN:rC::v0 (auto-composite)
NPHI     .v/v_decimal                : NPHI:UNKNOWN:rC:NONE:v1 
PHIF     .v/v_decimal UNKNOWN        : PHIF:UNKNOWN:rC::v0 (auto-composite)
RHOB     .g/cm3                      : RHOB:UNKNOWN:rC:NONE:v1 
SW       .v/v_decimal UNKNOWN        : SW:UNKNOWN:rC::v0 (auto-composite)
VSH      .v/v_decimal UNKNOWN        : VSH:UNKNOWN:rC::v0 (auto-composite)
~A     DEPTH         TVD       TVDSS           DT          DTS           GR        KLOGH         NPHI         PHIF         RHOB           SW          VSH
# ...
   2972.6914   2775.9597  -2753.9597      77.2148     136.0621     126.6034       0.5844       0.2297       0.1165       2.4589       0.7928       0.8338
   2972.8164   2776.0503  -2754.0503      77.3377     133.7958     118.1333       0.8257       0.2129       0.1256       2.4440       0.8292       0.7289
   2972.9414   2776.1409  -2754.1409      77.6768     132.5225     108.9315       0.6714       0.1997       0.1196       2.4537       0.9265       0.6149
   2973.0664   2776.2314  -2754.2314      78.2166     132.2906     100.6045       0.3721       0.1907       0.1075       2.4736       1.0000       0.5116
   2973.1914   2776.3223  -2754.3223      78.9114     132.9274      94.3736       0.3279       0.1863       0.1032       2.4807       1.0000       0.4344
   2973.3164   2776.4128  -2754.4128      79.6663     133.9793      90.7938       0.7668       0.1872       0.1238       2.4470       1.0000       0.3900
   2973.4414   2776.5034  -2754.5034      80.3395     134.9272      89.5610       5.7896       0.1921       0.1630       2.3826       0.9969       0.3747
   2973.5664   2776.5940  -2754.5940      80.8974     135.9221      89.2395      20.3341       0.1962       0.1927       2.3338       0.9457       0.3708
   2973.6914   2776.6848  -2754.6848      81.3441     137.2591      89.6510      24.0829       0.1983       0.2001       2.3216       0.9413       0.3759
   2973.8164   2776.7754  -2754.7754      81.7005     139.1138      91.1223      13.4947       0.1983       0.1845       2.3475       0.9882       0.3941
   2973.9414   2776.8660  -2754.8660      82.0003     141.4669      94.2554       3.2665       0.1982       0.1560       2.3941       1.0000       0.4329
   2974.0664   2776.9565  -2754.9565      82.2924     143.7701      98.5024       1.4206       0.2036       0.1360       2.4269       1.0000       0.4856
   2974.1914   2777.0474  -2755.0474      82.6311     145.9195     102.4520       0.8274       0.2129       0.1253       2.4445       1.0000       0.5346
   2974.3164   2777.1379  -2755.1379      83.0202     147.4715     105.6571       0.6920       0.2198       0.1219       2.4500       1.0000       0.5743
   2974.4414   2777.2285  -2755.2285      83.4428     148.5367     107.7293       0.7991       0.2207       0.1247       2.4453       1.0000       0.6000
   2974.5664   2777.3191  -2755.3191      83.8623     149.2883     108.2722       1.1837       0.2145       0.1329       2.4319       1.0000       0.6067
   2974.6914   2777.4097  -2755.4097      84.2143     149.5861     106.7321       2.0938       0.2036       0.1465       2.4097       1.0000       0.5876
   2974.8164   2777.5005  -2755.5005      84.3712     149.4469     101.8460       7.2385       0.1986       0.1716       2.3685       1.0000       0.5270
   2974.9414   2777.5911  -2755.5911      84.3183     149.0900      94.9770      28.9885       0.2033       0.1996       2.3224       0.9993       0.4418
   2975.0664   2777.6816  -2755.6816      84.0685     148.5095      87.6508      55.9568       0.2149       0.2188       2.2909       0.9993       0.3510
   2975.1914   2777.7722  -2755.7722      83.6613     147.6661      81.4146      60.7702       0.2282       0.2189       2.2909       1.0000       0.2737
   2975.3164   2777.8630  -2755.8630      83.1551     146.5019      77.5696      19.1813       0.2366       0.1935       2.3326       1.0000       0.2260
   2975.4414   2777.9536  -2755.9536      82.5996     144.8978      76.7081       3.7438       0.2336       0.1484       2.4065       1.0000       0.2154
   2975.5664   2778.0442  -2756.0442      82.0028     142.7222      78.4481       0.6333       0.2252       0.1069       2.4746       1.0000       0.2370
   2975.6914   2778.1348  -2756.1348      81.3283     139.9794      82.7158       0.1292       0.2182       0.0826       2.5146       1.0000       0.2899
   2975.8164   2778.2253  -2756.2253      80.5263     136.7703      89.2484       0.1003       0.2149       0.0781       2.5219       1.0000       0.3708
   2975.9414   2778.3162  -2756.3162      79.5476     133.2813      97.2283       0.1856       0.2152       0.0902       2.5020       1.0000       0.4698
   2976.0664   2778.4067  -2756.4067      78.3410     129.7440     105.1860       0.4114       0.2170       0.1103       2.4690       1.0000       0.5684
   2976.1914   2778.4973  -2756.4973      76.9435     126.6061     109.3981       0.9501       0.2154       0.1278       2.4405       1.0000       0.6207
   2976.3164   2778.5879  -2756.5879      75.5620     123.9135     109.2728       1.5675       0.2122       0.1394       2.4213       1.0000       0.6190
   2976.4414   2778.6787  -2756.6787      74.3770     121.8561     105.7907       1.6163       0.2088       0.1405       2.4195       1.0000       0.5759
   2976.5664   2778.7693  -2756.7693      73.5413     120.6686     100.4019       1.0651       0.2047       0.1285       2.4392       1.0000       0.5091
   2976.6914   2778.8599  -2756.8599      73.1746     120.6080      94.5391       0.3320       0.1984       0.1041       2.4793       1.0000       0.4364
   2976.8164   2778.9504  -2756.9504      73.4019     122.0505      88.6437       0.1030       0.1864       0.0766       2.5244       1.0000       0.3633
   2976.9414   2779.0413  -2757.0413      74.1404     124.6361      82.0724       0.0569       0.1688       0.0657       2.5423       1.0000       0.2819
   2977.0664   2779.1318  -2757.1318      75.1716     127.5079      74.6360       0.0941       0.1524       0.0750       2.5270       1.0000       0.1897
   2977.1914   2779.2224  -2757.2224      76.3466     130.1497      67.2529       0.3418       0.1420       0.0987       2.4880       1.0000       0.0982
   2977.3164   2779.3130  -2757.3130      77.5107     132.1828      61.3791       1.1057       0.1412       0.1280       2.4399       1.0000       0.0270
   2977.4414   2779.4036  -2757.4036      78.5125     133.4056      58.7870       2.8298       0.1511       0.1532       2.3986       1.0000       0.0014
   2977.5664   2779.4944  -2757.4944      79.1425     133.6669      60.9768       4.6075       0.1682       0.1637       2.3814       1.0000       0.0218
   2977.6914   2779.5850  -2757.5850      79.4428     133.3648      64.7916       5.2370       0.1829       0.1670       2.3760       1.0000       0.0677
   2977.8164   2779.6755  -2757.6755      79.4571     132.7368      68.5751       5.5266       0.1933       0.1682       2.3740       1.0000       0.1146
   2977.9414   2779.7661  -2757.7661      79.2570     132.0648      71.1570       6.2178       0.1994       0.1706       2.3700       1.0000       0.1466
   2978.0664   2779.8569  -2757.8569      78.9456     131.6626      71.7910       7.7842       0.2023       0.1757       2.3617       1.0000       0.1544
   2978.1914   2779.9475  -2757.9475      78.6802     131.9297      70.1165       9.9367       0.2013       0.1812       2.3527       1.0000       0.1336
   2978.3164   2780.0381  -2758.0381      78.6168     133.0628      67.1722       8.2639       0.1998       0.1770       2.3596       1.0000       0.0971
   2978.4414   2780.1287  -2758.1287      78.7771     134.7735      63.7859       4.6074       0.1997       0.1603       2.3869       1.0000       0.0552
   2978.5664   2780.2192  -2758.2192      79.1590     136.8300      60.9896       1.5707       0.2024       0.1328       2.4321       1.0000       0.0205
   2978.6914   2780.3101  -2758.3101      79.7283     138.9654      60.0486       0.3114       0.2087       0.1019       2.4829       1.0000       0.0089
   2978.8164   2780.4006  -2758.4006      80.4208     140.8971      62.2934       0.1106       0.2183       0.0810       2.5172       1.0000       0.0367
   2978.9414   2780.4912  -2758.4912      81.1130     142.2094      68.8339       0.1709       0.2284       0.0904       2.5016       1.0000       0.1179
   2979.0664   2780.5818  -2758.5818      81.6608     142.8434      76.8881       0.9165       0.2352       0.1214       2.4507       1.0000       0.2177
