#------------------------------------------------------------------------------
#
#   Created by  : [OpenWorks] Log Export Utility (LEXP)
#   Created on  : 2007-05-07 11:57:11
#   Project     : NORNE
#   User        : JSE
#   Interpreter : JSE
#
#------------------------------------------------------------------------------
~VERSION INFORMATION
VERS. 2.0 : CWLS Log ASCII Standard - version 2.0
WRAP.  NO : One line per depth step
~WELL INFORMATION
#MNEMONIC   .UNIT                                           VALUE :DESCRIPTION
#------------------------------------------------------------------------------
STRT        .M                                          1205.1348 :START DEPTH
STOP        .M                                          4417.7598 :STOP DEPTH
STEP        .M                                             0.1250 :STEP
NULL        .                                           -999.2500 :NULL VALUE
COMP        .                                             STATOIL :COMPANY
WELL        .                                       6608/10-C-2 H :WELL
FLD         .                                               NORNE :FIELD
LOC         .                                             UNKNOWN :LOCATION
CNTY        .                                             UNKNOWN :COUNTY
STAT        .                                             UNKNOWN :STATE
CTRY        .                                              Norway :COUNTRY
SRVC        .                                             UNKNOWN :SERVICE COMPANY
DATE        .                                             UNKNOWN :LOG DATE
UWI         .                                    NO 6608/10-C-2 H :UNIQUE WELL ID
XCOORD      .                                       457185.617758 :SURFACE X
YCOORD      .                                      7322019.729827 :SURFACE Y
LAT         .                                           66.014372 :LATITUDE
LON         .                                            8.056161 :LONGITUDE
ELEV        .M                                            22.0000 :SURFACE ELEV
ELEV_TYPE   .                                                  KB :ELEV TYPE
~CURVE INFORMATION
#MNEMONIC.UNIT        API CODE       : CURVE DESCRIPTION
#------------------------------------------------------------------------------
DEPTH    .M                          : Measured Depth
TVD      .M                          : True Vertical Depth (TVD)
TVDSS    .M                          : True Vertical Depth (TVDSS)
DT       .us/ft       UNKNOWN        : DT:DT:rC::v0 (auto-composite)
DTS      .us/ft       UNKNOWN        : DTS:DTS:rC::v0 (auto-composite)
GR       .API         UNKNOWN        : GR:GR:rC::v0 (auto-composite)
KLOGH    .mD          UNKNOWN        : KLOGH:UNKNOWN:rC:NONE:v1 
NPHI     .v/v_decimal UNKNOWN        : NPHI:NPHI:rC::v0 (auto-composite)
PHIF     .v/v_decimal UNKNOWN        : PHIF:PHIF:rC::v0 (auto-composite)
SW       .v/v_decimal UNKNOWN        : SW:SW:rC::v0 (auto-composite)
VSH      .v/v_decimal UNKNOWN        : VSH:VSH:rC::v0 (auto-composite)
~A     DEPTH         TVD       TVDSS           DT          DTS           GR        KLOGH         NPHI         PHIF           SW          VSH
# ...
   4062.2598   2692.3665  -2670.3665     100.7683     178.4324      59.4295    2524.4290       0.2794       0.2963       0.1293       0.0521
   4062.3848   2692.4375  -2670.4375     100.1122     177.5538      61.0305     244.5524       0.2686       0.2523       0.1698       0.0709
   4062.5098   2692.5085  -2670.5085      99.3220     176.6496      62.7574     125.4397       0.2592       0.2368       0.1845       0.0913
   4062.6348   2692.5793  -2670.5793      98.4064     175.5960      63.1692      87.1507       0.2527       0.2294       0.1926       0.0961
   4062.7598   2692.6504  -2670.6504      97.4156     174.3057      62.6034      80.6566       0.2484       0.2279       0.1958       0.0895
   4062.8848   2692.7214  -2670.7214      96.4431     172.8044      64.6139      60.2340       0.2451       0.2166       0.2156       0.1131
   4063.0098   2692.7925  -2670.7925      95.6047     171.2017      69.9791      16.3608       0.2424       0.1918       0.2581       0.1762
   4063.1348   2692.8633  -2670.8633      95.0200     169.6730      72.6990       9.0646       0.2411       0.1792       0.2906       0.2082
   4063.2598   2692.9343  -2670.9343      94.7873     168.5483      73.6542      12.4049       0.2354       0.1860       0.2864       0.2195
   4063.3848   2693.0054  -2671.0054      94.6258     167.7282      74.0813       7.0776       0.2279       0.1689       0.3169       0.2245
   4063.5098   2693.0762  -2671.0762      94.4733     167.1955      72.1057      13.1600       0.2258       0.1777       0.3051       0.2012
   4063.6348   2693.1472  -2671.1472      94.3643     166.9255      68.2375      67.0031       0.2330       0.2137       0.2564       0.1557
   4063.7598   2693.2183  -2671.2183      94.4149     166.9102      64.3979     189.0068       0.2499       0.2468       0.2241       0.1106
   4063.8848   2693.2893  -2671.2893      94.8442     167.2043      61.6626     262.2477       0.2708       0.2541       0.2195       0.0784
   4064.0098   2693.3601  -2671.3601      95.6715     167.7007      60.3598     480.2147       0.2824       0.2667       0.2109       0.0631
   4064.1348   2693.4312  -2671.4312      96.6464     168.1583      61.2131     411.4778       0.2821       0.2631       0.2156       0.0731
   4064.2598   2693.5022  -2671.5022      97.5638     168.3905      62.8057     221.5603       0.2720       0.2479       0.2319       0.0919
   4064.3848   2693.5732  -2671.5732      98.2430     168.2631      63.7058      90.9672       0.2557       0.2298       0.2537       0.1024
   4064.5098   2693.6440  -2671.6440      98.5570     167.7330      63.2400      47.2217       0.2379       0.2160       0.2730       0.0969
   4064.6348   2693.7151  -2671.7151      98.2672     166.7623      66.2074      16.8953       0.2211       0.1886       0.3146       0.1319
   4064.7598   2693.7861  -2671.7861      97.4305     165.6128      69.8351       5.2910       0.2074       0.1611       0.3722       0.1745
   4064.8848   2693.8572  -2671.8572      96.1211     164.3571      69.1510       3.8142       0.2007       0.1581       0.3849       0.1665
   4065.0098   2693.9280  -2671.9280      94.4906     163.0759      64.6755      11.9225       0.2024       0.1784       0.3549       0.1138
   4065.1348   2693.9990  -2671.9990      92.7528     161.8619      60.5415      27.0948       0.2112       0.2036       0.3199       0.0652
   4065.2598   2694.0701  -2672.0701      91.2225     160.8887      64.1361      22.6346       0.2237       0.1996       0.3270       0.1075
   4065.3848   2694.1409  -2672.1409      90.2364     160.3245      67.4406      20.6075       0.2369       0.1975       0.3343       0.1464
   4065.5098   2694.2119  -2672.2119      89.8288     160.1324      66.8553      46.5006       0.2507       0.2122       0.3179       0.1395
   4065.6348   2694.2830  -2672.2830      89.9578     160.2851      64.3000     132.8010       0.2640       0.2347       0.2934       0.1094
   4065.7598   2694.3540  -2672.3540      90.5164     160.7371      62.3086     242.4456       0.2748       0.2524       0.2786       0.0860
   4065.8848   2694.4250  -2672.4250      91.3464     161.4291      63.0205     261.4598       0.2798       0.2539       0.2858       0.0944
   4066.0098   2694.4963  -2672.4963      92.2005     162.2767      67.0045     126.9663       0.2788       0.2365       0.3278       0.1412
   4066.1348   2694.5674  -2672.5674      92.7632     163.0529      70.2348      60.7550       0.2746       0.2193       0.3586       0.1793
   4066.2598   2694.6384  -2672.6384      92.8672     163.5875      68.0860      75.9120       0.2695       0.2238       0.3561       0.1539
   4066.3848   2694.7095  -2672.7095      92.3937     163.7364      63.5144     130.1554       0.2643       0.2382       0.3383       0.1002
   4066.5098   2694.7808  -2672.7808      91.2946     163.3927      63.0666     147.5420       0.2591       0.2354       0.3477       0.0949
   4066.6348   2694.8518  -2672.8518      89.6038     162.4769      75.1533      15.5233       0.2539       0.1803       0.4534       0.2371
   4066.7598   2694.9229  -2672.9229      87.5536     160.9559      80.1664       3.8187       0.2510       0.1567       0.5220       0.2961
   4066.8848   2694.9939  -2672.9939      85.4877     159.0555      77.5616       6.0816       0.2501       0.1668       0.5063       0.2654
   4067.0098   2695.0652  -2673.0652      83.5607     156.9214      74.6210       8.7437       0.2492       0.1784       0.4845       0.2308
   4067.1348   2695.1362  -2673.1362      81.8718     154.7104      71.7492      17.3422       0.2460       0.1876       0.4692       0.1970
   4067.2598   2695.2073  -2673.2073      80.4722     152.5812      63.7551      44.0836       0.2386       0.2145       0.4142       0.1030
   4067.3848   2695.2783  -2673.2783      79.4819     150.7621      62.1996      43.2159       0.2308       0.2140       0.4151       0.0847
   4067.5098   2695.3496  -2673.3496      78.9332     149.4223      62.8125      34.1306       0.2274       0.2085       0.4311       0.0919
   4067.6348   2695.4207  -2673.4207      78.8240     148.6489      64.9099      25.9129       0.2304       0.2024       0.4469       0.1166
   4067.7598   2695.4917  -2673.4917      79.1286     148.5182      64.1949      70.0357       0.2402       0.2140       0.4292       0.1082
   4067.8848   2695.5630  -2673.5630      79.7850     149.0831      59.7864     181.5545       0.2552       0.2456       0.3761       0.0563
   4068.0098   2695.6340  -2673.6340      80.7089     150.4140      60.8059     268.1326       0.2702       0.2547       0.3664       0.0683
   4068.1348   2695.7051  -2673.7051      81.8415     152.6186      62.7590     255.1871       0.2782       0.2536       0.3694       0.0913
   4068.2598   2695.7761  -2673.7761      83.1285     155.3580      63.2574     241.8163       0.2792       0.2524       0.3696       0.0971
   4068.3848   2695.8474  -2673.8474      84.6134     158.4072      65.2690     167.9462       0.2762       0.2414       0.3832       0.1208
   4068.5098   2695.9185  -2673.9185      86.3225     161.5258      68.3759      79.7070       0.2753       0.2277       0.4010       0.1574
   4068.6348   2695.9895  -2673.9895      88.2541     164.4880      69.8790      90.2786       0.2839       0.2290       0.3973       0.1750
   4068.7598   2696.0605  -2674.0605      90.3669     167.1013      69.7726     225.4777       0.3070       0.2499       0.3653       0.1738
   4068.8848   2696.1318  -2674.1318      92.5472     169.3909      72.4319     362.3191       0.3320       0.2608       0.3490       0.2051
   4069.0098   2696.2029  -2674.2029      94.6914     171.4193      74.7671     430.2476       0.3484       0.2652       0.3396       0.2326
   4069.1348   2696.2739  -2674.2739      96.6954     173.1450      74.0247     578.0511       0.3517       0.2709       0.3295       0.2238
   4069.2598   2696.3450  -2674.3450      98.4504     174.5101      69.8382     823.2588       0.3421       0.2797       0.3185       0.1746
