#------------------------------------------------------------------------------
#
#   Created by  : [OpenWorks] Log Export Utility (LEXP)
#   Created on  : 2007-05-07 11:57:11
#   Project     : NORNE
#   User        : JSE
#   Interpreter : JSE
#
#------------------------------------------------------------------------------
~VERSION INFORMATION
VERS. 2.0 : CWLS Log ASCII Standard - version 2.0
WRAP.  NO : One line per depth step
~WELL INFORMATION
#MNEMONIC   .UNIT                                           VALUE :DESCRIPTION
#------------------------------------------------------------------------------
STRT        .M                                          1205.1348 :START DEPTH
STOP        .M                                          4417.7598 :STOP DEPTH
STEP        .M                                             0.1250 :STEP
NULL        .                                           -999.2500 :NULL VALUE
COMP        .                                             STATOIL :COMPANY
WELL        .                                       6608/10-C-2 H :WELL
FLD         .                                               NORNE :FIELD
LOC         .                                             UNKNOWN :LOCATION
CNTY        .                                             UNKNOWN :COUNTY
STAT        .                                             UNKNOWN :STATE
CTRY        .                                              Norway :COUNTRY
SRVC        .                                             UNKNOWN :SERVICE COMPANY
DATE        .                                             UNKNOWN :LOG DATE
UWI         .                                    NO 6608/10-C-2 H :UNIQUE WELL ID
XCOORD      .                                       457185.617758 :SURFACE X
YCOORD      .                                      7322019.729827 :SURFACE Y
LAT         .                                           66.014372 :LATITUDE
LON         .                                            8.056161 :LONGITUDE
ELEV        .M                                            22.0000 :SURFACE ELEV
ELEV_TYPE   .                                                  KB :ELEV TYPE
~CURVE INFORMATION
#MNEMONIC.UNIT        API CODE       : CURVE DESCRIPTION
#------------------------------------------------------------------------------
DEPTH    .M                          : Measured Depth
TVD      .M                          : True Vertical Depth (TVD)
TVDSS    .M                          : True Vertical Depth (TVDSS)
DT       .us/ft       UNKNOWN        : DT:DT:rC::v0 (auto-composite)
DTS      .us/ft       UNKNOWN        : DTS:DTS:rC::v0 (auto-composite)
GR       .API         UNKNOWN        : GR:GR:rC::v0 (auto-composite)
KLOGH    .mD          UNKNOWN        : KLOGH:UNKNOWN:rC:NONE:v1 
NPHI     .v/v_decimal UNKNOWN        : NPHI:NPHI:rC::v0 (auto-composite)
PHIF     .v/v_decimal UNKNOWN        : PHIF:PHIF:rC::v0 (auto-composite)
SW       .v/v_decimal UNKNOWN        : SW:SW:rC::v0 (auto-composite)
VSH      .v/v_decimal UNKNOWN        : VSH:VSH:rC::v0 (auto-composite)
~A     DEPTH         TVD       TVDSS           DT          DTS           GR        KLOGH         NPHI         PHIF           SW          VSH
# ...
   3820.0098   2568.5630  -2546.5630     107.6505     193.3058      92.6585     242.3589       0.2789       0.2717       0.1519       0.0851
   3820.1348   2568.6199  -2546.6199     107.4425     192.5980      94.1182     156.1644       0.2730       0.2578       0.1534       0.1013
   3820.2598   2568.6770  -2546.6770     107.2092     191.8393      94.2514     115.3293       0.2678       0.2520       0.1492       0.1028
   3820.3848   2568.7339  -2546.7339     107.0008     191.1447      89.9882     263.1724       0.2654       0.2730       0.1308       0.0554
   3820.5098   2568.7910  -2546.7910     106.9819     190.6778      88.2323     406.8503       0.2648       0.2820       0.1142       0.0359
   3820.6348   2568.8479  -2546.8479     107.2729     190.5372      87.5556     406.5097       0.2611       0.2821       0.1133       0.0284
   3820.7598   2568.9050  -2546.9050     107.7402     190.5827      91.9381     178.4104       0.2531       0.2501       0.1284       0.0771
   3820.8848   2568.9619  -2546.9619     108.4078     190.7699      92.0208      47.0021       0.2400       0.2368       0.1341       0.0780
   3821.0098   2569.0190  -2547.0190     109.3345     191.0784      89.4979      55.9061       0.2237       0.2345       0.1356       0.0500
   3821.1348   2569.0759  -2547.0759     110.5816     191.5053      94.2331       4.7558       0.2076       0.1927       0.1599       0.1026
   3821.2598   2569.1328  -2547.1328     112.0856     192.0345      94.7993       2.3737       0.1960       0.1781       0.1686       0.1089
   3821.3848   2569.1899  -2547.1899     113.2597     192.5637      85.1728      17.7298       0.1912       0.2110       0.1385       0.0325
   3821.5098   2569.2468  -2547.2468     113.7141     193.0632      85.4171      14.8743       0.1882       0.2115       0.1309       0.0256
   3821.6348   2569.3040  -2547.3040     113.3845     193.5083      91.2485       4.3579       0.1821       0.1839       0.1455       0.0694
   3821.7598   2569.3608  -2547.3608     112.4386     193.8951      93.9384       0.7790       0.1695       0.1567       0.1638       0.0993
   3821.8848   2569.4180  -2547.4180     111.2819     194.2572      89.6635       0.9550       0.1499       0.1609       0.1636       0.0518
   3822.0098   2569.4749  -2547.4749     110.4621     194.7227      84.6002       0.8392       0.1263       0.1583       0.1547       0.0099
   3822.1348   2569.5320  -2547.5320     110.0164     195.3306      75.8921       0.4439       0.1043       0.1415       0.1643       0.0000
   3822.2598   2569.5889  -2547.5889     109.9125     196.0739      70.1069       0.1653       0.0865       0.1240       0.1796       0.0000
   3822.3848   2569.6460  -2547.6460     110.1029     196.9059      70.5084       0.0868       0.0750       0.1127       0.1930       0.0000
   3822.5098   2569.7029  -2547.7029     110.5287     197.7520      76.4931       0.0706       0.0710       0.1087       0.2019       0.0000
   3822.6348   2569.7600  -2547.7600     111.1260     198.5101      80.8566       0.0803       0.0736       0.1113       0.2062       0.0000
   3822.7598   2569.8169  -2547.8169     111.7682     199.1698      80.2240       0.1137       0.0803       0.1179       0.1970       0.0000
   3822.8848   2569.8740  -2547.8740     112.3396     199.7711      77.7470       0.1829       0.0895       0.1269       0.1872       0.0000
   3823.0098   2569.9309  -2547.9309     112.8352     200.3094      76.8316       0.3046       0.0998       0.1371       0.1778       0.0000
   3823.1348   2569.9880  -2547.9880     113.2743     200.7746      78.0232       0.4867       0.1099       0.1470       0.1718       0.0000
   3823.2598   2570.0449  -2548.0449     113.6750     201.1590      77.2057       0.7205       0.1183       0.1553       0.1781       0.0000
   3823.3848   2570.1021  -2548.1021     113.9498     201.5279      76.0373       0.9170       0.1231       0.1600       0.1689       0.0000
   3823.5098   2570.1589  -2548.1589     114.0874     201.9535      76.5744       0.9996       0.1250       0.1618       0.1674       0.0000
   3823.6348   2570.2161  -2548.2161     114.1021     202.4499      78.1829       1.0318       0.1256       0.1625       0.1661       0.0000
   3823.7598   2570.2729  -2548.2729     114.0195     203.0076      80.6120       1.1451       0.1275       0.1644       0.1627       0.0000
   3823.8848   2570.3298  -2548.3298     113.8673     203.6037      84.9617       1.2544       0.1326       0.1612       0.1708       0.0165
   3824.0098   2570.3870  -2548.3870     113.6450     204.2142      97.6742       0.1441       0.1386       0.1053       0.2621       0.1422
   3824.1348   2570.4438  -2548.4438     113.3659     204.8433     102.0111       0.0241       0.1412       0.0849       0.3269       0.1890
   3824.2598   2570.5010  -2548.5010     113.0902     205.4646     102.9758       0.0170       0.1418       0.0802       0.3523       0.1997
   3824.3848   2570.5579  -2548.5579     112.9013     206.0235     102.6459       0.0190       0.1421       0.0824       0.3594       0.1961
   3824.5098   2570.6150  -2548.6150     112.8685     206.4486     102.6633       0.0206       0.1438       0.0839       0.3715       0.1963
   3824.6348   2570.6719  -2548.6719     113.0307     206.6562     104.2479       0.0163       0.1479       0.0793       0.4060       0.2139
   3824.7598   2570.7290  -2548.7290     113.3532     206.4814     107.3530       0.0114       0.1576       0.0719       0.4535       0.2484
   3824.8848   2570.7859  -2548.7859     113.7144     205.9772     108.5364       0.0200       0.1745       0.0820       0.4009       0.2615
   3825.0098   2570.8430  -2548.8430     114.0742     205.2146     108.0459       0.0737       0.1938       0.1036       0.3191       0.2561
   3825.1348   2570.8999  -2548.8999     114.4194     204.2717     105.9212       0.3289       0.2104       0.1316       0.2456       0.2325
   3825.2598   2570.9570  -2548.9570     114.7524     203.2417     102.1505       1.2572       0.2199       0.1615       0.1965       0.1906
   3825.3848   2571.0139  -2549.0139     115.0880     202.2415      96.6152       4.2470       0.2180       0.1899       0.1664       0.1291
   3825.5098   2571.0710  -2549.0710     115.5213     201.4459      91.8599      10.6591       0.2096       0.2076       0.1524       0.0762
   3825.6348   2571.1279  -2549.1279     116.0867     200.8362      87.8355      23.2168       0.2028       0.2230       0.1423       0.0315
   3825.7598   2571.1851  -2549.1851     116.7573     200.3282      85.4475      35.0950       0.2002       0.2328       0.1366       0.0063
   3825.8848   2571.2419  -2549.2419     117.4377     199.7936      85.4206      37.6368       0.2018       0.2340       0.1360       0.0071
   3826.0098   2571.2991  -2549.2991     117.9613     199.0731      87.9613      24.2907       0.2061       0.2256       0.1409       0.0329
   3826.1348   2571.3560  -2549.3560     117.9006     197.9186      91.0310      15.5946       0.2139       0.2164       0.1455       0.0670
   3826.2598   2571.4131  -2549.4131     116.9779     196.3325      94.7899      10.3323       0.2262       0.2080       0.1484       0.1088
   3826.3848   2571.4700  -2549.4700     115.2144     194.4336      97.4564      10.6432       0.2419       0.2088       0.1458       0.1384
   3826.5098   2571.5271  -2549.5271     112.7869     192.3983      98.0710      28.8499       0.2598       0.2231       0.1367       0.1452
   3826.6348   2571.5840  -2549.5840     109.9759     190.4635      96.6029      93.8949       0.2777       0.2489       0.1233       0.1289
   3826.7598   2571.6409  -2549.6409     107.1320     188.9521      94.4818     268.0742       0.2907       0.2734       0.1133       0.1054
   3826.8848   2571.6980  -2549.6980     104.7385     188.2514      90.8853     803.3994       0.2914       0.2938       0.1071       0.0654
   3827.0098   2571.7549  -2549.7549     102.9584     188.2279      88.9369     652.5263       0.2771       0.2904       0.1097       0.0437
