#------------------------------------------------------------------------------
#
#   Created by  : [OpenWorks] Log Export Utility (LEXP)
#   Created on  : 2007-05-07 11:57:18
#   Project     : NORNE
#   User        : JSE
#   Interpreter : JSE
#
#------------------------------------------------------------------------------
~VERSION INFORMATION
VERS. 2.0 : CWLS Log ASCII Standard - version 2.0
WRAP.  NO : One line per depth step
~WELL INFORMATION
#MNEMONIC   .UNIT                                           VALUE :DESCRIPTION
#------------------------------------------------------------------------------
STRT        .M                                           437.6250 :START DEPTH
STOP        .M                                          2890.0000 :STOP DEPTH
STEP        .M                                             0.1250 :STEP
NULL        .                                           -999.2500 :NULL VALUE
COMP        .                                             STATOIL :COMPANY
WELL        .                                       6608/10-C-4 H :WELL
FLD         .                                               NORNE :FIELD
LOC         .                                             UNKNOWN :LOCATION
CNTY        .                                             UNKNOWN :COUNTY
STAT        .                                             UNKNOWN :STATE
CTRY        .                                              Norway :COUNTRY
SRVC        .                                             UNKNOWN :SERVICE COMPANY
DATE        .                                             UNKNOWN :LOG DATE
UWI         .                                    NO 6608/10-C-4 H :UNIQUE WELL ID
XCOORD      .                                       457180.075915 :SURFACE X
YCOORD      .                                      7322034.182216 :SURFACE Y
LAT         .                                           66.014501 :LATITUDE
LON         .                                            8.056034 :LONGITUDE
ELEV        .M                                            25.0000 :SURFACE ELEV
ELEV_TYPE   .                                                  KB :ELEV TYPE
~CURVE INFORMATION
#MNEMONIC.UNIT        API CODE       : CURVE DESCRIPTION
#------------------------------------------------------------------------------
DEPTH    .M                          : Measured Depth
TVD      .M                          : True Vertical Depth (TVD)
TVDSS    .M                          : True Vertical Depth (TVDSS)
DT       .us/ft                      : DT:UNKNOWN:rC:NONE:v1 
GR       .API                        : GR:UNKNOWN:rC:NONE:v1 
KLOGH    .mD          UNKNOWN        : KLOGH:UNKNOWN:rC::v0 (auto-composite)
NPHI     .v/v_decimal                : NPHI:UNKNOWN:rC:NONE:v1 
PHIF     .v/v_decimal UNKNOWN        : PHIF:UNKNOWN:rC::v0 (auto-composite)
RHOB     .g/cm3                      : RHOB:UNKNOWN:rC:NONE:v1 
SW       .v/v_decimal UNKNOWN        : SW:UNKNOWN:rC::v0 (auto-composite)
VSH      .v/v_decimal UNKNOWN        : VSH:UNKNOWN:rC::v0 (auto-composite)
~A     DEPTH         TVD       TVDSS           DT           GR        KLOGH         NPHI         PHIF         RHOB           SW          VSH
# ...
   2874.3750   2850.3640  -2825.3640    -999.2500    -999.2500   10000.0000    -999.2500       1.0000    -999.2500       0.1571       0.0000
   2874.5000   2850.4890  -2825.4890    -999.2500    -999.2500   10000.0000    -999.2500       1.0000    -999.2500       0.1582       0.0000
   2874.6250   2850.6140  -2825.6140    -999.2500    -999.2500   10000.0000    -999.2500       1.0000    -999.2500       0.1593       0.0000
   2874.7500   2850.7390  -2825.7390    -999.2500    -999.2500   10000.0000    -999.2500       1.0000    -999.2500       0.1594       0.0000
   2874.8750   2850.8640  -2825.8640    -999.2500    -999.2500   10000.0000    -999.2500       1.0000    -999.2500       0.1591       0.0000
   2875.0000   2850.9890  -2825.9890    -999.2500    -999.2500   10000.0000    -999.2500       1.0000    -999.2500       0.1595       0.0000
   2875.1250   2851.1140  -2826.1140    -999.2500    -999.2500   10000.0000    -999.2500       1.0000    -999.2500       0.1574       0.0000
   2875.2500   2851.2390  -2826.2390    -999.2500    -999.2500   10000.0000    -999.2500       1.0000    -999.2500       0.1559       0.0000
   2875.3750   2851.3640  -2826.3640    -999.2500    -999.2500   10000.0000    -999.2500       1.0000    -999.2500       0.1547       0.0000
   2875.5000   2851.4890  -2826.4890    -999.2500    -999.2500   10000.0000    -999.2500       1.0000    -999.2500       0.1525       0.0000
   2875.6250   2851.6140  -2826.6140    -999.2500    -999.2500   10000.0000    -999.2500       1.0000    -999.2500       0.1545       0.0000
   2875.7500   2851.7390  -2826.7390    -999.2500    -999.2500   10000.0000    -999.2500       1.0000    -999.2500       0.1563       0.0000
   2875.8750   2851.8640  -2826.8640    -999.2500    -999.2500   10000.0000    -999.2500       1.0000    -999.2500    -999.2500       0.0000
   2876.0000   2851.9890  -2826.9890    -999.2500    -999.2500   10000.0000    -999.2500       1.0000    -999.2500    -999.2500       0.0000
   2876.1250   2852.1140  -2827.1140    -999.2500    -999.2500   10000.0000    -999.2500       1.0000    -999.2500    -999.2500       0.0000
   2876.2500   2852.2388  -2827.2388    -999.2500    -999.2500   10000.0000    -999.2500       1.0000    -999.2500    -999.2500       0.0000
   2876.3750   2852.3638  -2827.3638    -999.2500    -999.2500   10000.0000    -999.2500       1.0000    -999.2500    -999.2500       0.0000
   2876.5000   2852.4888  -2827.4888    -999.2500    -999.2500   10000.0000    -999.2500       1.0000    -999.2500    -999.2500       0.0000
   2876.6250   2852.6138  -2827.6138    -999.2500    -999.2500   10000.0000    -999.2500       1.0000    -999.2500    -999.2500       0.0000
   2876.7500   2852.7388  -2827.7388    -999.2500    -999.2500   10000.0000    -999.2500       1.0000    -999.2500    -999.2500       0.0000
   2876.8750   2852.8638  -2827.8638    -999.2500    -999.2500   10000.0000    -999.2500       1.0000    -999.2500    -999.2500       0.0000
   2877.0000   2852.9888  -2827.9888    -999.2500    -999.2500   10000.0000    -999.2500       1.0000    -999.2500    -999.2500       0.0000
   2877.1250   2853.1138  -2828.1138    -999.2500    -999.2500   10000.0000    -999.2500       1.0000    -999.2500    -999.2500       0.0000
   2877.2500   2853.2388  -2828.2388    -999.2500    -999.2500   10000.0000    -999.2500       1.0000    -999.2500    -999.2500       0.0000
   2877.3750   2853.3638  -2828.3638    -999.2500    -999.2500   10000.0000    -999.2500       1.0000    -999.2500    -999.2500       0.0000
   2877.5000   2853.4888  -2828.4888    -999.2500    -999.2500   10000.0000    -999.2500       1.0000    -999.2500    -999.2500       0.0000
   2877.6250   2853.6138  -2828.6138    -999.2500    -999.2500   10000.0000    -999.2500       1.0000    -999.2500    -999.2500       0.0000
   2877.7500   2853.7388  -2828.7388    -999.2500    -999.2500   10000.0000    -999.2500       1.0000    -999.2500    -999.2500       0.0000
   2877.8750   2853.8638  -2828.8638    -999.2500    -999.2500   10000.0000    -999.2500       1.0000    -999.2500    -999.2500       0.0000
   2878.0000   2853.9888  -2828.9888    -999.2500    -999.2500   10000.0000    -999.2500       1.0000    -999.2500    -999.2500       0.0000
   2878.1250   2854.1138  -2829.1138    -999.2500    -999.2500   10000.0000    -999.2500       1.0000    -999.2500    -999.2500       0.0000
   2878.2500   2854.2388  -2829.2388    -999.2500    -999.2500   10000.0000    -999.2500       1.0000    -999.2500    -999.2500       0.0000
   2878.3750   2854.3638  -2829.3638    -999.2500    -999.2500   10000.0000    -999.2500       1.0000    -999.2500    -999.2500       0.0000
   2878.5000   2854.4888  -2829.4888    -999.2500    -999.2500   10000.0000    -999.2500       1.0000    -999.2500    -999.2500       0.0000
   2878.6250   2854.6138  -2829.6138    -999.2500    -999.2500   10000.0000    -999.2500       1.0000    -999.2500    -999.2500       0.0000
   2878.7500   2854.7388  -2829.7388    -999.2500    -999.2500   10000.0000    -999.2500       1.0000    -999.2500    -999.2500       0.0000
   2878.8750   2854.8638  -2829.8638    -999.2500    -999.2500   10000.0000    -999.2500       1.0000    -999.2500    -999.2500       0.0000
   2879.0000   2854.9888  -2829.9888    -999.2500    -999.2500   10000.0000    -999.2500       1.0000    -999.2500    -999.2500       0.0000
   2879.1250   2855.1138  -2830.1138    -999.2500    -999.2500   10000.0000    -999.2500       1.0000    -999.2500    -999.2500       0.0000
   2879.2500   2855.2388  -2830.2388    -999.2500    -999.2500   10000.0000    -999.2500       1.0000    -999.2500    -999.2500       0.0000
   2879.3750   2855.3638  -2830.3638    -999.2500    -999.2500   10000.0000    -999.2500       1.0000    -999.2500    -999.2500       0.0000
   2879.5000   2855.4888  -2830.4888    -999.2500    -999.2500   10000.0000    -999.2500       1.0000    -999.2500    -999.2500       0.0000
   2879.6250   2855.6138  -2830.6138    -999.2500    -999.2500   10000.0000    -999.2500       1.0000    -999.2500    -999.2500       0.0000
   2879.7500   2855.7388  -2830.7388    -999.2500    -999.2500   10000.0000    -999.2500       1.0000    -999.2500    -999.2500       0.0000
   2879.8750   2855.8638  -2830.8638    -999.2500    -999.2500   10000.0000    -999.2500       1.0000    -999.2500    -999.2500       0.0000
   2880.0000   2855.9888  -2830.9888    -999.2500    -999.2500   10000.0000    -999.2500       1.0000    -999.2500    -999.2500       0.0000
   2880.1250   2856.1138  -2831.1138    -999.2500    -999.2500   10000.0000    -999.2500       1.0000    -999.2500    -999.2500       0.0000
   2880.2500   2856.2388  -2831.2388    -999.2500    -999.2500   10000.0000    -999.2500       1.0000    -999.2500    -999.2500       0.0000
   2880.3750   2856.3638  -2831.3638    -999.2500    -999.2500   10000.0000    -999.2500       1.0000    -999.2500    -999.2500       0.0000
   2880.5000   2856.4888  -2831.4888    -999.2500    -999.2500   10000.0000    -999.2500       1.0000    -999.2500    -999.2500       0.0000
   2880.6250   2856.6135  -2831.6135    -999.2500    -999.2500   10000.0000    -999.2500       1.0000    -999.2500    -999.2500       0.0000
   2880.7500   2856.7385  -2831.7385    -999.2500    -999.2500   10000.0000    -999.2500       1.0000    -999.2500    -999.2500       0.0000
   2880.8750   2856.8635  -2831.8635    -999.2500    -999.2500   10000.0000    -999.2500       1.0000    -999.2500    -999.2500       0.0000
   2881.0000   2856.9885  -2831.9885    -999.2500    -999.2500   10000.0000    -999.2500       1.0000    -999.2500    -999.2500       0.0000
   2881.1250   2857.1135  -2832.1135    -999.2500    -999.2500   10000.0000    -999.2500       1.0000    -999.2500    -999.2500       0.0000
   2881.2500   2857.2385  -2832.2385    -999.2500    -999.2500   10000.0000    -999.2500       1.0000    -999.2500    -999.2500       0.0000
   2881.3750   2857.3635  -2832.3635    -999.2500    -999.2500   10000.0000    -999.2500       1.0000    -999.2500    -999.2500       0.0000
