#------------------------------------------------------------------------------
#
#   Created by  : [OpenWorks] Log Export Utility (LEXP)
#   Created on  : 2007-05-07 11:57:11
#   Project     : NORNE
#   User        : JSE
#   Interpreter : JSE
#
#------------------------------------------------------------------------------
~VERSION INFORMATION
VERS. 2.0 : CWLS Log ASCII Standard - version 2.0
WRAP.  NO : One line per depth step
~WELL INFORMATION
#MNEMONIC   .UNIT                                           VALUE :DESCRIPTION
#------------------------------------------------------------------------------
STRT        .M                                          1205.1348 :START DEPTH
STOP        .M                                          4417.7598 :STOP DEPTH
STEP        .M                                             0.1250 :STEP
NULL        .                                           -999.2500 :NULL VALUE
COMP        .                                             STATOIL :COMPANY
WELL        .                                       6608/10-C-2 H :WELL
FLD         .                                               NORNE :FIELD
LOC         .                                             UNKNOWN :LOCATION
CNTY        .                                             UNKNOWN :COUNTY
STAT        .                                             UNKNOWN :STATE
CTRY        .                                              Norway :COUNTRY
SRVC        .                                             UNKNOWN :SERVICE COMPANY
DATE        .                                             UNKNOWN :LOG DATE
UWI         .                                    NO 6608/10-C-2 H :UNIQUE WELL ID
XCOORD      .                                       457185.617758 :SURFACE X
YCOORD      .                                      7322019.729827 :SURFACE Y
LAT         .                                           66.014372 :LATITUDE
LON         .                                            8.056161 :LONGITUDE
ELEV        .M                                            22.0000 :SURFACE ELEV
ELEV_TYPE   .                                                  KB :ELEV TYPE
~CURVE INFORMATION
#MNEMONIC.UNIT        API CODE       : CURVE DESCRIPTION
#------------------------------------------------------------------------------
DEPTH    .M                          : Measured Depth
TVD      .M                          : True Vertical Depth (TVD)
TVDSS    .M                          : True Vertical Depth (TVDSS)
DT       .us/ft       UNKNOWN        : DT:DT:rC::v0 (auto-composite)
DTS      .us/ft       UNKNOWN        : DTS:DTS:rC::v0 (auto-composite)
GR       .API         UNKNOWN        : GR:GR:rC::v0 (auto-composite)
KLOGH    .mD          UNKNOWN        : KLOGH:UNKNOWN:rC:NONE:v1 
NPHI     .v/v_decimal UNKNOWN        : NPHI:NPHI:rC::v0 (auto-composite)
PHIF     .v/v_decimal UNKNOWN        : PHIF:PHIF:rC::v0 (auto-composite)
SW       .v/v_decimal UNKNOWN        : SW:SW:rC::v0 (auto-composite)
VSH      .v/v_decimal UNKNOWN        : VSH:VSH:rC::v0 (auto-composite)
~A     DEPTH         TVD       TVDSS           DT          DTS           GR        KLOGH         NPHI         PHIF           SW          VSH
# ...
   4354.3848   2873.6028  -2851.6028      95.3214     164.9032      97.7617       1.4137       0.2888       0.1378       0.9167       0.4776
   4354.5098   2873.6890  -2851.6890      95.0695     164.5644      97.8093       1.6693       0.2927       0.1415       0.8940       0.4781
   4354.6348   2873.7749  -2851.7749      94.5390     163.9275      96.6623       1.9125       0.2912       0.1445       0.8748       0.4666
   4354.7598   2873.8611  -2851.8611      93.6435     163.0258      94.7357       2.4340       0.2886       0.1496       0.8449       0.4474
   4354.8848   2873.9470  -2851.9470      92.4075     161.8503      92.1835       3.9511       0.2879       0.1592       0.7976       0.4218
   4355.0098   2874.0332  -2852.0332      90.9379     160.4061      89.6403       6.4268       0.2899       0.1714       0.7434       0.3964
   4355.1348   2874.1194  -2852.1194      89.4150     158.7240      88.5360       8.4282       0.2918       0.1776       0.7166       0.3854
   4355.2598   2874.2053  -2852.2053      88.0851     156.8608      93.1279       3.5037       0.2874       0.1549       0.8022       0.4313
   4355.3848   2874.2915  -2852.2915      86.9764     155.0390      94.8311       1.5771       0.2779       0.1386       0.8739       0.4483
   4355.5098   2874.3774  -2852.3774      86.0910     153.5145      95.4043       0.8845       0.2681       0.1265       0.9322       0.4540
   4355.6348   2874.4636  -2852.4636      85.4726     152.5246      95.4065       0.6583       0.2624       0.1208       0.9561       0.4541
   4355.7598   2874.5496  -2852.5496      85.1969     152.2615      94.7569       0.7689       0.2631       0.1241       0.9248       0.4476
   4355.8848   2874.6357  -2852.6357      85.4275     152.9179      93.9057       1.0754       0.2672       0.1316       0.8723       0.4391
   4356.0098   2874.7219  -2852.7219      86.1904     154.4850      92.2924       1.4666       0.2676       0.1384       0.8298       0.4229
   4356.1348   2874.8079  -2852.8079      87.1949     156.6549      92.3589       1.2505       0.2639       0.1344       0.8537       0.4236
   4356.2598   2874.8940  -2852.8940      88.2487     159.1493      93.8510       0.7574       0.2573       0.1219       0.9274       0.4385
   4356.3848   2874.9800  -2852.9800      89.2268     161.6675      96.1638       0.3413       0.2492       0.1046       1.0000       0.4616
   4356.5098   2875.0662  -2853.0662      90.0976     163.9180      98.7705       0.1365       0.2408       0.0857       1.0000       0.4877
   4356.6348   2875.1523  -2853.1523      90.8877     165.4908      98.9300       0.1178       0.2381       0.0824       1.0000       0.4893
   4356.7598   2875.2383  -2853.2383      91.6131     166.4002      96.0762       0.2388       0.2404       0.0961       1.0000       0.4608
   4356.8848   2875.3245  -2853.3245      92.1998     166.6763      93.1836       0.4963       0.2453       0.1125       1.0000       0.4318
   4357.0098   2875.4104  -2853.4104      92.5967     166.3450      92.5840       0.6727       0.2516       0.1212       1.0000       0.4258
   4357.1348   2875.4966  -2853.4966      92.7890     165.4481      95.5625       0.5540       0.2584       0.1161       1.0000       0.4556
   4357.2598   2875.5828  -2853.5828      92.8226     164.0138     101.0352       0.2540       0.2630       0.0989       1.0000       0.5104
   4357.3848   2875.6687  -2853.6687      92.7655     162.2790      99.3331       0.3123       0.2613       0.1039       1.0000       0.4933
   4357.5098   2875.7549  -2853.7549      92.6367     160.5250      95.1992       0.4919       0.2542       0.1134       1.0000       0.4520
   4357.6348   2875.8408  -2853.8408      92.2470     158.8204      91.3248       0.6246       0.2449       0.1196       1.0000       0.4132
   4357.7598   2875.9270  -2853.9270      91.4091     157.1984      88.1922       0.7737       0.2364       0.1237       1.0000       0.3819
   4357.8848   2876.0132  -2854.0132      89.9874     155.6705      84.6809       1.1449       0.2315       0.1328       1.0000       0.3468
   4358.0098   2876.0991  -2854.0991      87.9459     154.2531      89.2386       0.5631       0.2329       0.1160       1.0000       0.3924
   4358.1348   2876.1853  -2854.1853      85.5433     152.9773      89.1731       0.6890       0.2379       0.1212       1.0000       0.3917
   4358.2598   2876.2712  -2854.2712      83.0935     151.9037      88.7078       0.8914       0.2422       0.1274       1.0000       0.3871
   4358.3848   2876.3574  -2854.3574      80.9049     151.0698      90.2510       0.7767       0.2430       0.1220       1.0000       0.4025
   4358.5098   2876.4436  -2854.4436      79.2979     150.4870      93.5183       0.3168       0.2384       0.1044       1.0000       0.4352
   4358.6348   2876.5295  -2854.5295      78.6546     150.1457      92.6817       0.2405       0.2290       0.0983       1.0000       0.4268
   4358.7598   2876.6157  -2854.6157      79.2513     150.0258      80.9306       1.7922       0.2209       0.1372       1.0000       0.3093
   4358.8848   2876.7017  -2854.7017      80.7420     150.1078      75.1199       3.4692       0.2172       0.1568       0.9927       0.2512
   4359.0098   2876.7878  -2854.7878      82.8057     150.4827      75.1495       3.5567       0.2183       0.1577       0.9930       0.2515
   4359.1348   2876.8740  -2854.8740      85.0868     151.2469      76.7452       3.5950       0.2235       0.1565       0.9897       0.2675
   4359.2598   2876.9600  -2854.9600      87.2591     152.4722      74.3040       7.5440       0.2313       0.1741       0.9522       0.2430
   4359.3848   2877.0461  -2855.0461      89.1808     154.1509      71.6073      17.8461       0.2398       0.1934       0.8772       0.2161
   4359.5098   2877.1321  -2855.1321      90.8196     155.9989      72.6141      19.7438       0.2471       0.1966       0.8598       0.2261
   4359.6348   2877.2183  -2855.2183      92.2293     157.8210      74.6523      16.8433       0.2513       0.1927       0.8706       0.2465
   4359.7598   2877.3044  -2855.3044      93.4395     159.5140      76.3446      12.2302       0.2508       0.1854       0.8952       0.2634
   4359.8848   2877.3904  -2855.3904      94.4678     161.0223      77.2537       8.1086       0.2452       0.1762       0.9291       0.2725
   4360.0098   2877.4766  -2855.4766      95.3170     162.3590      78.3071       4.6121       0.2374       0.1642       0.9826       0.2831
   4360.1348   2877.5625  -2855.5625      95.8404     163.4357      78.4105       4.3568       0.2365       0.1629       0.9836       0.2841
   4360.2598   2877.6487  -2855.6487      96.1805     164.3548      81.6307       3.3289       0.2429       0.1564       0.9940       0.3163
   4360.3848   2877.7349  -2855.7349      96.3762     165.0840      90.7090       1.6551       0.2534       0.1306       1.0000       0.4071
   4360.5098   2877.8208  -2855.8208      96.4533     165.6223     103.4771       0.2214    -999.2500       0.0758       1.0000       0.5348
   4360.6348   2877.9070  -2855.9070      96.4193     165.9790     114.0590       0.0030    -999.2500       0.0010       1.0000       0.6406
   4360.7598   2877.9929  -2855.9929      96.2699     166.1497     113.0738       0.0030    -999.2500       0.0010       1.0000       0.6307
   4360.8848   2878.0791  -2856.0791      96.0631     166.1821      91.9047       0.0030    -999.2500       0.0010       1.0000       0.4190
   4361.0098   2878.1653  -2856.1653      95.8292     166.0856      74.4843       0.0030    -999.2500       0.0010       1.0000       0.2448
   4361.1348   2878.2512  -2856.2512      95.5660     165.8063      68.0291       0.0030    -999.2500       0.0010       1.0000       0.1803
   4361.2598   2878.3374  -2856.3374      95.2455     165.2775      70.6814       0.0030    -999.2500       0.0010       1.0000       0.2068
   4361.3848   2878.4233  -2856.4233      94.8190     164.4480      71.5163       0.0030    -999.2500       0.0010       1.0000       0.2152
