#------------------------------------------------------------------------------
#
#   Created by  : [OpenWorks] Log Export Utility (LEXP)
#   Created on  : 2007-05-07 11:56:53
#   Project     : NORNE
#   User        : JSE
#   Interpreter : JSE
#
#------------------------------------------------------------------------------
~VERSION INFORMATION
VERS. 2.0 : CWLS Log ASCII Standard - version 2.0
WRAP.  NO : One line per depth step
~WELL INFORMATION
#MNEMONIC   .UNIT                                           VALUE :DESCRIPTION
#------------------------------------------------------------------------------
STRT        .M                                           450.6626 :START DEPTH
STOP        .M                                          3861.9126 :STOP DEPTH
STEP        .M                                             0.1250 :STEP
NULL        .                                           -999.2500 :NULL VALUE
COMP        .                                             STATOIL :COMPANY
WELL        .                                       6608/10-B-2 H :WELL
FLD         .                                               NORNE :FIELD
LOC         .                                             UNKNOWN :LOCATION
CNTY        .                                             UNKNOWN :COUNTY
STAT        .                                             UNKNOWN :STATE
CTRY        .                                              Norway :COUNTRY
SRVC        .                                             UNKNOWN :SERVICE COMPANY
DATE        .                                             UNKNOWN :LOG DATE
UWI         .                                    NO 6608/10-B-2 H :UNIQUE WELL ID
XCOORD      .                                       457121.854690 :SURFACE X
YCOORD      .                                      7322122.976330 :SURFACE Y
LAT         .                                           66.015290 :LATITUDE
LON         .                                            8.054722 :LONGITUDE
ELEV        .M                                            25.0000 :SURFACE ELEV
ELEV_TYPE   .                                                  KB :ELEV TYPE
~CURVE INFORMATION
#MNEMONIC.UNIT        API CODE       : CURVE DESCRIPTION
#------------------------------------------------------------------------------
DEPTH    .M                          : Measured Depth
TVD      .M                          : True Vertical Depth (TVD)
TVDSS    .M                          : True Vertical Depth (TVDSS)
DT       .us/ft                      : DT:UNKNOWN:rC:NONE:v1 
GR       .API                        : GR:UNKNOWN:rC:NONE:v1 
KLOGH    .mD                         : KLOGH:UNKNOWN:rC:NONE:v1 
NPHI     .v/v_decimal                : NPHI:UNKNOWN:rC:NONE:v1 
PHIF     .v/v_decimal                : PHIF:UNKNOWN:rC:NONE:v1 
RHOB     .g/cm3                      : RHOB:UNKNOWN:rC:NONE:v1 
SW       .v/v_decimal                : SW:UNKNOWN:rC:NONE:v1 
VSH      .v/v_decimal                : VSH:UNKNOWN:rC:NONE:v1 
~A     DEPTH         TVD       TVDSS           DT           GR        KLOGH         NPHI         PHIF         RHOB           SW          VSH
# ...
   3314.9126   2658.6157  -2633.6157      94.5075      69.6843     226.4655       0.2834       0.2422       2.2052       0.1004       0.3349
   3315.0376   2658.6143  -2633.6143      94.4000      68.1785     231.9261       0.2832       0.2429       2.2031       0.1006       0.2898
   3315.1626   2658.6128  -2633.6128      94.4000      63.4667     205.9593       0.2859       0.2391       2.2108       0.1033       0.2942
   3315.2876   2658.6113  -2633.6113      94.4000      64.7402     228.1079       0.2835       0.2424       2.2050       0.1036       0.2437
   3315.4126   2658.6096  -2633.6096      94.5202      63.7122     227.2235       0.2851       0.2423       2.2047       0.1030       0.2168
   3315.5376   2658.6082  -2633.6082      94.7541      62.7519     211.9555       0.2822       0.2400       2.2095       0.1053       0.2063
   3315.6626   2658.6067  -2633.6067      95.2139      61.4035     202.7686       0.2798       0.2386       2.2124       0.1071       0.1984
   3315.7876   2658.6052  -2633.6052      95.8464      59.1993     208.0951       0.2827       0.2395       2.2100       0.1050       0.1819
   3315.9126   2658.6038  -2633.6038      95.9923      58.7374     187.9089       0.2813       0.2362       2.2157       0.1025       0.1624
   3316.0376   2658.6021  -2633.6021      95.1709      58.3228     205.9661       0.2982       0.2391       2.2106       0.1042       0.2010
   3316.1626   2658.6006  -2633.6006      94.2957      59.4070     193.3684       0.2818       0.2370       2.2144       0.1062       0.1925
   3316.2876   2658.5991  -2633.5991      93.4212      60.9292     188.4924       0.2690       0.2362       2.2159       0.1076       0.1670
   3316.4126   2658.5977  -2633.5977      92.8000      59.9946     187.3121       0.2733       0.2359       2.2173       0.1083       0.1391
   3316.5376   2658.5962  -2633.5962      92.8000      53.8131     150.4770       0.2789       0.2290       2.2309       0.1086       0.1068
   3316.6626   2658.5945  -2633.5945      92.8000      54.3834     150.4770       0.2715       0.2290       2.2301       0.1059       0.1586
   3316.7876   2658.5930  -2633.5930      92.8000      57.6909     207.4394       0.2675       0.2388       2.2112       0.1027       0.1659
   3316.9126   2658.5916  -2633.5916      92.8922      56.8612     221.3455       0.2613       0.2414       2.2066       0.1041       0.1395
   3317.0376   2658.5901  -2633.5901      93.0379      55.0920     203.1274       0.2608       0.2386       2.2124       0.1069       0.1187
   3317.1626   2658.5884  -2633.5884      93.1838      56.3171     190.7476       0.2704       0.2366       2.2157       0.1074       0.1331
   3317.2876   2658.5869  -2633.5869      93.3296      59.5548     210.9337       0.2768       0.2399       2.2092       0.1060       0.1712
   3317.4126   2658.5854  -2633.5854      93.4281      58.7302     258.9059       0.2705       0.2464       2.1962       0.1035       0.1615
   3317.5376   2658.5840  -2633.5840      93.8188      55.7767     265.6888       0.2680       0.2474       2.1942       0.1034       0.1268
   3317.6626   2658.5825  -2633.5825      94.0704      54.3801     266.1695       0.2687       0.2474       2.1941       0.1040       0.1104
   3317.7876   2658.5808  -2633.5808      93.9037      52.7738     270.7946       0.2674       0.2480       2.1933       0.1049       0.0915
   3317.9126   2658.5793  -2633.5793      93.2906      47.9016     270.7946       0.2602       0.2480       2.1940       0.1061       0.0417
   3318.0376   2658.5779  -2633.5779      92.8530      55.3723     270.7946       0.2759       0.2480       2.1940       0.1063       0.2066
   3318.1626   2658.5764  -2633.5764      92.8000      61.3696     264.8576       0.2661       0.2473       2.1954       0.1050       0.2189
   3318.2876   2658.5750  -2633.5750      92.8000      59.1353     258.2311       0.2615       0.2465       2.1965       0.1023       0.1667
   3318.4126   2658.5732  -2633.5732      92.8000      56.3230     257.4368       0.2652       0.2464       2.1966       0.1004       0.1337
   3318.5376   2658.5718  -2633.5718      92.8966      56.9448     259.6973       0.2738       0.2466       2.1967       0.1012       0.1409
   3318.6626   2658.5703  -2633.5703      93.3333      53.5250     246.8029       0.2828       0.2450       2.2000       0.1048       0.1026
   3318.7876   2658.5688  -2633.5688      93.7718      55.0041     223.1952       0.2579       0.2417       2.2066       0.1060       0.1181
   3318.9126   2658.5671  -2633.5671      94.2089      62.4148     227.0144       0.2532       0.2423       2.2048       0.1051       0.1393
   3319.0376   2658.5657  -2633.5657      94.4000      61.3975     232.0012       0.2538       0.2430       2.2035       0.1053       0.1378
   3319.1626   2658.5642  -2633.5642      94.4000      55.5267     232.0012       0.2567       0.2430       2.2040       0.1074       0.1155
   3319.2876   2658.5627  -2633.5627      94.4030      55.1374     232.0012       0.2633       0.2430       2.2039       0.1100       0.0926
   3319.4126   2658.5613  -2633.5613      94.4267      53.1082     232.0012       0.2601       0.2430       2.2031       0.1087       0.0931
   3319.5376   2658.5596  -2633.5596      94.9323      54.6782     242.9900       0.2711       0.2445       2.2008       0.1068       0.1627
   3319.6626   2658.5581  -2633.5581      95.4394      58.6786     265.0822       0.2832       0.2473       2.1955       0.1058       0.1897
   3319.7876   2658.5566  -2633.5566      95.9133      61.5207     279.2994       0.2845       0.2490       2.1920       0.1061       0.1944
   3319.9126   2658.5552  -2633.5552      96.2240      62.2674     279.2994       0.2753       0.2490       2.1920       0.1071       0.2031
   3320.0376   2658.5537  -2633.5537      96.0611      63.7419     279.0953       0.2712       0.2490       2.1920       0.1069       0.2205
   3320.1626   2658.5520  -2633.5520      95.3317      58.5851     272.1282       0.2684       0.2482       2.1937       0.1078       0.1598
   3320.2876   2658.5505  -2633.5505      94.9574      57.5489     260.0197       0.2696       0.2467       2.1967       0.1089       0.1476
   3320.4126   2658.5491  -2633.5491      94.5798      63.4977     258.4233       0.2753       0.2465       2.1965       0.1099       0.2176
   3320.5376   2658.5476  -2633.5476      94.0881      68.4277     257.7543       0.2801       0.2464       2.1962       0.1108       0.2756
   3320.6626   2658.5461  -2633.5461      93.3713      64.7298     242.3833       0.2783       0.2444       2.2002       0.1122       0.2321
   3320.7876   2658.5444  -2633.5444      91.9125      62.0368     213.3728       0.2725       0.2403       2.2084       0.1181       0.2004
   3320.9126   2658.5430  -2633.5430      91.6796      68.0276     188.2794       0.2759       0.2362       2.2166       0.1202       0.2709
   3321.0376   2658.5415  -2633.5415      92.1579      71.8939     198.8734       0.2709       0.2379       2.2137       0.1153       0.3164
   3321.1626   2658.5400  -2633.5400      92.7432      72.3605     199.1647       0.2673       0.2380       2.2136       0.1127       0.3253
   3321.2876   2658.5383  -2633.5383      93.1408      69.8504     183.7665       0.2701       0.2355       2.2181       0.1145       0.2989
   3321.4126   2658.5369  -2633.5369      93.4985      66.1232     191.9204       0.2757       0.2369       2.2152       0.1144       0.2444
   3321.5376   2658.5354  -2633.5354      94.9551      69.6039     177.9334       0.2703       0.2344       2.2193       0.1146       0.2133
   3321.6626   2658.5339  -2633.5339      95.6819      64.2667     179.4222       0.2773       0.2347       2.2193       0.1145       0.1990
   3321.7876   2658.5325  -2633.5325      95.2750      64.3093     181.1548       0.2810       0.2350       2.2185       0.1127       0.2565
   3321.9126   2658.5308  -2633.5308      94.1374      66.7310     169.6275       0.2861       0.2327       2.2226       0.1111       0.2946
