#------------------------------------------------------------------------------
#
#   Created by  : [OpenWorks] Log Export Utility (LEXP)
#   Created on  : 2007-05-07 11:57:08
#   Project     : NORNE
#   User        : JSE
#   Interpreter : JSE
#
#------------------------------------------------------------------------------
~VERSION INFORMATION
VERS. 2.0 : CWLS Log ASCII Standard - version 2.0
WRAP.  NO : One line per depth step
~WELL INFORMATION
#MNEMONIC   .UNIT                                           VALUE :DESCRIPTION
#------------------------------------------------------------------------------
STRT        .M                                          1375.3750 :START DEPTH
STOP        .M                                          3298.0000 :STOP DEPTH
STEP        .M                                             0.1250 :STEP
NULL        .                                           -999.2500 :NULL VALUE
COMP        .                                             STATOIL :COMPANY
WELL        .                                       6608/10-C-1 H :WELL
FLD         .                                               NORNE :FIELD
LOC         .                                             UNKNOWN :LOCATION
CNTY        .                                             UNKNOWN :COUNTY
STAT        .                                             UNKNOWN :STATE
CTRY        .                                              Norway :COUNTRY
SRVC        .                                             UNKNOWN :SERVICE COMPANY
DATE        .                                             UNKNOWN :LOG DATE
UWI         .                                    NO 6608/10-C-1 H :UNIQUE WELL ID
XCOORD      .                                       457190.110178 :SURFACE X
YCOORD      .                                      7322024.307354 :SURFACE Y
LAT         .                                           66.014414 :LATITUDE
LON         .                                            8.056259 :LONGITUDE
ELEV        .M                                            22.0000 :SURFACE ELEV
ELEV_TYPE   .                                                  KB :ELEV TYPE
~CURVE INFORMATION
#MNEMONIC.UNIT        API CODE       : CURVE DESCRIPTION
#------------------------------------------------------------------------------
DEPTH    .M                          : Measured Depth
TVD      .M                          : True Vertical Depth (TVD)
TVDSS    .M                          : True Vertical Depth (TVDSS)
DT       .us/ft                      : DT:UNKNOWN:rC:NONE:v1 
DTS      .us/ft                      : DTS:UNKNOWN:rC:NONE:v1 
GR       .API         UNKNOWN        : GR:GR:rC:NONE:v1 
KLOGH    .mD          UNKNOWN        : KLOGH:UNKNOWN:rC::v0 (auto-composite)
NPHI     .v/v_decimal                : NPHI:UNKNOWN:rC:NONE:v1 
PHIF     .v/v_decimal UNKNOWN        : PHIF:UNKNOWN:rC::v0 (auto-composite)
RHOB     .g/cm3       UNKNOWN        : RHOB:UNKNOWN:rC:NONE:v1 
SW       .v/v_decimal UNKNOWN        : SW:UNKNOWN:rC::v0 (auto-composite)
VSH      .v/v_decimal UNKNOWN        : VSH:UNKNOWN:rC::v0 (auto-composite)
~A     DEPTH         TVD       TVDSS           DT          DTS           GR        KLOGH         NPHI         PHIF         RHOB           SW          VSH
# ...
   3279.8750   2948.8752  -2926.8752      76.1123     135.0592      97.8128       0.0349       0.2307       0.1648       2.3954       1.0000       0.3232
   3280.0000   2948.9971  -2926.9971      75.2280     134.9261      91.8082       0.0083       0.2109       0.1329       2.4485       1.0000       0.2268
   3280.1250   2949.1187  -2927.1187      74.3084     134.9700      86.5860       0.0016       0.1829       0.0963       2.5096       1.0000       0.1431
   3280.2500   2949.2405  -2927.2405      73.5207     135.2736      82.7238       0.0004       0.1514       0.0638       2.5637       1.0000       0.0811
   3280.3750   2949.3623  -2927.3623      73.2271     135.9064      80.5521       0.0002       0.1276       0.0438       2.5971       1.0000       0.0463
   3280.5000   2949.4841  -2927.4841      73.4026     136.7444      79.6549       0.0001       0.1148       0.0338       2.6137       1.0000       0.0319
   3280.6250   2949.6057  -2927.6057      73.9200     137.6868      79.8290       0.0001       0.1129       0.0336       2.6141       1.0000       0.0347
   3280.7500   2949.7275  -2927.7275      74.6339     138.6391      80.8862       0.0001       0.1194       0.0429       2.5985       1.0000       0.0517
   3280.8750   2949.8494  -2927.8494      75.4011     139.5202      82.7293       0.0003       0.1303       0.0617       2.5671       1.0000       0.0812
   3281.0000   2949.9712  -2927.9712      76.0592     140.2284      86.0778       0.0012       0.1421       0.0893       2.5212       0.8568       0.1349
   3281.1250   2950.0930  -2928.0930      76.5422     140.7516      90.7396       0.0036       0.1535       0.1144       2.4794       0.7616       0.2097
   3281.2500   2950.2146  -2928.2146      76.8868     141.0715      95.8916       0.0056       0.1643       0.1240       2.4635       0.8251       0.2924
   3281.3750   2950.3364  -2928.3364      77.1376     141.1486     100.9057       0.0032       0.1772       0.1117       2.4839       1.0000       0.3729
   3281.5000   2950.4583  -2928.4583      77.3639     140.9459     105.5418       0.0007       0.1968       0.0789       2.5385       1.0000       0.4472
   3281.6250   2950.5801  -2928.5801      77.6756     140.4224     110.3697       0.0001       0.2294       0.0386       2.6058       1.0000       0.5246
   3281.7500   2950.7017  -2928.7017      78.0549     139.6260     118.0026       0.0001       0.2721       0.0244       2.6294       1.0000       0.6470
   3281.8750   2950.8235  -2928.8235      78.3551     138.8316     128.1376       0.0002       0.3086       0.0457       2.5939       1.0000       0.8098
   3282.0000   2950.9453  -2928.9453      78.5805     138.1681     138.7205       0.0010       0.3279       0.0851       2.5182       1.0000       0.9149
   3282.1250   2951.0671  -2929.0671      78.8068    -999.2500     146.9983       0.0052       0.3261       0.1224       2.4332       0.7095       0.8776
   3282.2500   2951.1890  -2929.1890      79.1573    -999.2500     150.1140       0.0158       0.3066       0.1472       2.3749       0.5497       0.8528
   3282.3750   2951.3105  -2929.3105      79.7842    -999.2500     145.8842       0.0169       0.2832       0.1487       2.3741       0.5071       0.8513
   3282.5000   2951.4324  -2929.4324      80.5279    -999.2500     137.9857       0.0127       0.2673       0.1424       2.4018       0.5634       0.8576
   3282.6250   2951.5542  -2929.5542      81.1916    -999.2500     130.3558       0.0154       0.2556       0.1466       2.4258       0.6586       0.8453
   3282.7500   2951.6760  -2929.6760      81.6672    -999.2500     124.7573       0.0129       0.2450       0.1426       2.4324       0.7621       0.7554
   3282.8750   2951.7976  -2929.7976      81.9269    -999.2500     121.8571       0.0182       0.2348       0.1503       2.4196       0.8462       0.7089
   3283.0000   2951.9194  -2929.9194      82.0490    -999.2500     121.1440       0.0315       0.2278       0.1626       2.3990       0.8916       0.6976
   3283.1250   2952.0413  -2930.0413      82.1475    -999.2500     121.3259       0.0377       0.2272       0.1666       2.3925       0.9087       0.7004
   3283.2500   2952.1631  -2930.1631      82.2138    -999.2500     121.6389       0.0331       0.2288       0.1637       2.3974       0.9415       0.7054
   3283.3750   2952.2847  -2930.2847      82.2426    -999.2500     122.1841    -999.2500       0.2286    -999.2500       2.4087    -999.2500       0.7142
   3283.5000   2952.4065  -2930.4065      82.2434    -999.2500     122.9810    -999.2500       0.2249    -999.2500       2.4202    -999.2500       0.7270
   3283.6250   2952.5283  -2930.5283      82.2343    -999.2500     123.9625    -999.2500       0.2190    -999.2500       2.4262    -999.2500       0.7427
   3283.7500   2952.6501  -2930.6501      82.2367    -999.2500     124.9143    -999.2500       0.2185    -999.2500       2.4278    -999.2500       0.7580
   3283.8750   2952.7720  -2930.7720      82.2370    -999.2500     125.5380    -999.2500       0.2251    -999.2500       2.4324    -999.2500       0.7680
   3284.0000   2952.8936  -2930.8936      82.2381    -999.2500    -999.2500    -999.2500       0.2346    -999.2500       2.4412    -999.2500       0.0010
   3284.1250   2953.0154  -2931.0154      82.2413    -999.2500    -999.2500    -999.2500       0.2441    -999.2500       2.4519    -999.2500       0.0010
   3284.2500   2953.1372  -2931.1372      82.2466    -999.2500    -999.2500    -999.2500       0.2511    -999.2500       2.4608    -999.2500       0.0010
   3284.3750   2953.2590  -2931.2590      82.2531    -999.2500    -999.2500    -999.2500       0.2542    -999.2500       2.4640    -999.2500       0.0010
   3284.5000   2953.3806  -2931.3806      82.2597    -999.2500    -999.2500    -999.2500       0.2538    -999.2500       2.4632    -999.2500       0.0010
   3284.6250   2953.5024  -2931.5024      82.2663    -999.2500    -999.2500    -999.2500       0.2525    -999.2500       2.4630    -999.2500       0.0010
   3284.7500   2953.6243  -2931.6243      82.2728    -999.2500    -999.2500    -999.2500       0.2502    -999.2500       2.4630    -999.2500       0.0010
   3284.8750   2953.7461  -2931.7461      82.2791    -999.2500    -999.2500    -999.2500       0.2468    -999.2500       2.4621    -999.2500       0.0010
   3285.0000   2953.8679  -2931.8679      82.2846    -999.2500    -999.2500    -999.2500       0.2427    -999.2500       2.4600    -999.2500       0.0010
   3285.1250   2953.9895  -2931.9895      82.2887    -999.2500    -999.2500    -999.2500       0.2394    -999.2500       2.4600    -999.2500       0.0010
   3285.2500   2954.1113  -2932.1113      82.2898    -999.2500    -999.2500    -999.2500       0.2395    -999.2500       2.4668    -999.2500       0.0010
   3285.3750   2954.2332  -2932.2332    -999.2500    -999.2500    -999.2500    -999.2500       0.2422    -999.2500       2.4788    -999.2500       0.0010
   3285.5000   2954.3550  -2932.3550    -999.2500    -999.2500    -999.2500    -999.2500       0.2465    -999.2500       2.4916    -999.2500       0.0010
   3285.6250   2954.4766  -2932.4766    -999.2500    -999.2500    -999.2500    -999.2500       0.2503    -999.2500       2.5002    -999.2500       0.0010
   3285.7500   2954.5984  -2932.5984    -999.2500    -999.2500    -999.2500    -999.2500       0.2517    -999.2500       2.5005    -999.2500       0.0010
   3285.8750   2954.7202  -2932.7202    -999.2500    -999.2500    -999.2500    -999.2500       0.2491    -999.2500       2.4907    -999.2500       0.0010
   3286.0000   2954.8420  -2932.8420    -999.2500    -999.2500    -999.2500    -999.2500       0.2459    -999.2500       2.4815    -999.2500       0.0010
   3286.1250   2954.9639  -2932.9639    -999.2500    -999.2500    -999.2500    -999.2500     -49.8727    -999.2500       2.4750    -999.2500       0.0010
   3286.2500   2955.0854  -2933.0854    -999.2500    -999.2500    -999.2500    -999.2500     -99.9900    -999.2500       2.4736    -999.2500       0.0010
