#------------------------------------------------------------------------------
#
#   Created by  : [OpenWorks] Log Export Utility (LEXP)
#   Created on  : 2007-05-07 11:57:18
#   Project     : NORNE
#   User        : JSE
#   Interpreter : JSE
#
#------------------------------------------------------------------------------
~VERSION INFORMATION
VERS. 2.0 : CWLS Log ASCII Standard - version 2.0
WRAP.  NO : One line per depth step
~WELL INFORMATION
#MNEMONIC   .UNIT                                           VALUE :DESCRIPTION
#------------------------------------------------------------------------------
STRT        .M                                           437.6250 :START DEPTH
STOP        .M                                          2890.0000 :STOP DEPTH
STEP        .M                                             0.1250 :STEP
NULL        .                                           -999.2500 :NULL VALUE
COMP        .                                             STATOIL :COMPANY
WELL        .                                       6608/10-C-4 H :WELL
FLD         .                                               NORNE :FIELD
LOC         .                                             UNKNOWN :LOCATION
CNTY        .                                             UNKNOWN :COUNTY
STAT        .                                             UNKNOWN :STATE
CTRY        .                                              Norway :COUNTRY
SRVC        .                                             UNKNOWN :SERVICE COMPANY
DATE        .                                             UNKNOWN :LOG DATE
UWI         .                                    NO 6608/10-C-4 H :UNIQUE WELL ID
XCOORD      .                                       457180.075915 :SURFACE X
YCOORD      .                                      7322034.182216 :SURFACE Y
LAT         .                                           66.014501 :LATITUDE
LON         .                                            8.056034 :LONGITUDE
ELEV        .M                                            25.0000 :SURFACE ELEV
ELEV_TYPE   .                                                  KB :ELEV TYPE
~CURVE INFORMATION
#MNEMONIC.UNIT        API CODE       : CURVE DESCRIPTION
#------------------------------------------------------------------------------
DEPTH    .M                          : Measured Depth
TVD      .M                          : True Vertical Depth (TVD)
TVDSS    .M                          : True Vertical Depth (TVDSS)
DT       .us/ft                      : DT:UNKNOWN:rC:NONE:v1 
GR       .API                        : GR:UNKNOWN:rC:NONE:v1 
KLOGH    .mD          UNKNOWN        : KLOGH:UNKNOWN:rC::v0 (auto-composite)
NPHI     .v/v_decimal                : NPHI:UNKNOWN:rC:NONE:v1 
PHIF     .v/v_decimal UNKNOWN        : PHIF:UNKNOWN:rC::v0 (auto-composite)
RHOB     .g/cm3                      : RHOB:UNKNOWN:rC:NONE:v1 
SW       .v/v_decimal UNKNOWN        : SW:UNKNOWN:rC::v0 (auto-composite)
VSH      .v/v_decimal UNKNOWN        : VSH:UNKNOWN:rC::v0 (auto-composite)
~A     DEPTH         TVD       TVDSS           DT           GR        KLOGH         NPHI         PHIF         RHOB           SW          VSH
# ...
   2667.7500   2643.7524  -2618.7524      97.9004      79.3393    1992.5409       0.2537       0.3125       2.1360       0.1115       0.0823
   2667.8750   2643.8774  -2618.8774      97.8127      84.4118    1509.7656       0.2564       0.3036       2.1575       0.1204       0.1482
   2668.0000   2644.0024  -2619.0024      97.4133      80.6814    2228.6372       0.2589       0.3162       2.1308       0.1188       0.0998
   2668.1250   2644.1274  -2619.1274      96.6479      77.8175    2512.1560       0.2587       0.3200       2.1215       0.1206       0.0626
   2668.2500   2644.2524  -2619.2524      95.5423      80.5547    1776.2919       0.2553       0.3088       2.1452       0.1330       0.0981
   2668.3750   2644.3774  -2619.3774      94.2071      82.5931    2288.0391       0.2497       0.3170       2.1302       0.1441       0.1246
   2668.5000   2644.5024  -2619.5024      92.8934      80.4401      33.4767       0.2372       0.2221       2.2842       0.2470       0.0966
   2668.6250   2644.6274  -2619.6274      91.8246      74.2724       7.4529       0.2148       0.1813       2.3557       0.3159       0.0165
   2668.7500   2644.7524  -2619.7524      91.0650      72.4919       2.5249       0.1917       0.1519       2.4084       0.3829       0.0010
   2668.8750   2644.8774  -2619.8774      90.6425      72.7625       0.9722       0.1743       0.1259       2.4541       0.4464       0.0010
   2669.0000   2645.0024  -2620.0024      90.5591      70.2705       0.5795       0.1669       0.1119       2.4783       0.4750       0.0010
   2669.1250   2645.1274  -2620.1274      90.8389      68.4916       0.9180       0.1704       0.1244       2.4537       0.4190       0.0010
   2669.2500   2645.2524  -2620.2524      91.5205      72.4367       4.8741       0.1840       0.1697       2.3704       0.3179       0.0010
   2669.3750   2645.3774  -2620.3774      92.5199      75.4899      19.8915       0.2034       0.2079       2.3042       0.2622       0.0323
   2669.5000   2645.5024  -2620.5024      93.7659      74.9935      99.1428       0.2242       0.2515       2.2338       0.2146       0.0259
   2669.6250   2645.6274  -2620.6274      95.1362      74.2546     466.1608       0.2416       0.2936       2.1685       0.1798       0.0163
   2669.7500   2645.7522  -2620.7522      96.4598      80.7019     654.5485       0.2523       0.3028       2.1543       0.1689       0.1000
   2669.8750   2645.8772  -2620.8772      97.3888      79.3292     376.3513       0.2582       0.2878       2.1789       0.1641       0.0822
   2670.0000   2646.0022  -2621.0022      97.7811      83.0320     449.6785       0.2634       0.2926       2.1734       0.1565       0.1303
   2670.1250   2646.1272  -2621.1272      97.7305      88.4539     636.4312       0.2681       0.3020       2.1589       0.1518       0.2007
   2670.2500   2646.2522  -2621.2522      97.3892      90.3249     566.1607       0.2700       0.2989       2.1633       0.1566       0.2250
   2670.3750   2646.3772  -2621.3772      96.9503      86.6353     278.5275       0.2664       0.2796       2.1959       0.1740       0.1771
   2670.5000   2646.5022  -2621.5022      96.6253      85.4102     223.5699       0.2565       0.2736       2.2123       0.1940       0.1612
   2670.6250   2646.6272  -2621.6272      96.5507      81.1107      29.6333       0.2461       0.2187       2.3064       0.2393       0.1053
   2670.7500   2646.7522  -2621.7522      96.6158      76.9034      23.4313       0.2374       0.2124       2.3029       0.2473       0.0507
   2670.8750   2646.8772  -2621.8772      96.7543      78.7178      39.9592       0.2317       0.2269       2.2750       0.2405       0.0743
   2671.0000   2647.0022  -2622.0022      96.9253      85.9497      71.4710       0.2322       0.2427       2.2559       0.2321       0.1682
   2671.1250   2647.1272  -2622.1272      97.1167      92.1580     140.9565       0.2420       0.2611       2.2350       0.2073       0.2488
   2671.2500   2647.2522  -2622.2522      97.3567      88.9400      86.7122       0.2619       0.2479       2.2473       0.2135       0.2070
   2671.3750   2647.3772  -2622.3772      97.6395      85.1224      87.8207       0.2779       0.2483       2.2511       0.2112       0.1574
   2671.5000   2647.5022  -2622.5022      97.9180      81.6261     167.8140       0.2836       0.2658       2.2188       0.1879       0.1120
   2671.6250   2647.6272  -2622.6272      98.1404      78.2764     352.0765       0.2802       0.2860       2.1796       0.1704       0.0685
   2671.7500   2647.7522  -2622.7522      98.2566      75.5245     537.4394       0.2724       0.2975       2.1617       0.1703       0.0328
   2671.8750   2647.8772  -2622.8772      98.2250      75.5370     595.1373       0.2655       0.3002       2.1600       0.1823       0.0329
   2672.0000   2648.0022  -2623.0022      98.0303      77.8083     287.2399       0.2641       0.2804       2.1980       0.1923       0.0625
   2672.1250   2648.1272  -2623.1272      97.7930      78.3405     139.4231       0.2659       0.2608       2.2246       0.2063       0.0694
   2672.2500   2648.2522  -2623.2522      97.5912      77.2690     100.0102       0.2683       0.2518       2.2417       0.2175       0.0554
   2672.3750   2648.3770  -2623.3770      97.4755      77.6434      92.2493       0.2690       0.2496       2.2532       0.2230       0.0603
   2672.5000   2648.5020  -2623.5020      97.4644      83.1901      79.1821       0.2666       0.2454       2.2595       0.2248       0.1323
   2672.6250   2648.6270  -2623.6270      97.5225      92.0776     118.9050       0.2623       0.2565       2.2366       0.2224       0.2478
   2672.7500   2648.7520  -2623.7520      97.5363      94.2366     151.3763       0.2603       0.2630       2.2267       0.2261       0.2758
   2672.8750   2648.8770  -2623.8770      97.4714      88.3843     187.5453       0.2610       0.2689       2.2169       0.2273       0.1998
   2673.0000   2649.0020  -2624.0020      97.3516      82.5255     238.5308       0.2627       0.2754       2.2055       0.2267       0.1237
   2673.1250   2649.1270  -2624.1270      97.2214      82.1793     312.8297       0.2632       0.2828       2.1928       0.2283       0.1192
   2673.2500   2649.2520  -2624.2520      97.1340      85.8260     434.3318       0.2605       0.2917       2.1790       0.2373       0.1664
   2673.3750   2649.3770  -2624.3770      97.1290      85.0662     729.2996       0.2565       0.3057       2.1475       0.2334       0.1567
   2673.5000   2649.5020  -2624.5020      97.1534      85.7783     224.4642       0.2539       0.2737       2.2061       0.2608       0.1660
   2673.6250   2649.6270  -2624.6270      97.1764      87.6254      93.6885       0.2527       0.2500       2.2499       0.2885       0.1899
   2673.7500   2649.7520  -2624.7520      97.1908      89.9046      65.0289       0.2527       0.2401       2.2681       0.3024       0.2195
   2673.8750   2649.8770  -2624.8770      97.2099      90.7206      47.2963       0.2539       0.2314       2.2809       0.3072       0.2302
   2674.0000   2650.0020  -2625.0020      97.2838      83.7467     122.8150       0.2554       0.2574       2.2284       0.2822       0.1395
   2674.1250   2650.1270  -2625.1270      97.4719      83.7480      57.3036       0.2539       0.2367       2.2729       0.3087       0.1396
   2674.2500   2650.2520  -2625.2520      97.7586      85.1972      73.3306       0.2521       0.2434       2.2621       0.2980       0.1584
   2674.3750   2650.3770  -2625.3770      98.1125      83.6872      70.0353       0.2526       0.2421       2.2628       0.2938       0.1388
   2674.5000   2650.5020  -2625.5020      98.4878      80.4676      41.5987       0.2563       0.2280       2.2880       0.3041       0.0970
   2674.6250   2650.6270  -2625.6270      98.8291      82.5391      68.0691       0.2622       0.2413       2.2617       0.2807       0.1239
   2674.7500   2650.7520  -2625.7520      99.0621      81.7236      67.7252       0.2664       0.2412       2.2552       0.2656       0.1133
