#------------------------------------------------------------------------------
#
#   Created by  : [OpenWorks] Log Export Utility (LEXP)
#   Created on  : 2007-05-07 11:57:18
#   Project     : NORNE
#   User        : JSE
#   Interpreter : JSE
#
#------------------------------------------------------------------------------
~VERSION INFORMATION
VERS. 2.0 : CWLS Log ASCII Standard - version 2.0
WRAP.  NO : One line per depth step
~WELL INFORMATION
#MNEMONIC   .UNIT                                           VALUE :DESCRIPTION
#------------------------------------------------------------------------------
STRT        .M                                           437.6250 :START DEPTH
STOP        .M                                          2890.0000 :STOP DEPTH
STEP        .M                                             0.1250 :STEP
NULL        .                                           -999.2500 :NULL VALUE
COMP        .                                             STATOIL :COMPANY
WELL        .                                       6608/10-C-4 H :WELL
FLD         .                                               NORNE :FIELD
LOC         .                                             UNKNOWN :LOCATION
CNTY        .                                             UNKNOWN :COUNTY
STAT        .                                             UNKNOWN :STATE
CTRY        .                                              Norway :COUNTRY
SRVC        .                                             UNKNOWN :SERVICE COMPANY
DATE        .                                             UNKNOWN :LOG DATE
UWI         .                                    NO 6608/10-C-4 H :UNIQUE WELL ID
XCOORD      .                                       457180.075915 :SURFACE X
YCOORD      .                                      7322034.182216 :SURFACE Y
LAT         .                                           66.014501 :LATITUDE
LON         .                                            8.056034 :LONGITUDE
ELEV        .M                                            25.0000 :SURFACE ELEV
ELEV_TYPE   .                                                  KB :ELEV TYPE
~CURVE INFORMATION
#MNEMONIC.UNIT        API CODE       : CURVE DESCRIPTION
#------------------------------------------------------------------------------
DEPTH    .M                          : Measured Depth
TVD      .M                          : True Vertical Depth (TVD)
TVDSS    .M                          : True Vertical Depth (TVDSS)
DT       .us/ft                      : DT:UNKNOWN:rC:NONE:v1 
GR       .API                        : GR:UNKNOWN:rC:NONE:v1 
KLOGH    .mD          UNKNOWN        : KLOGH:UNKNOWN:rC::v0 (auto-composite)
NPHI     .v/v_decimal                : NPHI:UNKNOWN:rC:NONE:v1 
PHIF     .v/v_decimal UNKNOWN        : PHIF:UNKNOWN:rC::v0 (auto-composite)
RHOB     .g/cm3                      : RHOB:UNKNOWN:rC:NONE:v1 
SW       .v/v_decimal UNKNOWN        : SW:UNKNOWN:rC::v0 (auto-composite)
VSH      .v/v_decimal UNKNOWN        : VSH:UNKNOWN:rC::v0 (auto-composite)
~A     DEPTH         TVD       TVDSS           DT           GR        KLOGH         NPHI         PHIF         RHOB           SW          VSH
# ...
   2546.6250   2522.6448  -2497.6448      69.2334     108.4454    -999.2500    -999.2500    -999.2500       2.0953    -999.2500    -999.2500
   2546.7500   2522.7698  -2497.7698      69.6346     107.5188    -999.2500    -999.2500    -999.2500       2.0855    -999.2500    -999.2500
   2546.8750   2522.8948  -2497.8948      70.1021     105.5530    -999.2500    -999.2500    -999.2500       2.1052    -999.2500    -999.2500
   2547.0000   2523.0198  -2498.0198      70.9736     106.0028    -999.2500    -999.2500    -999.2500       2.1062    -999.2500    -999.2500
   2547.1250   2523.1448  -2498.1448      72.3950     108.0993    -999.2500    -999.2500    -999.2500       2.1390    -999.2500    -999.2500
   2547.2500   2523.2698  -2498.2698      74.3171     110.4201    -999.2500    -999.2500    -999.2500       2.2178    -999.2500    -999.2500
   2547.3750   2523.3948  -2498.3948      76.5004     111.8573    -999.2500    -999.2500    -999.2500       2.2914    -999.2500    -999.2500
   2547.5000   2523.5198  -2498.5198      78.4296     117.0396    -999.2500    -999.2500    -999.2500       2.0263    -999.2500    -999.2500
   2547.6250   2523.6448  -2498.6448      79.7829     115.0750    -999.2500    -999.2500    -999.2500       2.2476    -999.2500    -999.2500
   2547.7500   2523.7695  -2498.7695      80.5852     106.0490    -999.2500    -999.2500    -999.2500       2.3398    -999.2500    -999.2500
   2547.8750   2523.8945  -2498.8945      80.9604      99.7356    -999.2500    -999.2500    -999.2500       2.2374    -999.2500    -999.2500
   2548.0000   2524.0195  -2499.0195      81.0790     104.0399    -999.2500    -999.2500    -999.2500       2.1052    -999.2500    -999.2500
   2548.1250   2524.1445  -2499.1445      81.1044     116.5339    -999.2500    -999.2500    -999.2500       2.2601    -999.2500    -999.2500
   2548.2500   2524.2695  -2499.2695      80.7618     120.8436    -999.2500    -999.2500    -999.2500       2.1512    -999.2500    -999.2500
   2548.3750   2524.3945  -2499.3945      79.7308     120.2805    -999.2500    -999.2500    -999.2500       2.1552    -999.2500    -999.2500
   2548.5000   2524.5195  -2499.5195      78.0220     117.2978    -999.2500    -999.2500    -999.2500       2.1538    -999.2500    -999.2500
   2548.6250   2524.6445  -2499.6445      75.8386     114.3894    -999.2500    -999.2500    -999.2500       2.1163    -999.2500    -999.2500
   2548.7500   2524.7695  -2499.7695      73.5514     113.4338    -999.2500    -999.2500    -999.2500       2.0820    -999.2500    -999.2500
   2548.8750   2524.8943  -2499.8943      71.8688     113.5266    -999.2500    -999.2500    -999.2500       2.0410    -999.2500    -999.2500
   2549.0000   2525.0193  -2500.0193      71.3513     114.6347    -999.2500    -999.2500    -999.2500       2.0216    -999.2500    -999.2500
   2549.1250   2525.1443  -2500.1443      71.6574     116.3168    -999.2500    -999.2500    -999.2500       2.0415    -999.2500    -999.2500
   2549.2500   2525.2693  -2500.2693      72.4130     120.4774    -999.2500    -999.2500    -999.2500       2.0677    -999.2500    -999.2500
   2549.3750   2525.3943  -2500.3943      73.2726     124.6016    -999.2500    -999.2500    -999.2500       2.0637    -999.2500    -999.2500
   2549.5000   2525.5193  -2500.5193      74.0150     118.6652    -999.2500    -999.2500    -999.2500       2.0080    -999.2500    -999.2500
   2549.6250   2525.6443  -2500.6443      74.8618     114.7070    -999.2500    -999.2500    -999.2500       2.0902    -999.2500    -999.2500
   2549.7500   2525.7693  -2500.7693      76.1927     118.3465    -999.2500    -999.2500    -999.2500       2.0906    -999.2500    -999.2500
   2549.8750   2525.8943  -2500.8943      78.0102     123.1134    -999.2500    -999.2500    -999.2500       2.0717    -999.2500    -999.2500
   2550.0000   2526.0190  -2501.0190      80.0356     122.9552    -999.2500    -999.2500    -999.2500       2.0684    -999.2500    -999.2500
   2550.1250   2526.1440  -2501.1440      81.8274     114.9532    -999.2500    -999.2500    -999.2500       2.0801    -999.2500    -999.2500
   2550.2500   2526.2690  -2501.2690      82.8391     107.3578    -999.2500    -999.2500    -999.2500       2.0252    -999.2500    -999.2500
   2550.3750   2526.3940  -2501.3940      83.0522     108.9343    -999.2500    -999.2500    -999.2500       2.0431    -999.2500    -999.2500
   2550.5000   2526.5190  -2501.5190      82.7675     111.9966    -999.2500    -999.2500    -999.2500       2.0538    -999.2500    -999.2500
   2550.6250   2526.6440  -2501.6440      82.2306     117.7324    -999.2500    -999.2500    -999.2500       2.0541    -999.2500    -999.2500
   2550.7500   2526.7690  -2501.7690      81.6491     123.6505    -999.2500    -999.2500    -999.2500       2.0536    -999.2500    -999.2500
   2550.8750   2526.8940  -2501.8940      81.1439     121.6607    -999.2500    -999.2500    -999.2500       2.0624    -999.2500    -999.2500
   2551.0000   2527.0190  -2502.0190      80.4588     113.6430    -999.2500    -999.2500    -999.2500       2.0091    -999.2500    -999.2500
   2551.1250   2527.1438  -2502.1438      79.6653     107.5719    -999.2500    -999.2500    -999.2500       2.0429    -999.2500    -999.2500
   2551.2500   2527.2688  -2502.2688      79.2261     103.5486    -999.2500    -999.2500    -999.2500       2.0509    -999.2500    -999.2500
   2551.3750   2527.3938  -2502.3938      79.4527     102.3296    -999.2500    -999.2500    -999.2500       2.0515    -999.2500    -999.2500
   2551.5000   2527.5188  -2502.5188      80.4629     104.4258    -999.2500    -999.2500    -999.2500       2.0761    -999.2500    -999.2500
   2551.6250   2527.6438  -2502.6438      82.0571     108.9814    -999.2500    -999.2500    -999.2500       2.0047    -999.2500    -999.2500
   2551.7500   2527.7688  -2502.7688      83.5127     107.5478    -999.2500    -999.2500    -999.2500       1.9931    -999.2500    -999.2500
   2551.8750   2527.8938  -2502.8938      84.2570     106.2560    -999.2500    -999.2500    -999.2500       2.0016    -999.2500    -999.2500
   2552.0000   2528.0188  -2503.0188      84.2329     104.9434    -999.2500    -999.2500    -999.2500       2.0281    -999.2500    -999.2500
   2552.1250   2528.1438  -2503.1438      83.6616     102.7115    -999.2500    -999.2500    -999.2500       2.0424    -999.2500    -999.2500
   2552.2500   2528.2686  -2503.2686      82.9690      99.1091    -999.2500    -999.2500    -999.2500       1.9956    -999.2500    -999.2500
   2552.3750   2528.3936  -2503.3936      82.4742     101.6732    -999.2500    -999.2500    -999.2500       1.9891    -999.2500    -999.2500
   2552.5000   2528.5186  -2503.5186      81.7319     103.4075    -999.2500    -999.2500    -999.2500       2.0444    -999.2500    -999.2500
   2552.6250   2528.6436  -2503.6436      80.3825     109.2682    -999.2500    -999.2500    -999.2500       2.0796    -999.2500    -999.2500
   2552.7500   2528.7686  -2503.7686      78.2974     115.3641    -999.2500    -999.2500    -999.2500       2.1207    -999.2500    -999.2500
   2552.8750   2528.8936  -2503.8936      75.5673     117.1055    -999.2500    -999.2500    -999.2500       2.1674    -999.2500    -999.2500
   2553.0000   2529.0186  -2504.0186      72.5691     115.4335    -999.2500    -999.2500    -999.2500       2.0640    -999.2500    -999.2500
   2553.1250   2529.1436  -2504.1436      70.3776     114.3328    -999.2500    -999.2500    -999.2500       2.0718    -999.2500    -999.2500
   2553.2500   2529.2686  -2504.2686      69.2053     114.6215    -999.2500    -999.2500    -999.2500       2.0555    -999.2500    -999.2500
   2553.3750   2529.3933  -2504.3933      68.7129     116.4867    -999.2500    -999.2500    -999.2500       2.0259    -999.2500    -999.2500
   2553.5000   2529.5183  -2504.5183      68.4302     118.3257    -999.2500    -999.2500    -999.2500       2.0085    -999.2500    -999.2500
   2553.6250   2529.6433  -2504.6433      67.8709     117.5198    -999.2500    -999.2500    -999.2500       2.0275    -999.2500    -999.2500
