#------------------------------------------------------------------------------
#
#   Created by  : [OpenWorks] Log Export Utility (LEXP)
#   Created on  : 2007-05-07 11:57:08
#   Project     : NORNE
#   User        : JSE
#   Interpreter : JSE
#
#------------------------------------------------------------------------------
~VERSION INFORMATION
VERS. 2.0 : CWLS Log ASCII Standard - version 2.0
WRAP.  NO : One line per depth step
~WELL INFORMATION
#MNEMONIC   .UNIT                                           VALUE :DESCRIPTION
#------------------------------------------------------------------------------
STRT        .M                                          1375.3750 :START DEPTH
STOP        .M                                          3298.0000 :STOP DEPTH
STEP        .M                                             0.1250 :STEP
NULL        .                                           -999.2500 :NULL VALUE
COMP        .                                             STATOIL :COMPANY
WELL        .                                       6608/10-C-1 H :WELL
FLD         .                                               NORNE :FIELD
LOC         .                                             UNKNOWN :LOCATION
CNTY        .                                             UNKNOWN :COUNTY
STAT        .                                             UNKNOWN :STATE
CTRY        .                                              Norway :COUNTRY
SRVC        .                                             UNKNOWN :SERVICE COMPANY
DATE        .                                             UNKNOWN :LOG DATE
UWI         .                                    NO 6608/10-C-1 H :UNIQUE WELL ID
XCOORD      .                                       457190.110178 :SURFACE X
YCOORD      .                                      7322024.307354 :SURFACE Y
LAT         .                                           66.014414 :LATITUDE
LON         .                                            8.056259 :LONGITUDE
ELEV        .M                                            22.0000 :SURFACE ELEV
ELEV_TYPE   .                                                  KB :ELEV TYPE
~CURVE INFORMATION
#MNEMONIC.UNIT        API CODE       : CURVE DESCRIPTION
#------------------------------------------------------------------------------
DEPTH    .M                          : Measured Depth
TVD      .M                          : True Vertical Depth (TVD)
TVDSS    .M                          : True Vertical Depth (TVDSS)
DT       .us/ft                      : DT:UNKNOWN:rC:NONE:v1 
DTS      .us/ft                      : DTS:UNKNOWN:rC:NONE:v1 
GR       .API         UNKNOWN        : GR:GR:rC:NONE:v1 
KLOGH    .mD          UNKNOWN        : KLOGH:UNKNOWN:rC::v0 (auto-composite)
NPHI     .v/v_decimal                : NPHI:UNKNOWN:rC:NONE:v1 
PHIF     .v/v_decimal UNKNOWN        : PHIF:UNKNOWN:rC::v0 (auto-composite)
RHOB     .g/cm3       UNKNOWN        : RHOB:UNKNOWN:rC:NONE:v1 
SW       .v/v_decimal UNKNOWN        : SW:UNKNOWN:rC::v0 (auto-composite)
VSH      .v/v_decimal UNKNOWN        : VSH:UNKNOWN:rC::v0 (auto-composite)
~A     DEPTH         TVD       TVDSS           DT          DTS           GR        KLOGH         NPHI         PHIF         RHOB           SW          VSH
# ...
   3078.3750   2752.5251  -2730.5251      80.5749     136.3824      83.7218       9.5903       0.2173       0.1781       2.3580       1.0000       0.0971
   3078.5000   2752.6470  -2730.6470      76.9012     132.7017      83.9971       6.6672       0.2116       0.1685       2.3737       0.3156       0.1016
   3078.6250   2752.7690  -2730.7690      72.4253     128.7165      82.7425       3.3721       0.2030       0.1505       2.4033       0.1438       0.0814
   3078.7500   2752.8909  -2730.8909      68.7134     124.3972      79.8372       0.8982       0.1901       0.1155       2.4605    -999.2500       0.0349
   3078.8750   2753.0127  -2731.0127      66.1915     119.7209      76.1620       0.1633       0.1738       0.0705       2.5344    -999.2500       0.0010
   3079.0000   2753.1345  -2731.1345      64.5510     114.7121      72.2963       0.0278       0.1540       0.0237       2.6111    -999.2500       0.0010
   3079.1250   2753.2563  -2731.2563      63.2360     109.5478      68.7731       0.0118       0.1311       0.0010       2.6765       1.0000       0.0010
   3079.2500   2753.3784  -2731.3784      61.6244     104.5523      66.0292       0.0118       0.1067       0.0010       2.7188       1.0000       0.0010
   3079.3750   2753.5002  -2731.5002      59.7381     100.3521      64.4038       0.0118       0.0859       0.0010       2.7311       0.9458       0.0010
   3079.5000   2753.6221  -2731.6221      58.4092      97.3928      63.4851       0.0118       0.0721       0.0010       2.7295       0.9236       0.0010
   3079.6250   2753.7439  -2731.7439      57.7254      95.8008      62.9049       0.0118       0.0644       0.0010       2.7270       1.0000       0.0010
   3079.7500   2753.8657  -2731.8657      57.5197      95.5890      62.4333       0.0118       0.0618       0.0010       2.7250       1.0000       0.0010
   3079.8750   2753.9878  -2731.9878      57.5515      96.5933      61.9108       0.0118       0.0633       0.0010       2.7193       1.0000       0.0010
   3080.0000   2754.1096  -2732.1096      57.6499      98.4616      61.2749       0.0118       0.0689       0.0010       2.6996    -999.2500       0.0010
   3080.1250   2754.2314  -2732.2314      58.0427     100.4270      61.0412       0.0118       0.0791       0.0010       2.6641    -999.2500       0.0010
   3080.2500   2754.3533  -2732.3533      58.7430     101.9351      61.6403       0.0211       0.0926       0.0164       2.6231       0.8608       0.0010
   3080.3750   2754.4751  -2732.4751      59.5969     103.0189      62.9839       0.0553       0.1077       0.0419       2.5813       0.4996       0.0010
   3080.5000   2754.5972  -2732.5972      60.3357     103.9590      64.7073       0.0517       0.1222       0.0641       2.5448       1.0000       0.0010
   3080.6250   2754.7190  -2732.7190      60.6636     105.1701      66.2575       0.1023       0.1338       0.0793       2.5199       1.0000       0.0010
   3080.7500   2754.8408  -2732.8408      60.4850     106.9576      66.9492       0.1400       0.1398       0.0863       2.5085       1.0000       0.0010
   3080.8750   2754.9626  -2732.9626      60.3512     108.8719      66.9955       0.1576       0.1415       0.0889       2.5041       1.0000       0.0010
   3081.0000   2755.0845  -2733.0845      60.5527     110.6365      66.9897       0.1556       0.1429       0.0887       2.5046       1.0000       0.0010
   3081.1250   2755.2065  -2733.2065      61.1374     112.2115      67.1630       0.1469       0.1459       0.0874       2.5067       1.0000       0.0010
   3081.2500   2755.3284  -2733.3284      62.0903     113.6474      67.6010       0.1460       0.1510       0.0872       2.5069       1.0000       0.0010
   3081.3750   2755.4502  -2733.4502      63.4000     115.0560      68.2600       0.1670       0.1566       0.0902       2.5020       1.0000       0.0010
   3081.5000   2755.5720  -2733.5720      65.1887     116.4954      69.2808       0.2336       0.1608       0.0977       2.4898       1.0000       0.0010
   3081.6250   2755.6938  -2733.6938      67.2474     117.5338      70.5760       0.3447       0.1650       0.1064       2.4755       1.0000       0.0010
   3081.7500   2755.8159  -2733.8159      69.4244     117.7552      71.9715       0.5361       0.1707       0.1162       2.4594       1.0000       0.0010
   3081.8750   2755.9377  -2733.9377      71.5761     116.9910      73.3764       0.9125       0.1799       0.1281       2.4400       1.0000       0.0010
   3082.0000   2756.0596  -2734.0596      73.5632     115.3071      74.8058       1.7357       0.1939       0.1424       2.4165       1.0000       0.0010
   3082.1250   2756.1814  -2734.1814      75.1853     113.0330      76.5330       3.1112       0.2110       0.1554       2.3952       1.0000       0.0010
   3082.2500   2756.3032  -2734.3032      76.1240     110.7018      78.6759       3.6502       0.2244       0.1590       2.3893       1.0000       0.0162
   3082.3750   2756.4253  -2734.4253      76.2344     108.5320      80.8733       2.6635       0.2305       0.1519       2.4008       1.0000       0.0515
   3082.5000   2756.5471  -2734.5471      75.4801     106.5083      82.6254       1.1416       0.2298       0.1331       2.4318       1.0000       0.0796
   3082.6250   2756.6689  -2734.6689      74.0136     104.5328      83.4624       0.3112       0.2241       0.1041       2.4793       1.0000       0.0930
   3082.7500   2756.7908  -2734.7908      72.1907     102.4723      83.0558       0.0696       0.2160       0.0707       2.5340       1.0000       0.0865
   3082.8750   2756.9126  -2734.9126      70.5464     100.8091      81.6394       0.0198       0.2064       0.0427       2.5799       1.0000       0.0637
   3083.0000   2757.0344  -2735.0344      69.2182     100.3183      80.2640       0.0078       0.1944       0.0219       2.6140       1.0000       0.0417
   3083.1250   2757.1565  -2735.1565      68.1704     101.7501      79.2600       0.0036       0.1802       0.0050       2.6419       1.0000       0.0256
   3083.2500   2757.2783  -2735.2783      67.4687     105.5914      78.8139       0.0030       0.1667       0.0010       2.6676       1.0000       0.0184
   3083.3750   2757.4001  -2735.4001      67.2481     111.9304      79.0838       0.0030       0.1579       0.0010       2.6916       1.0000       0.0227
   3083.5000   2757.5220  -2735.5220      67.7879     120.2142      80.4822       0.0030       0.1586       0.0010       2.7022       1.0000       0.0452
   3083.6250   2757.6438  -2735.6438      69.1361     128.7427      83.4034       0.0030       0.1692       0.0010       2.6757       1.0000       0.0921
   3083.7500   2757.7659  -2735.7659      70.9800     136.2309      87.3326       0.0077       0.1848       0.0218       2.6142       1.0000       0.1551
   3083.8750   2757.8877  -2735.8877      73.1821     142.3224      91.7129       0.0631       0.2033       0.0686       2.5375       1.0000       0.2253
   3084.0000   2758.0095  -2736.0095      75.6416     147.0048      95.9012       0.4225       0.2230       0.1109       2.4681       1.0000       0.2925
   3084.1250   2758.1313  -2736.1313      78.2870     150.5490      99.2700       1.3566       0.2423       0.1369       2.4255       0.8685       0.3465
   3084.2500   2758.2532  -2736.2532      80.8889     153.3347     101.5146       1.8162       0.2577       0.1434       2.4148       0.8495       0.3826
   3084.3750   2758.3752  -2736.3752      82.9500     155.2533     103.1458       1.8732       0.2659       0.1441       2.4137       0.8599       0.4088
   3084.5000   2758.4971  -2736.4971      84.2512     155.5092     104.0074       2.0440       0.2674       0.1460       2.4105       0.8636       0.4226
   3084.6250   2758.6189  -2736.6189      84.7521     153.8429     103.7766       2.4128       0.2640       0.1497       2.4044       0.8580       0.4189
   3084.7500   2758.7407  -2736.7407      84.5538     150.5133     102.2189       2.7243       0.2583       0.1524       2.4000       0.8564       0.3939
