#------------------------------------------------------------------------------
#
#   Created by  : [OpenWorks] Log Export Utility (LEXP)
#   Created on  : 2007-05-07 11:57:11
#   Project     : NORNE
#   User        : JSE
#   Interpreter : JSE
#
#------------------------------------------------------------------------------
~VERSION INFORMATION
VERS. 2.0 : CWLS Log ASCII Standard - version 2.0
WRAP.  NO : One line per depth step
~WELL INFORMATION
#MNEMONIC   .UNIT                                           VALUE :DESCRIPTION
#------------------------------------------------------------------------------
STRT        .M                                          1205.1348 :START DEPTH
STOP        .M                                          4417.7598 :STOP DEPTH
STEP        .M                                             0.1250 :STEP
NULL        .                                           -999.2500 :NULL VALUE
COMP        .                                             STATOIL :COMPANY
WELL        .                                       6608/10-C-2 H :WELL
FLD         .                                               NORNE :FIELD
LOC         .                                             UNKNOWN :LOCATION
CNTY        .                                             UNKNOWN :COUNTY
STAT        .                                             UNKNOWN :STATE
CTRY        .                                              Norway :COUNTRY
SRVC        .                                             UNKNOWN :SERVICE COMPANY
DATE        .                                             UNKNOWN :LOG DATE
UWI         .                                    NO 6608/10-C-2 H :UNIQUE WELL ID
XCOORD      .                                       457185.617758 :SURFACE X
YCOORD      .                                      7322019.729827 :SURFACE Y
LAT         .                                           66.014372 :LATITUDE
LON         .                                            8.056161 :LONGITUDE
ELEV        .M                                            22.0000 :SURFACE ELEV
ELEV_TYPE   .                                                  KB :ELEV TYPE
~CURVE INFORMATION
#MNEMONIC.UNIT        API CODE       : CURVE DESCRIPTION
#------------------------------------------------------------------------------
DEPTH    .M                          : Measured Depth
TVD      .M                          : True Vertical Depth (TVD)
TVDSS    .M                          : True Vertical Depth (TVDSS)
DT       .us/ft       UNKNOWN        : DT:DT:rC::v0 (auto-composite)
DTS      .us/ft       UNKNOWN        : DTS:DTS:rC::v0 (auto-composite)
GR       .API         UNKNOWN        : GR:GR:rC::v0 (auto-composite)
KLOGH    .mD          UNKNOWN        : KLOGH:UNKNOWN:rC:NONE:v1 
NPHI     .v/v_decimal UNKNOWN        : NPHI:NPHI:rC::v0 (auto-composite)
PHIF     .v/v_decimal UNKNOWN        : PHIF:PHIF:rC::v0 (auto-composite)
SW       .v/v_decimal UNKNOWN        : SW:SW:rC::v0 (auto-composite)
VSH      .v/v_decimal UNKNOWN        : VSH:VSH:rC::v0 (auto-composite)
~A     DEPTH         TVD       TVDSS           DT          DTS           GR        KLOGH         NPHI         PHIF           SW          VSH
# ...
   3969.6348   2641.8906  -2619.8906      94.1105     161.6965      72.7648      59.6606       0.2777       0.2378       0.2444       0.2090
   3969.7598   2641.9568  -2619.9568      95.1966     163.5315      75.8050      43.5408       0.2808       0.2201       0.2710       0.2448
   3969.8848   2642.0232  -2620.0232      96.5388     165.4655      80.5013       6.6354       0.2766       0.1781       0.3314       0.3000
   3970.0098   2642.0896  -2620.0896      97.9781     167.3636      78.3077       6.4694       0.2655       0.1774       0.3400       0.2742
   3970.1348   2642.1558  -2620.1558      99.3113     169.1743      70.6497      13.1277       0.2492       0.1950       0.3185       0.1841
   3970.2598   2642.2222  -2620.2222     100.4815     170.9111      65.4252      17.8011       0.2355       0.2047       0.3064       0.1226
   3970.3848   2642.2883  -2620.2883     101.4956     172.5771      61.5646      27.5844       0.2291       0.2151       0.2967       0.0772
   3970.5098   2642.3547  -2620.3547     102.3772     174.1584      59.2249      41.0443       0.2321       0.2276       0.2877       0.0497
   3970.6348   2642.4211  -2620.4211     103.1552     175.6248      60.8072      46.5813       0.2433       0.2309       0.2898       0.0683
   3970.7598   2642.4873  -2620.4873     103.8247     176.9507      60.5430      73.9890       0.2559       0.2431       0.2830       0.0652
   3970.8848   2642.5537  -2620.5537     104.3906     178.1468      58.7385     131.7672       0.2648       0.2580       0.2720       0.0439
   3971.0098   2642.6201  -2620.6201     104.8326     179.1505      57.3059     192.0630       0.2709       0.2690       0.2636       0.0271
   3971.1348   2642.6863  -2620.6863     105.1532     179.8692      57.0190     232.0287       0.2760       0.2746       0.2604       0.0238
   3971.2598   2642.7527  -2620.7527     105.3680     180.2054      58.2393     230.4616       0.2812       0.2742       0.2637       0.0381
   3971.3848   2642.8191  -2620.8191     105.4901     180.0432      61.5594     162.4403       0.2861       0.2648       0.2767       0.0772
   3971.5098   2642.8853  -2620.8853     105.4761     179.4217      62.9123     131.9164       0.2854       0.2592       0.2859       0.0931
   3971.6348   2642.9517  -2620.9517     105.3273     178.5801      61.4730     135.2968       0.2793       0.2599       0.2885       0.0762
   3971.7598   2643.0178  -2621.0178     105.0565     177.6059      60.8577     112.3185       0.2689       0.2533       0.2990       0.0689
   3971.8848   2643.0842  -2621.0842     104.6935     176.5602      63.3463      56.0992       0.2557       0.2313       0.3313       0.0982
   3972.0098   2643.1506  -2621.1506     104.2806     175.4833      68.9484      12.9059       0.2419       0.1956       0.3922       0.1641
   3972.1348   2643.2168  -2621.2168     103.8688     174.4339      72.5125       5.9974       0.2338       0.1735       0.4507       0.2060
   3972.2598   2643.2832  -2621.2832     103.4937     173.4867      74.8488       4.8585       0.2405       0.1696       0.4591       0.2335
   3972.3848   2643.3496  -2621.3496     103.1867     172.6585      77.1358       6.2466       0.2581       0.1758       0.4409       0.2604
   3972.5098   2643.4158  -2621.4158     102.9847     171.9564      78.8088       9.6204       0.2787       0.1871       0.4086       0.2801
   3972.6348   2643.4822  -2621.4822     102.9161     171.3683      79.1550      13.8482       0.2926       0.1981       0.3757       0.2842
   3972.7598   2643.5486  -2621.5486     102.9957     170.8580      78.2274      15.0179       0.2908       0.2003       0.3628       0.2733
   3972.8848   2643.6147  -2621.6147     103.1836     170.3452      76.8899      10.5419       0.2731       0.1901       0.3903       0.2575
   3973.0098   2643.6812  -2621.6812     103.3902     169.7651      78.2338       5.4981       0.2556       0.1689       0.4426       0.2734
   3973.1348   2643.7476  -2621.7476     103.5822     169.0994      78.9232       2.9913       0.2449       0.1564       0.4728       0.2814
   3973.2598   2643.8137  -2621.8137     103.7355     168.3652      78.2516       3.1594       0.2431       0.1577       0.4685       0.2735
   3973.3848   2643.8801  -2621.8801     103.8342     167.6081      77.5406       4.0698       0.2477       0.1648       0.4465       0.2652
   3973.5098   2643.9463  -2621.9463     103.8571     166.9049      76.6728       5.0519       0.2502       0.1706       0.4291       0.2550
   3973.6348   2644.0127  -2622.0127     103.7932     166.3001      77.4195       4.0133       0.2463       0.1640       0.4424       0.2638
   3973.7598   2644.0791  -2622.0791     103.6572     165.7788      74.6396       4.8370       0.2384       0.1687       0.4307       0.2311
   3973.8848   2644.1453  -2622.1453     103.4605     165.3368      71.5746       5.9433       0.2312       0.1751       0.4146       0.1950
   3974.0098   2644.2117  -2622.2117     103.2187     164.9678      70.1636       7.7505       0.2300       0.1800       0.4019       0.1784
   3974.1348   2644.2781  -2622.2781     102.9490     164.6620      66.9404      15.9244       0.2394       0.2019       0.3514       0.1405
   3974.2598   2644.3442  -2622.3442     102.6771     164.4253      68.6926      20.2257       0.2548       0.2082       0.3346       0.1611
   3974.3848   2644.4106  -2622.4106     102.4245     164.2675      70.6462      21.5150       0.2661       0.2101       0.3217       0.1841
   3974.5098   2644.4771  -2622.4771     102.2127     164.2571      74.0160      15.7527       0.2695       0.1990       0.3327       0.2237
   3974.6348   2644.5432  -2622.5432     102.0595     164.4854      80.2597       6.5792       0.2653       0.1690       0.3976       0.2972
   3974.7598   2644.6096  -2622.6096     101.9802     165.0561      88.6851       0.9876       0.2573       0.1264       0.5134       0.3963
   3974.8848   2644.6758  -2622.6758     101.9982     166.1301      87.8429       1.0467       0.2551       0.1279       0.4993       0.3864
   3975.0098   2644.7422  -2622.7422     102.1362     167.7165      78.3233       7.9654       0.2619       0.1742       0.3846       0.2743
   3975.1348   2644.8086  -2622.8086     102.3898     169.6242      75.7185      13.0075       0.2741       0.1959       0.3319       0.2437
   3975.2598   2644.8748  -2622.8748     102.7570     171.7201      75.6510      22.9622       0.2888       0.2093       0.3075       0.2430
   3975.3848   2644.9412  -2622.9412     103.2236     173.8618      75.5668      34.2164       0.3033       0.2225       0.2859       0.2420
   3975.5098   2645.0076  -2623.0076     103.7630     175.9039      79.2061      29.0932       0.3145       0.2179       0.2910       0.2848
   3975.6348   2645.0737  -2623.0737     104.3161     177.5942      79.3913      67.2725       0.3148       0.2396       0.2655       0.2870
   3975.7598   2645.1401  -2623.1401     104.8135     178.8787      76.2544      93.9974       0.3057       0.2498       0.2539       0.2501
   3975.8848   2645.2065  -2623.2065     105.2244     179.7634      76.3920      66.3631       0.2918       0.2347       0.2678       0.2517
   3976.0098   2645.2727  -2623.2727     105.5342     180.2812      78.0457      23.0574       0.2768       0.2113       0.2887       0.2711
   3976.1348   2645.3391  -2623.3391     105.7386     180.4821      77.3753      14.8895       0.2643       0.1991       0.3021       0.2632
   3976.2598   2645.4053  -2623.4053     105.8305     180.3951      76.4854       7.2161       0.2580       0.1796       0.3545       0.2528
   3976.3848   2645.4717  -2623.4717     105.7844     179.9931      73.4372       9.3098       0.2532       0.1869       0.3429       0.2169
   3976.5098   2645.5381  -2623.5381     105.5933     179.2503      72.1638       8.7533       0.2455       0.1854       0.3381       0.2019
   3976.6348   2645.6042  -2623.6042     105.2275     178.1258      74.1725       5.5996       0.2371       0.1695       0.3647       0.2256
