#------------------------------------------------------------------------------
#
#   Created by  : [OpenWorks] Log Export Utility (LEXP)
#   Created on  : 2007-05-07 11:56:53
#   Project     : NORNE
#   User        : JSE
#   Interpreter : JSE
#
#------------------------------------------------------------------------------
~VERSION INFORMATION
VERS. 2.0 : CWLS Log ASCII Standard - version 2.0
WRAP.  NO : One line per depth step
~WELL INFORMATION
#MNEMONIC   .UNIT                                           VALUE :DESCRIPTION
#------------------------------------------------------------------------------
STRT        .M                                           450.6626 :START DEPTH
STOP        .M                                          3861.9126 :STOP DEPTH
STEP        .M                                             0.1250 :STEP
NULL        .                                           -999.2500 :NULL VALUE
COMP        .                                             STATOIL :COMPANY
WELL        .                                       6608/10-B-2 H :WELL
FLD         .                                               NORNE :FIELD
LOC         .                                             UNKNOWN :LOCATION
CNTY        .                                             UNKNOWN :COUNTY
STAT        .                                             UNKNOWN :STATE
CTRY        .                                              Norway :COUNTRY
SRVC        .                                             UNKNOWN :SERVICE COMPANY
DATE        .                                             UNKNOWN :LOG DATE
UWI         .                                    NO 6608/10-B-2 H :UNIQUE WELL ID
XCOORD      .                                       457121.854690 :SURFACE X
YCOORD      .                                      7322122.976330 :SURFACE Y
LAT         .                                           66.015290 :LATITUDE
LON         .                                            8.054722 :LONGITUDE
ELEV        .M                                            25.0000 :SURFACE ELEV
ELEV_TYPE   .                                                  KB :ELEV TYPE
~CURVE INFORMATION
#MNEMONIC.UNIT        API CODE       : CURVE DESCRIPTION
#------------------------------------------------------------------------------
DEPTH    .M                          : Measured Depth
TVD      .M                          : True Vertical Depth (TVD)
TVDSS    .M                          : True Vertical Depth (TVDSS)
DT       .us/ft                      : DT:UNKNOWN:rC:NONE:v1 
GR       .API                        : GR:UNKNOWN:rC:NONE:v1 
KLOGH    .mD                         : KLOGH:UNKNOWN:rC:NONE:v1 
NPHI     .v/v_decimal                : NPHI:UNKNOWN:rC:NONE:v1 
PHIF     .v/v_decimal                : PHIF:UNKNOWN:rC:NONE:v1 
RHOB     .g/cm3                      : RHOB:UNKNOWN:rC:NONE:v1 
SW       .v/v_decimal                : SW:UNKNOWN:rC:NONE:v1 
VSH      .v/v_decimal                : VSH:UNKNOWN:rC:NONE:v1 
~A     DEPTH         TVD       TVDSS           DT           GR        KLOGH         NPHI         PHIF         RHOB           SW          VSH
# ...
   2858.9126   2629.6658  -2604.6658     107.9248      56.5734      78.6308       0.2716       0.2441       2.2009       0.1602       0.1158
   2859.0376   2629.7021  -2604.7021     108.3648      54.8336     180.9841       0.2699       0.2659       2.1601       0.1522       0.1161
   2859.1626   2629.7385  -2604.7385     107.6367      48.5946     173.7295       0.2759       0.2651       2.1609       0.1522       0.0469
   2859.2876   2629.7747  -2604.7747     107.9445      48.1435     186.1668       0.2816       0.2665       2.1588       0.1499       0.0384
   2859.4126   2629.8110  -2604.8110     107.8934      49.3493     214.3126       0.2815       0.2692       2.1536       0.1465       0.0512
   2859.5376   2629.8474  -2604.8474     107.3385      50.2697     247.3027       0.2831       0.2721       2.1478       0.1435       0.0620
   2859.6626   2629.8835  -2604.8835     106.3955      50.6342     250.7353       0.2886       0.2721       2.1478       0.1424       0.0663
   2859.7876   2629.9199  -2604.9199     105.2444      52.1360     164.4978       0.2890       0.2640       2.1640       0.1443       0.0840
   2859.9126   2629.9561  -2604.9561     105.0968      53.7257     151.5127       0.2877       0.2623       2.1665       0.1442       0.1027
   2860.0376   2629.9924  -2604.9924     105.1823      54.2904     153.8208       0.2837       0.2627       2.1663       0.1428       0.1093
   2860.1626   2630.0288  -2605.0288     105.1607      54.0557     156.4841       0.2776       0.2630       2.1655       0.1418       0.1065
   2860.2876   2630.0649  -2605.0649     104.8074      53.6308     156.4841       0.2723       0.2630       2.1653       0.1424       0.1015
   2860.4126   2630.1013  -2605.1013     104.1778      53.6130     147.2437       0.2706       0.2613       2.1691       0.1457       0.1013
   2860.5376   2630.1375  -2605.1375     104.1778      53.7883      79.6572       0.2706       0.2490       2.1921       0.1542       0.1034
   2860.6626   2630.1738  -2605.1738     104.3114      52.2021      47.4262       0.2972       0.2382       2.2128       0.1604       0.0847
   2860.7876   2630.2102  -2605.2102     103.5419      50.1981      30.6444       0.3070       0.2299       2.2293       0.1628       0.0675
   2860.9126   2630.2463  -2605.2463     102.6541      49.6576      47.0742       0.3015       0.2354       2.2185       0.1596       0.0616
   2861.0376   2630.2827  -2605.2827     102.4492      50.6991      82.6432       0.2912       0.2502       2.1896       0.1538       0.0703
   2861.1626   2630.3191  -2605.3191     103.3459      51.2551      86.0800       0.2885       0.2510       2.1879       0.1527       0.0885
   2861.2876   2630.3552  -2605.3552     104.8046      49.2858      89.6912       0.2767       0.2519       2.1863       0.1505       0.0527
   2861.4126   2630.3916  -2605.3916     107.3402      48.2078      87.3778       0.2804       0.2513       2.1873       0.1483       0.0800
   2861.5376   2630.4277  -2605.4277     109.0587      50.7716     142.6689       0.2950       0.2594       2.1717       0.1469       0.0997
   2861.6626   2630.4641  -2605.4641     110.1915      53.9505     170.7404       0.3033       0.2639       2.1628       0.1483       0.0920
   2861.7876   2630.5005  -2605.5005     111.1933      53.3665      99.8358       0.2940       0.2538       2.1824       0.1528       0.0616
   2861.9126   2630.5366  -2605.5366     110.6108      47.2315      68.7113       0.2882       0.2464       2.1972       0.1552       0.0243
   2862.0376   2630.5730  -2605.5730     107.6880      45.0967      57.5646       0.2766       0.2429       2.2034       0.1522       0.0050
   2862.1626   2630.6094  -2605.6094     105.8931      44.1225     125.0397       0.2803       0.2557       2.1794       0.1463       0.0000
   2862.2876   2630.6455  -2605.6455     103.9900      46.6638     184.5231       0.2838       0.2662       2.1591       0.1431       0.0384
   2862.4126   2630.6819  -2605.6819     101.8041      50.0332     198.5707       0.2781       0.2678       2.1555       0.1427       0.0788
   2862.5376   2630.7180  -2605.7180     100.3475      48.3834     196.9952       0.2653       0.2675       2.1561       0.1405       0.0398
   2862.6626   2630.7544  -2605.7544      98.8889      55.2118     285.9745       0.2709       0.2749       2.1421       0.1358       0.1201
   2862.7876   2630.7908  -2605.7908      99.1613      51.0829     245.5882       0.2742       0.2718       2.1477       0.1375       0.0716
   2862.9126   2630.8269  -2605.8269     100.6621      48.6894     188.1791       0.2730       0.2664       2.1582       0.1416       0.0434
   2863.0376   2630.8633  -2605.8633     102.1654      50.3512     162.0072       0.2710       0.2637       2.1640       0.1438       0.0630
   2863.1626   2630.8994  -2605.8994     102.9490      54.5248     162.3545       0.2693       0.2634       2.1648       0.1432       0.1121
   2863.2876   2630.9358  -2605.9358     103.9701      57.9438     106.5763       0.2582       0.2552       2.1796       0.1468       0.1523
   2863.4126   2630.9722  -2605.9722     104.4248      56.5976     152.3767       0.2641       0.2622       2.1673       0.1456       0.1364
   2863.5376   2631.0083  -2606.0083     104.6430      53.4096     164.4978       0.2656       0.2640       2.1634       0.1457       0.0989
   2863.6626   2631.0447  -2606.0447     104.3222      52.7083     189.6432       0.2671       0.2666       2.1582       0.1447       0.0907
   2863.7876   2631.0811  -2606.0811     103.5016      53.1190     214.0167       0.2686       0.2692       2.1533       0.1432       0.0955
   2863.9126   2631.1172  -2606.1172     102.7009      50.4254     189.0411       0.2663       0.2668       2.1575       0.1435       0.0613
   2864.0376   2631.1536  -2606.1536     104.0137      50.8028     167.2248       0.2593       0.2643       2.1633       0.1438       0.0389
   2864.1626   2631.1897  -2606.1897     104.8160      52.4503     213.9234       0.2677       0.2690       2.1539       0.1432       0.0784
   2864.2876   2631.2261  -2606.2261     103.9179      49.1574     227.2196       0.2722       0.2705       2.1511       0.1449       0.0551
   2864.4126   2631.2625  -2606.2625     101.7227      45.2150     193.1706       0.2707       0.2668       2.1577       0.1479       0.0134
   2864.5376   2631.2986  -2606.2986      98.7966      44.8638     138.1037       0.2669       0.2605       2.1692       0.1510       0.0217
   2864.6626   2631.3350  -2606.3350      95.2889      48.0470     121.9045       0.2686       0.2580       2.1750       0.1538       0.1220
   2864.7876   2631.3711  -2606.3711      96.1624      51.0549     163.6832       0.2854       0.2637       2.1635       0.1497       0.0868
   2864.9126   2631.4075  -2606.4075      99.3111      51.4137     167.5353       0.2878       0.2644       2.1623       0.1494       0.1210
   2865.0376   2631.4438  -2606.4438     101.7125      52.6126     150.8193       0.2897       0.2622       2.1662       0.1521       0.1281
   2865.1626   2631.4800  -2606.4800     102.7265      53.4152     118.8324       0.2926       0.2569       2.1761       0.1567       0.1027
   2865.2876   2631.5164  -2606.5164     103.0934      51.3662      81.5648       0.2915       0.2498       2.1905       0.1609       0.0868
   2865.4126   2631.5527  -2606.5527     102.9475      51.8051     112.9053       0.2879       0.2564       2.1782       0.1580       0.0811
   2865.5376   2631.5889  -2606.5889     102.8017      51.2624     104.0190       0.2839       0.2548       2.1807       0.1636       0.0847
   2865.6626   2631.6252  -2606.6252     102.7556      49.6234      74.5868       0.2790       0.2473       2.1954       0.1668       0.0609
   2865.7876   2631.6614  -2606.6614     103.0264      47.2296      78.1076       0.2697       0.2477       2.1950       0.1646       0.0262
   2865.9126   2631.6978  -2606.6978     103.5379      45.5072     121.1027       0.2585       0.2578       2.1752       0.1592       0.0060
