#------------------------------------------------------------------------------
#
#   Created by  : [OpenWorks] Log Export Utility (LEXP)
#   Created on  : 2007-05-07 11:57:08
#   Project     : NORNE
#   User        : JSE
#   Interpreter : JSE
#
#------------------------------------------------------------------------------
~VERSION INFORMATION
VERS. 2.0 : CWLS Log ASCII Standard - version 2.0
WRAP.  NO : One line per depth step
~WELL INFORMATION
#MNEMONIC   .UNIT                                           VALUE :DESCRIPTION
#------------------------------------------------------------------------------
STRT        .M                                          1375.3750 :START DEPTH
STOP        .M                                          3298.0000 :STOP DEPTH
STEP        .M                                             0.1250 :STEP
NULL        .                                           -999.2500 :NULL VALUE
COMP        .                                             STATOIL :COMPANY
WELL        .                                       6608/10-C-1 H :WELL
FLD         .                                               NORNE :FIELD
LOC         .                                             UNKNOWN :LOCATION
CNTY        .                                             UNKNOWN :COUNTY
STAT        .                                             UNKNOWN :STATE
CTRY        .                                              Norway :COUNTRY
SRVC        .                                             UNKNOWN :SERVICE COMPANY
DATE        .                                             UNKNOWN :LOG DATE
UWI         .                                    NO 6608/10-C-1 H :UNIQUE WELL ID
XCOORD      .                                       457190.110178 :SURFACE X
YCOORD      .                                      7322024.307354 :SURFACE Y
LAT         .                                           66.014414 :LATITUDE
LON         .                                            8.056259 :LONGITUDE
ELEV        .M                                            22.0000 :SURFACE ELEV
ELEV_TYPE   .                                                  KB :ELEV TYPE
~CURVE INFORMATION
#MNEMONIC.UNIT        API CODE       : CURVE DESCRIPTION
#------------------------------------------------------------------------------
DEPTH    .M                          : Measured Depth
TVD      .M                          : True Vertical Depth (TVD)
TVDSS    .M                          : True Vertical Depth (TVDSS)
DT       .us/ft                      : DT:UNKNOWN:rC:NONE:v1 
DTS      .us/ft                      : DTS:UNKNOWN:rC:NONE:v1 
GR       .API         UNKNOWN        : GR:GR:rC:NONE:v1 
KLOGH    .mD          UNKNOWN        : KLOGH:UNKNOWN:rC::v0 (auto-composite)
NPHI     .v/v_decimal                : NPHI:UNKNOWN:rC:NONE:v1 
PHIF     .v/v_decimal UNKNOWN        : PHIF:UNKNOWN:rC::v0 (auto-composite)
RHOB     .g/cm3       UNKNOWN        : RHOB:UNKNOWN:rC:NONE:v1 
SW       .v/v_decimal UNKNOWN        : SW:UNKNOWN:rC::v0 (auto-composite)
VSH      .v/v_decimal UNKNOWN        : VSH:UNKNOWN:rC::v0 (auto-composite)
~A     DEPTH         TVD       TVDSS           DT          DTS           GR        KLOGH         NPHI         PHIF         RHOB           SW          VSH
# ...
   2922.3750   2600.1763  -2578.1763     109.0694     188.5323      92.6236    2000.0000       0.1287       0.3983       1.9880       0.1061       0.1639
   2922.5000   2600.2986  -2578.2986     107.9345     187.6796      92.9129    2000.0000       0.1261       0.3863       2.0018       0.1154       0.1690
   2922.6250   2600.4209  -2578.4209     106.3544     185.1609      93.6202    2000.0000       0.1371       0.3688       2.0302       0.1327       0.1815
   2922.7500   2600.5430  -2578.5430     104.3744     180.6664      94.8172    1976.8806       0.1602       0.3507       2.0690       0.1576       0.2026
   2922.8750   2600.6653  -2578.6653     102.0589     173.8972      96.2614    1170.1700       0.1869       0.3303       2.1134       0.1890       0.2282
   2923.0000   2600.7874  -2578.7874      99.0790     165.7912      96.4612     406.9506       0.2032       0.2825       2.1585       0.2195       0.2317
   2923.1250   2600.9097  -2578.9097      95.3133     158.3083      94.7886      50.4202       0.2091       0.2407       2.2109       0.2508       0.2022
   2923.2500   2601.0320  -2579.0320      90.8007     152.1860      91.6282       7.1678       0.2066       0.2016       2.2787       0.2810       0.1464
   2923.3750   2601.1541  -2579.1541      85.8015     147.7093      87.6754       0.9330       0.1984       0.1608       2.3637       0.3191       0.0767
   2923.5000   2601.2764  -2579.2764      80.7621     144.7820      83.7315       0.1200       0.1872       0.1197       2.4608       0.3917       0.0070
   2923.6250   2601.3987  -2579.3987      76.4577     143.1418      80.2459       0.0107       0.1732       0.0714       2.5519       0.5331       0.0010
   2923.7500   2601.5208  -2579.5208      73.2448     142.2957      76.6031       0.0016       0.1585       0.0327       2.6159       0.9449       0.0010
   2923.8750   2601.6431  -2579.6431      71.0955     142.8604      72.8692       0.0006       0.1484       0.0126       2.6492       1.0000       0.0010
   2924.0000   2601.7651  -2579.7651      70.2843     145.4459      69.8587       0.0005       0.1467       0.0099       2.6537       1.0000       0.0010
   2924.1250   2601.8875  -2579.8875      71.2400     150.1566      68.6126       0.0009       0.1549       0.0210       2.6353       1.0000       0.0010
   2924.2500   2602.0098  -2580.0098      74.6370     156.3300      70.2440       0.0023       0.1715       0.0403       2.6030       0.8349       0.0010
   2924.3750   2602.1318  -2580.1318      80.9298     161.9241      75.2977       0.0088       0.1878       0.0675       2.5583       0.6069       0.0010
   2924.5000   2602.2542  -2580.2542      88.1507     166.3579      81.2800       0.0485       0.2003       0.1016       2.5018       0.4846       0.0010
   2924.6250   2602.3762  -2580.3762      94.8186     169.8205      86.9383       0.3342       0.2085       0.1402       2.4379       0.4088       0.0636
   2924.7500   2602.4985  -2580.4985      99.9280     172.6729      91.6295       2.6288       0.2129       0.1815       2.3696       0.3484       0.1464
   2924.8750   2602.6208  -2580.6208     102.9932     175.2302      95.2407      21.2382       0.2145       0.2234       2.3003       0.2935       0.2102
   2925.0000   2602.7429  -2580.7429     104.2839     177.2979      98.1158     126.1994       0.2146       0.2591       2.2412       0.2493       0.2609
   2925.1250   2602.8652  -2580.8652     105.0982     178.1986     100.2070     378.2680       0.2130       0.2810       2.2034       0.2211       0.2978
   2925.2500   2602.9873  -2580.9873     105.9192     178.1631     101.0618     638.6133       0.2102       0.2915       2.1815       0.2047       0.3129
   2925.3750   2603.1096  -2581.1096     106.6855     177.7334     100.5975     864.0938       0.2066       0.2976       2.1700       0.1963       0.3047
   2925.5000   2603.2319  -2581.2319     107.2378     177.3023      99.0963     998.9701       0.2031       0.3005       2.1646       0.1938       0.2781
   2925.6250   2603.3540  -2581.3540     107.4200     176.9032      97.2168    1165.2314       0.2003       0.3036       2.1630       0.1982       0.2450
   2925.7500   2603.4763  -2581.4763     107.1927     176.1163      96.1830     997.0569       0.1987       0.3004       2.1655       0.2036       0.2268
   2925.8750   2603.5984  -2581.5984     106.8219     175.0836      96.2745     656.4863       0.1991       0.2921       2.1706       0.2069       0.2284
   2926.0000   2603.7207  -2581.7207     106.4091     174.1573      97.2384     471.4809       0.2009       0.2855       2.1773       0.2115       0.2454
   2926.1250   2603.8430  -2581.8430     106.0176     173.6391      98.6556     359.0260       0.2027       0.2800       2.1844       0.2153       0.2704
   2926.2500   2603.9651  -2581.9651     105.6816     173.7131      99.9938     288.1169       0.2033       0.2756       2.1908       0.2191       0.2940
   2926.3750   2604.0874  -2582.0874     105.4083     174.2899     100.5542     225.0038       0.2039       0.2706       2.1966       0.2239       0.3039
   2926.5000   2604.2095  -2582.2095     105.2161     175.2926     100.2289     178.1102       0.2086       0.2660       2.2008       0.2283       0.2982
   2926.6250   2604.3318  -2582.3318     105.2543     176.8797      99.8233     148.4628       0.2145       0.2623       2.2032       0.2308       0.2910
   2926.7500   2604.4541  -2582.4541     105.6416     179.1819      99.7642     133.5613       0.2185       0.2602       2.2036       0.2311       0.2900
   2926.8750   2604.5762  -2582.5762     106.3967     182.0565     100.1528     132.0236       0.2180       0.2600       2.2019       0.2298       0.2968
   2927.0000   2604.6985  -2582.6985     107.4148     185.0311     100.7284     145.3785       0.2106       0.2619       2.1978       0.2277       0.3070
   2927.1250   2604.8208  -2582.8208     108.4126     186.9470     100.7374     172.6079       0.1982       0.2653       2.1937       0.2271       0.3071
   2927.2500   2604.9429  -2582.9429     109.1944     187.5027     100.3133     199.7759       0.1926       0.2683       2.1910       0.2286       0.2997
   2927.3750   2605.0652  -2583.0652     109.7418     186.8772      99.9030     240.0105       0.1960       0.2719       2.1865       0.2302       0.2924
   2927.5000   2605.1873  -2583.1873     110.0531     185.2675      99.7279     316.5204       0.2055       0.2775       2.1786       0.2297       0.2893
   2927.6250   2605.3096  -2583.3096     110.1223     182.8725      99.8623     465.3326       0.2158       0.2852       2.1667       0.2262       0.2917
   2927.7500   2605.4319  -2583.4319     109.8803     179.7382     100.2151     680.8291       0.2198       0.2928       2.1527       0.2204       0.2979
   2927.8750   2605.5540  -2583.5540     109.1702     175.8678     100.8428     852.2322       0.2170       0.2973       2.1458       0.2157       0.3090
   2928.0000   2605.6763  -2583.6763     108.1630     171.8100     101.7927     773.6505       0.2133       0.2954       2.1518       0.2158       0.3258
   2928.1250   2605.7983  -2583.7983     107.0185     167.9164     102.7904     506.4167       0.2108       0.2869       2.1700       0.2218       0.3434
   2928.2500   2605.9207  -2583.9207     105.8768     164.4788     103.3140     284.9930       0.2103       0.2754       2.1935       0.2320       0.3526
   2928.3750   2606.0430  -2584.0430     104.8424     161.7296     102.6725     186.0308       0.2106       0.2668       2.2108       0.2418       0.3413
   2928.5000   2606.1650  -2584.1650     103.9899     160.1320      99.9254     191.9957       0.2071       0.2675       2.2075       0.2419       0.2928
   2928.6250   2606.2874  -2584.2874     103.3224     160.3406      95.6796     279.0284       0.1988       0.2749       2.1867       0.2282       0.2179
   2928.7500   2606.4094  -2584.4094     102.7702     162.4231      90.9831     499.1367       0.1857       0.2866       2.1546       0.2038       0.1350
