#------------------------------------------------------------------------------
#
#   Created by  : [OpenWorks] Log Export Utility (LEXP)
#   Created on  : 2007-05-07 11:57:08
#   Project     : NORNE
#   User        : JSE
#   Interpreter : JSE
#
#------------------------------------------------------------------------------
~VERSION INFORMATION
VERS. 2.0 : CWLS Log ASCII Standard - version 2.0
WRAP.  NO : One line per depth step
~WELL INFORMATION
#MNEMONIC   .UNIT                                           VALUE :DESCRIPTION
#------------------------------------------------------------------------------
STRT        .M                                          1375.3750 :START DEPTH
STOP        .M                                          3298.0000 :STOP DEPTH
STEP        .M                                             0.1250 :STEP
NULL        .                                           -999.2500 :NULL VALUE
COMP        .                                             STATOIL :COMPANY
WELL        .                                       6608/10-C-1 H :WELL
FLD         .                                               NORNE :FIELD
LOC         .                                             UNKNOWN :LOCATION
CNTY        .                                             UNKNOWN :COUNTY
STAT        .                                             UNKNOWN :STATE
CTRY        .                                              Norway :COUNTRY
SRVC        .                                             UNKNOWN :SERVICE COMPANY
DATE        .                                             UNKNOWN :LOG DATE
UWI         .                                    NO 6608/10-C-1 H :UNIQUE WELL ID
XCOORD      .                                       457190.110178 :SURFACE X
YCOORD      .                                      7322024.307354 :SURFACE Y
LAT         .                                           66.014414 :LATITUDE
LON         .                                            8.056259 :LONGITUDE
ELEV        .M                                            22.0000 :SURFACE ELEV
ELEV_TYPE   .                                                  KB :ELEV TYPE
~CURVE INFORMATION
#MNEMONIC.UNIT        API CODE       : CURVE DESCRIPTION
#------------------------------------------------------------------------------
DEPTH    .M                          : Measured Depth
TVD      .M                          : True Vertical Depth (TVD)
TVDSS    .M                          : True Vertical Depth (TVDSS)
DT       .us/ft                      : DT:UNKNOWN:rC:NONE:v1 
DTS      .us/ft                      : DTS:UNKNOWN:rC:NONE:v1 
GR       .API         UNKNOWN        : GR:GR:rC:NONE:v1 
KLOGH    .mD          UNKNOWN        : KLOGH:UNKNOWN:rC::v0 (auto-composite)
NPHI     .v/v_decimal                : NPHI:UNKNOWN:rC:NONE:v1 
PHIF     .v/v_decimal UNKNOWN        : PHIF:UNKNOWN:rC::v0 (auto-composite)
RHOB     .g/cm3       UNKNOWN        : RHOB:UNKNOWN:rC:NONE:v1 
SW       .v/v_decimal UNKNOWN        : SW:UNKNOWN:rC::v0 (auto-composite)
VSH      .v/v_decimal UNKNOWN        : VSH:UNKNOWN:rC::v0 (auto-composite)
~A     DEPTH         TVD       TVDSS           DT          DTS           GR        KLOGH         NPHI         PHIF         RHOB           SW          VSH
# ...
   3052.3750   2727.1719  -2705.1719      87.0639     160.4933      72.7721     408.7880       0.2174       0.2641       2.2613       0.7321       0.0010
   3052.5000   2727.2937  -2705.2937      87.8828     161.2405      72.4618     400.6291       0.2149       0.2637       2.2621       0.7273       0.0010
   3052.6250   2727.4158  -2705.4158      88.4362     161.1869      72.1914     397.9854       0.2175       0.2635       2.2623       0.7209       0.0010
   3052.7500   2727.5376  -2705.5376      88.7078     160.4133      71.9162     428.7036       0.2240       0.2652       2.2595       0.7114       0.0010
   3052.8750   2727.6597  -2705.6597      88.6670     158.8530      71.5810     520.9885       0.2327       0.2695       2.2520       0.6992       0.0010
   3053.0000   2727.7815  -2705.7815      88.1572     155.9458      71.1812     619.7664       0.2382       0.2734       2.2455       0.6943       0.0010
   3053.1250   2727.9036  -2705.9036      87.2137     152.0204      70.8556     528.7845       0.2385       0.2698       2.2515       0.7102       0.0010
   3053.2500   2728.0254  -2706.0254      85.8601     147.5833      70.7796     299.5802       0.2334       0.2572       2.2731       0.7519       0.0010
   3053.3750   2728.1475  -2706.1475      84.2013     143.1583      70.9428     118.2154       0.2247       0.2365       2.3083       0.8224       0.0010
   3053.5000   2728.2693  -2706.2693      82.4119     139.3172      71.1665      37.4074       0.2153       0.2108       2.3518       0.9211       0.0010
   3053.6250   2728.3914  -2706.3914      80.7833     137.0972      71.0065      11.6106       0.2092       0.1848       2.3961       1.0000       0.0010
   3053.7500   2728.5132  -2706.5132      79.5914     137.6740      70.1580       3.6739       0.2052       0.1591       2.4396       1.0000       0.0010
   3053.8750   2728.6353  -2706.6353      78.8829     140.9873      68.8979       1.3089       0.2001       0.1361       2.4787       1.0000       0.0010
   3054.0000   2728.7571  -2706.7571      78.6926     146.6106      67.7937       0.6951       0.1935       0.1220       2.5027       1.0000       0.0010
   3054.1250   2728.8792  -2706.8792      79.0182     153.6175      67.4445       0.7232       0.1870       0.1229       2.5012       1.0000       0.0010
   3054.2500   2729.0010  -2707.0010      79.8040     160.5410      68.3040       1.7730       0.1835       0.1429       2.4680       1.0000       0.0010
   3054.3750   2729.1230  -2707.1230      81.0006     165.4852      70.5469       8.4362       0.1894       0.1776       2.4082       0.9306       0.0010
   3054.5000   2729.2449  -2707.2449      82.2320     168.4918      73.0701      31.5542       0.2018       0.2070       2.3583       0.8661       0.0010
   3054.6250   2729.3669  -2707.3669      83.3566     170.1115      75.6160      62.5452       0.2170       0.2223       2.3323       0.8843       0.0010
   3054.7500   2729.4888  -2707.4888      84.2833     170.6359      78.1425      55.6379       0.2309       0.2197       2.3368       0.9694       0.0076
   3054.8750   2729.6108  -2707.6108      84.9743     170.2116      80.7138      22.9165       0.2400       0.1999       2.3704       1.0000       0.0489
   3055.0000   2729.7327  -2707.7327      85.4224     168.7092      83.2943       1.3982       0.2433       0.1376       2.4245       1.0000       0.0902
   3055.1250   2729.8547  -2707.8547      85.6637     166.3838      85.3898       0.3378       0.2474       0.1059       2.4764       1.0000       0.1239
   3055.2500   2729.9766  -2707.9766      85.7688     163.8165      86.5368       0.1512       0.2553       0.0880       2.5057       1.0000       0.1423
   3055.3750   2730.0986  -2708.0986      85.7833     161.4812      86.6080       0.1542       0.2662       0.0885       2.5050       1.0000       0.1434
   3055.5000   2730.2205  -2708.2205      85.7486     159.6973      85.7389       0.3443       0.2770       0.1064       2.4757       1.0000       0.1295
   3055.6250   2730.3425  -2708.3425      85.6951     158.5530      84.3176       1.2485       0.2840       0.1351       2.4287       1.0000       0.1067
   3055.7500   2730.4644  -2708.4644      85.5950     157.7333      83.0634       3.2064       0.2856       0.1561       2.3942       1.0000       0.0866
   3055.8750   2730.5864  -2708.5864      85.3986     156.7965      82.6307       4.0129       0.2841       0.1611       2.3860       1.0000       0.0796
   3056.0000   2730.7083  -2708.7083      85.0820     155.6692      83.1327       2.8623       0.2806       0.1536       2.3983       1.0000       0.0877
   3056.1250   2730.8303  -2708.8303      84.6591     154.4427      84.3971       1.4699       0.2751       0.1387       2.4227       1.0000       0.1080
   3056.2500   2730.9521  -2708.9521      84.1732     153.2754      86.0193       0.7053       0.2675       0.1223       2.4495       1.0000       0.1340
   3056.3750   2731.0742  -2709.0742      83.6989     152.3267      87.3071       0.3934       0.2578       0.1093       2.4708       1.0000       0.1547
   3056.5000   2731.1960  -2709.1960      83.3237     151.9208      87.6409       0.2289       0.2512       0.0973       2.4906       1.0000       0.1600
   3056.6250   2731.3181  -2709.3181      83.0847     152.0570      87.4863       0.1153       0.2476       0.0820       2.5156       1.0000       0.1575
   3056.7500   2731.4399  -2709.4399      83.0267     152.7089      87.5523       0.0485       0.2457       0.0627       2.5473       1.0000       0.1586
   3056.8750   2731.5620  -2709.5620      83.1981     153.8181      88.5226       0.0203       0.2436       0.0433       2.5791       1.0000       0.1741
   3057.0000   2731.6838  -2709.6838      83.6457     155.3296      90.8751       0.0120       0.2397       0.0316       2.5983       1.0000       0.2119
   3057.1250   2731.8059  -2709.8059      84.4539     157.5220      94.1683       0.0161       0.2357       0.0381       2.5876       1.0000       0.2648
   3057.2500   2731.9277  -2709.9277      85.4930     160.8238      96.2586       0.0488       0.2339       0.0628       2.5471       1.0000       0.2983
   3057.3750   2732.0498  -2710.0498      86.6123     165.0628      96.1433       0.2275       0.2333       0.0971       2.4908       1.0000       0.2964
   3057.5000   2732.1716  -2710.1716      87.7097     169.8068      93.7340       1.1539       0.2327       0.1333       2.4315       1.0000       0.2578
   3057.6250   2732.2937  -2710.2937      88.7076     174.4619      89.6192       4.8105       0.2311       0.1651       2.3794       1.0000       0.1918
   3057.7500   2732.4155  -2710.4155      89.5552     178.3093      85.1062      14.4568       0.2284       0.1896       2.3392       1.0000       0.1193
   3057.8750   2732.5376  -2710.5376      90.1686     180.6896      82.2779      34.1796       0.2264       0.2088       2.3077       1.0000       0.0740
   3058.0000   2732.6594  -2710.6594      90.5387     181.8477      81.1546      76.2710       0.2268       0.2267       2.2784       1.0000       0.0560
   3058.1250   2732.7815  -2710.7815      90.6129     181.6531      81.3921     157.6585       0.2302       0.2429       2.2519       1.0000       0.0598
   3058.2500   2732.9033  -2710.9033      90.3496     179.9843      82.6226     276.2914       0.2361       0.2554       2.2314       0.9958       0.0795
   3058.3750   2733.0254  -2711.0254      89.7278     176.8016      84.4578     342.4981       0.2428       0.2602       2.2235       0.9937       0.1090
   3058.5000   2733.1472  -2711.1472      88.7333     172.2642      86.2482     163.2332       0.2480       0.2437       2.2506       1.0000       0.1377
   3058.6250   2733.2690  -2711.2690      87.5184     167.6004      86.8202      24.4012       0.2497       0.2013       2.3201       1.0000       0.1468
   3058.7500   2733.3911  -2711.3911      86.2468     163.5814      86.0874       1.7405       0.2483       0.1425       2.4165       1.0000       0.1351
