#------------------------------------------------------------------------------
#
#   Created by  : [OpenWorks] Log Export Utility (LEXP)
#   Created on  : 2007-05-07 11:57:18
#   Project     : NORNE
#   User        : JSE
#   Interpreter : JSE
#
#------------------------------------------------------------------------------
~VERSION INFORMATION
VERS. 2.0 : CWLS Log ASCII Standard - version 2.0
WRAP.  NO : One line per depth step
~WELL INFORMATION
#MNEMONIC   .UNIT                                           VALUE :DESCRIPTION
#------------------------------------------------------------------------------
STRT        .M                                           437.6250 :START DEPTH
STOP        .M                                          2890.0000 :STOP DEPTH
STEP        .M                                             0.1250 :STEP
NULL        .                                           -999.2500 :NULL VALUE
COMP        .                                             STATOIL :COMPANY
WELL        .                                       6608/10-C-4 H :WELL
FLD         .                                               NORNE :FIELD
LOC         .                                             UNKNOWN :LOCATION
CNTY        .                                             UNKNOWN :COUNTY
STAT        .                                             UNKNOWN :STATE
CTRY        .                                              Norway :COUNTRY
SRVC        .                                             UNKNOWN :SERVICE COMPANY
DATE        .                                             UNKNOWN :LOG DATE
UWI         .                                    NO 6608/10-C-4 H :UNIQUE WELL ID
XCOORD      .                                       457180.075915 :SURFACE X
YCOORD      .                                      7322034.182216 :SURFACE Y
LAT         .                                           66.014501 :LATITUDE
LON         .                                            8.056034 :LONGITUDE
ELEV        .M                                            25.0000 :SURFACE ELEV
ELEV_TYPE   .                                                  KB :ELEV TYPE
~CURVE INFORMATION
#MNEMONIC.UNIT        API CODE       : CURVE DESCRIPTION
#------------------------------------------------------------------------------
DEPTH    .M                          : Measured Depth
TVD      .M                          : True Vertical Depth (TVD)
TVDSS    .M                          : True Vertical Depth (TVDSS)
DT       .us/ft                      : DT:UNKNOWN:rC:NONE:v1 
GR       .API                        : GR:UNKNOWN:rC:NONE:v1 
KLOGH    .mD          UNKNOWN        : KLOGH:UNKNOWN:rC::v0 (auto-composite)
NPHI     .v/v_decimal                : NPHI:UNKNOWN:rC:NONE:v1 
PHIF     .v/v_decimal UNKNOWN        : PHIF:UNKNOWN:rC::v0 (auto-composite)
RHOB     .g/cm3                      : RHOB:UNKNOWN:rC:NONE:v1 
SW       .v/v_decimal UNKNOWN        : SW:UNKNOWN:rC::v0 (auto-composite)
VSH      .v/v_decimal UNKNOWN        : VSH:UNKNOWN:rC::v0 (auto-composite)
~A     DEPTH         TVD       TVDSS           DT           GR        KLOGH         NPHI         PHIF         RHOB           SW          VSH
# ...
   2810.2500   2786.2424  -2761.2424      91.0683      99.8185      17.1366       0.2819       0.1934       2.3326       0.9575       0.3483
   2810.3750   2786.3674  -2761.3674      91.2666     105.2355      25.4526       0.2825       0.2022       2.3182       0.9330       0.4187
   2810.5000   2786.4924  -2761.4924      91.4035     101.6697      38.9801       0.2786       0.2117       2.3026       0.8992       0.3723
   2810.6250   2786.6172  -2761.6172      91.4523     102.3387      37.6782       0.2722       0.2110       2.3038       0.8949       0.3810
   2810.7500   2786.7422  -2761.7422      91.3906     105.2509      24.1499       0.2659       0.2011       2.3201       0.9238       0.4189
   2810.8750   2786.8672  -2761.8672      91.1984      97.5263      17.6901       0.2628       0.1941       2.3315       0.9526       0.3186
   2811.0000   2786.9922  -2761.9922      90.8267     103.7557      30.9956       0.2662       0.2066       2.3110       0.9064       0.3995
   2811.1250   2787.1172  -2762.1172      90.2599      99.5558       7.9727       0.2721       0.1764       2.3606       1.0000       0.3449
   2811.2500   2787.2422  -2762.2422      89.5044     101.4451       1.6852       0.2754       0.1417       2.4174       1.0000       0.3694
   2811.3750   2787.3672  -2762.3672      88.6100     102.3823       0.8100       0.2738       0.1254       2.4442       1.0000       0.3816
   2811.5000   2787.4922  -2762.4922      87.6703      98.0981       1.2063       0.2670       0.1343       2.4297       1.0000       0.3259
   2811.6250   2787.6172  -2762.6172      86.8300     103.2288       2.5292       0.2571       0.1508       2.4026       1.0000       0.3926
   2811.7500   2787.7422  -2762.7422      86.3311     110.8090       1.8088       0.2525       0.1433       2.4148       1.0000       0.4911
   2811.8750   2787.8672  -2762.8672      86.1712     109.2604       0.8834       0.2541       0.1274       2.4410       1.0000       0.4709
   2812.0000   2787.9922  -2762.9922      86.3120     106.7926       0.3760       0.2573       0.1083       2.4722       1.0000       0.4389
   2812.1250   2788.1172  -2763.1172      86.6768     108.3075       0.2768       0.2580       0.1015       2.4835       1.0000       0.4585
   2812.2500   2788.2422  -2763.2422      87.1682     114.1309       0.4714       0.2540       0.1134       2.4640       1.0000       0.5342
   2812.3750   2788.3672  -2763.3672      87.7015     115.2919       0.0319       0.2490       0.0534       2.5625       1.0000       0.5493
   2812.5000   2788.4922  -2763.4922      88.2812     104.7640       1.3201       0.2480       0.1363       2.4197       0.9278       0.4125
   2812.6250   2788.6172  -2763.6172      88.9057     103.1487       5.8180       0.2510       0.1694       2.3643       0.7870       0.3915
   2812.7500   2788.7422  -2763.7422      89.5165     109.0238       7.6179       0.2557       0.1754       2.3623       0.7780       0.4678
   2812.8750   2788.8672  -2763.8672      90.0258     115.4159       8.2091       0.2591       0.1770       2.3595       0.7901       0.5508
   2813.0000   2788.9922  -2763.9922      90.3260     114.1540       4.2236       0.2580       0.1622       2.3840       0.8740       0.5348
   2813.1250   2789.1172  -2764.1172      90.2674     118.5554       8.7335       0.2538       0.1784       2.3535       0.7956       0.5916
   2813.2500   2789.2422  -2764.2422      90.0755     118.8812       9.4037       0.2511       0.1801       2.3386       0.7959       0.5959
   2813.3750   2789.3672  -2764.3672      89.9612     120.4037       3.9768       0.2505       0.1609       2.3712       0.8733       0.6156
   2813.5000   2789.4922  -2764.4922      90.0557     119.9057       1.2682       0.2518       0.1354       2.4180       0.9966       0.6092
   2813.6250   2789.6172  -2764.6172      90.3897     114.2935       0.9999       0.2545       0.1301       2.4277       1.0000       0.5363
   2813.7500   2789.7422  -2764.7422      90.7910     121.4032       1.0632       0.2576       0.1315       2.4252       0.9931       0.6286
   2813.8750   2789.8672  -2764.8672      90.8942     125.6557       0.0908       0.2593       0.0767       2.5243       1.0000       0.6838
   2814.0000   2789.9922  -2764.9922      90.6901     135.6697       0.0421       0.2616       0.0595       2.5523       1.0000       0.8138
   2814.1250   2790.1172  -2765.1172      90.3122     144.7070       0.0360       0.2641       0.0560       2.5580       1.0000       0.9313
   2814.2500   2790.2422  -2765.2422      89.9438     148.1732       0.0244       0.2662       0.0474       2.5703       1.0000       0.9526
   2814.3750   2790.3672  -2765.3672      89.7775     146.8985       0.0314       0.2668       0.0530       2.5619       1.0000       0.9470
   2814.5000   2790.4922  -2765.4922      89.8817     134.8378       0.0030       0.2683       0.0010       2.7408       1.0000       0.8031
   2814.6250   2790.6172  -2765.6172      89.9164     132.7524       0.0030       0.2689       0.0010       2.7240       1.0000       0.7760
   2814.7500   2790.7422  -2765.7422      89.6746     123.2774       0.0057       0.2651       0.0150       2.6254       1.0000       0.6529
   2814.8750   2790.8672  -2765.8672      89.1090     115.5961       0.0542       0.2574       0.0652       2.5431       1.0000       0.5533
   2815.0000   2790.9919  -2765.9919      88.3077     120.2676       0.1211       0.2485       0.0831       2.5137       0.9769       0.6138
   2815.1250   2791.1169  -2766.1169      87.5569     116.4826       2.9932       0.2420       0.1545       2.3963       0.6245       0.5647
   2815.2500   2791.2419  -2766.2419      87.2492     116.2891       5.0238       0.2412       0.1661       2.3775       0.6358       0.5622
   2815.3750   2791.3669  -2766.3669      87.3070     120.3488       0.0704       0.2479       0.0710       2.5334       1.0000       0.6149
   2815.5000   2791.4919  -2766.4919      87.5540     124.7385       0.0244       0.2611       0.0474       2.5723       1.0000       0.6719
   2815.6250   2791.6169  -2766.6169      87.8077     126.7802       0.0999       0.2766       0.0788       2.5188       1.0000       0.6984
   2815.7500   2791.7419  -2766.7419      87.9218     126.5629       0.0030       0.2878       0.0010       2.6896       1.0000       0.6956
   2815.8750   2791.8669  -2766.8669      87.9349     135.6279       0.0045       0.2873       0.0098       2.6338       1.0000       0.8133
   2816.0000   2791.9919  -2766.9919      88.1629     140.8395       0.0388       0.2796       0.0577       2.5554       0.9885       0.8810
   2816.1250   2792.1169  -2767.1169      88.6662     136.7308       0.2315       0.2689       0.0975       2.4848       0.6252       0.8277
   2816.2500   2792.2419  -2767.2419      89.3138     130.5008       0.4060       0.2586       0.1100       2.4635       0.5600       0.7467
   2816.3750   2792.3669  -2767.3669      89.8754     128.5118       0.1277       0.2508       0.0843       2.5116       0.7031       0.7209
   2816.5000   2792.4919  -2767.4919      90.0412     125.0410       0.0146       0.2460       0.0359       2.5912       1.0000       0.6759
   2816.6250   2792.6169  -2767.6169      89.6060     124.0323       0.0586       0.2430       0.0669       2.5403       0.8596       0.6628
   2816.7500   2792.7419  -2767.7419      88.8733     120.7173       0.2469       0.2426       0.0990       2.4845       0.6356       0.6197
   2816.8750   2792.8669  -2767.8669      88.0443     115.4337       0.3983       0.2442       0.1096       2.4671       0.6186       0.5510
   2817.0000   2792.9919  -2767.9919      87.2783     112.9368       0.1271       0.2461       0.0841       2.5120       0.8229       0.5187
   2817.1250   2793.1169  -2768.1169      86.6836     118.6534       0.0078       0.2464       0.0221       2.6138       1.0000       0.5929
   2817.2500   2793.2419  -2768.2419      86.3373     119.7725       0.0030       0.2453       0.0010       2.6572       1.0000       0.6074
