#------------------------------------------------------------------------------
#
#   Created by  : [OpenWorks] Log Export Utility (LEXP)
#   Created on  : 2007-05-07 11:57:46
#   Project     : NORNE
#   User        : JSE
#   Interpreter : JSE
#
#------------------------------------------------------------------------------
~VERSION INFORMATION
VERS. 2.0 : CWLS Log ASCII Standard - version 2.0
WRAP.  NO : One line per depth step
~WELL INFORMATION
#MNEMONIC   .UNIT                                           VALUE :DESCRIPTION
#------------------------------------------------------------------------------
STRT        .M                                          1250.1914 :START DEPTH
STOP        .M                                          3136.8164 :STOP DEPTH
STEP        .M                                             0.1250 :STEP
NULL        .                                           -999.2500 :NULL VALUE
COMP        .                                             STATOIL :COMPANY
WELL        .                                       6608/10-D-4 H :WELL
FLD         .                                               NORNE :FIELD
LOC         .                                             UNKNOWN :LOCATION
CNTY        .                                             UNKNOWN :COUNTY
STAT        .                                             UNKNOWN :STATE
CTRY        .                                              Norway :COUNTRY
SRVC        .                                             UNKNOWN :SERVICE COMPANY
DATE        .                                             UNKNOWN :LOG DATE
UWI         .                                    NO 6608/10-D-4 H :UNIQUE WELL ID
XCOORD      .                                       457259.082734 :SURFACE X
YCOORD      .                                      7321952.911776 :SURFACE Y
LAT         .                                           66.013783 :LATITUDE
LON         .                                            8.057803 :LONGITUDE
ELEV        .M                                            22.0000 :SURFACE ELEV
ELEV_TYPE   .                                                  KB :ELEV TYPE
~CURVE INFORMATION
#MNEMONIC.UNIT        API CODE       : CURVE DESCRIPTION
#------------------------------------------------------------------------------
DEPTH    .M                          : Measured Depth
TVD      .M                          : True Vertical Depth (TVD)
TVDSS    .M                          : True Vertical Depth (TVDSS)
DT       .us/ft                      : DT:UNKNOWN:rC:NONE:v1 
DTS      .us/ft                      : DTS:UNKNOWN:rC:NONE:v1 
GR       .API                        : GR:UNKNOWN:rC:NONE:v1 
KLOGH    .mD          UNKNOWN        : KLOGH:UNKNOWN:rC::v0 (auto-composite)
NPHI     .v/v_decimal                : NPHI:UNKNOWN:rC:NONE:v1 
PHIF     .v/v_decimal UNKNOWN        : PHIF:UNKNOWN:rC::v0 (auto-composite)
RHOB     .g/cm3                      : RHOB:UNKNOWN:rC:NONE:v1 
SW       .v/v_decimal UNKNOWN        : SW:UNKNOWN:rC::v0 (auto-composite)
VSH      .v/v_decimal UNKNOWN        : VSH:UNKNOWN:rC::v0 (auto-composite)
~A     DEPTH         TVD       TVDSS           DT          DTS           GR        KLOGH         NPHI         PHIF         RHOB           SW          VSH
# ...
   2823.1914   2665.2883  -2643.2883     100.6432     180.1104      73.0082     185.0525       0.2467       0.2684       2.2243       0.2604       0.1696
   2823.3164   2665.3835  -2643.3835     100.3128     179.2501      73.1242     152.7007       0.2453       0.2631       2.2340       0.2612       0.1710
   2823.4414   2665.4788  -2643.4788      99.9853     178.6034      73.3964     154.4611       0.2437       0.2635       2.2334       0.2583       0.1743
   2823.5664   2665.5740  -2643.5740      99.7023     178.1676      73.5526     183.1515       0.2422       0.2680       2.2259       0.2526       0.1763
   2823.6914   2665.6694  -2643.6694      99.5050     177.9066      73.3293     219.8517       0.2404       0.2732       2.2174       0.2473       0.1735
   2823.8164   2665.7646  -2643.7646      99.4328     177.7646      72.4308     236.3709       0.2385       0.2752       2.2141       0.2458       0.1624
   2823.9414   2665.8599  -2643.8599      99.5054     177.6962      71.4732     216.8752       0.2375       0.2728       2.2180       0.2496       0.1505
   2824.0664   2665.9551  -2643.9551      99.6726     177.6360      71.3771     185.7017       0.2378       0.2684       2.2252       0.2555       0.1493
   2824.1914   2666.0505  -2644.0505      99.9124     177.5774      72.6230     152.1927       0.2413       0.2629       2.2343       0.2619       0.1648
   2824.3164   2666.1458  -2644.1458     100.1913     177.5181      75.0357     118.3346       0.2467       0.2559       2.2460       0.2686       0.1946
   2824.4414   2666.2410  -2644.2410     100.4651     177.4553      77.8484      82.2889       0.2512       0.2462       2.2620       0.2766       0.2295
   2824.5664   2666.3362  -2644.3362     100.6612     177.3658      79.5009      52.4933       0.2544       0.2338       2.2825       0.2865       0.2500
   2824.6914   2666.4314  -2644.4314     100.7420     177.2331      79.6491      37.7945       0.2614       0.2249       2.2973       0.2933       0.2519
   2824.8164   2666.5269  -2644.5269     100.7343     177.0746      79.7155      34.7548       0.2704       0.2231       2.3004       0.2940       0.2527
   2824.9414   2666.6221  -2644.6221     100.6675     176.9227      80.6901      42.1652       0.2765       0.2278       2.2925       0.2903       0.2648
   2825.0664   2666.7173  -2644.7173     100.5755     176.8445      82.9003      59.1783       0.2748       0.2371       2.2772       0.2857       0.2922
   2825.1914   2666.8125  -2644.8125     100.4920     176.9510      85.6690      85.1901       0.2618       0.2474       2.2600       0.2846       0.3265
   2825.3164   2666.9080  -2644.9080     100.4608     177.5791      86.9942     119.6275       0.2439       0.2564       2.2452       0.2882       0.3429
   2825.4414   2667.0032  -2645.0032     100.4906     178.7557      85.7848     158.0611       0.2344       0.2639       2.2317       0.2910       0.3279
   2825.5664   2667.0984  -2645.0984     100.5830     180.4018      82.5813     214.2362       0.2372       0.2719       2.2172       0.2890       0.2881
   2825.6914   2667.1936  -2645.1936     100.7240     182.3331      78.4855     302.6797       0.2494       0.2813       2.2019       0.2820       0.2374
   2825.8164   2667.2888  -2645.2888     100.8863     184.2898      74.8280     425.4799       0.2638       0.2910       2.1878       0.2721       0.1920
   2825.9414   2667.3843  -2645.3843     101.0250     185.9119      72.7242     528.9005       0.2696       0.2969       2.1779       0.2636       0.1660
   2826.0664   2667.4795  -2645.4795     101.0981     186.9126      72.0133     595.6995       0.2663       0.3002       2.1725       0.2587       0.1572
   2826.1914   2667.5747  -2645.5747     101.1055     187.3189      71.9554     600.3170       0.2618       0.3004       2.1721       0.2584       0.1565
   2826.3164   2667.6699  -2645.6699     101.0513     187.1582      72.2313     535.8579       0.2591       0.2971       2.1776       0.2631       0.1599
   2826.4414   2667.7654  -2645.7654     100.9438     186.4958      72.5812     421.9868       0.2586       0.2906       2.1885       0.2725       0.1642
   2826.5664   2667.8606  -2645.8606     100.7926     185.4258      72.8231     306.2483       0.2588       0.2821       2.2025       0.2846       0.1673
   2826.6914   2667.9558  -2645.9558     100.6071     184.0522      73.5788     211.7027       0.2565       0.2718       2.2197       0.2981       0.1766
   2826.8164   2668.0510  -2646.0510     100.4193     182.6406      75.3422     140.6063       0.2531       0.2602       2.2390       0.3120       0.1985
   2826.9414   2668.1462  -2646.1462     100.2491     181.3233      77.9813      92.4179       0.2493       0.2489       2.2577       0.3257       0.2312
   2827.0664   2668.2417  -2646.2417     100.1150     180.1841      81.0299      67.0826       0.2451       0.2409       2.2708       0.3364       0.2690
   2827.1914   2668.3369  -2646.3369     100.0324     179.2718      83.6946      62.7170       0.2410       0.2391       2.2739       0.3419       0.3020
   2827.3164   2668.4321  -2646.4321     100.0151     178.6203      84.5586      73.8006       0.2394       0.2435       2.2665       0.3431       0.3127
   2827.4414   2668.5273  -2646.5273     100.0385     178.2038      83.1162      93.6558       0.2402       0.2498       2.2560       0.3454       0.2948
   2827.5664   2668.6228  -2646.6228     100.0583     177.8691      81.2049      98.2142       0.2438       0.2512       2.2536       0.3542       0.2711
   2827.6914   2668.7180  -2646.7180     100.0597     177.5277      79.8285      82.5962       0.2486       0.2459       2.2625       0.3698       0.2541
   2827.8164   2668.8132  -2646.8132     100.0370     177.1098      79.3683      53.8583       0.2521       0.2339       2.2825       0.3907       0.2484
   2827.9414   2668.9084  -2646.9084      99.9925     176.5710      79.5031      28.6821       0.2513       0.2177       2.3093       0.4136       0.2501
   2828.0664   2669.0039  -2647.0039      99.9311     175.9001      78.9051      17.5413       0.2473       0.2038       2.3323       0.4301       0.2426
   2828.1914   2669.0991  -2647.0991      99.8490     175.2241      77.2336      13.3933       0.2442       0.1970       2.3436       0.4336       0.2219
   2828.3164   2669.1943  -2647.1943      99.7324     174.6222      75.3660      13.7046       0.2431       0.1976       2.3424       0.4243       0.1988
   2828.4414   2669.2896  -2647.2896      99.5716     174.1631      74.2771      17.6352       0.2442       0.2041       2.3318       0.4069       0.1853
   2828.5664   2669.3848  -2647.3848      99.3725     173.9293      74.7517      24.5089       0.2467       0.2133       2.3165       0.3879       0.1911
   2828.6914   2669.4802  -2647.4802      99.1747     174.0589      77.0598      33.1527       0.2501       0.2218       2.3025       0.3731       0.2198
   2828.8164   2669.5754  -2647.5754      99.0859     174.8481      80.0886      42.3181       0.2533       0.2282       2.2917       0.3612       0.2573
   2828.9414   2669.6707  -2647.6707      99.1302     176.2401      82.3255      50.0087       0.2552       0.2329       2.2793       0.3473       0.2850
   2829.0664   2669.7659  -2647.7659      99.2945     178.1065      83.2862      66.1774       0.2559       0.2399       2.2644       0.3366       0.2969
   2829.1914   2669.8613  -2647.8613      99.5412     180.2206      83.0468      96.9789       0.2553       0.2503       2.2480       0.3271       0.2940
   2829.3164   2669.9565  -2647.9565      99.8171     182.2897      82.1984     143.0385       0.2528       0.2614       2.2322       0.3127       0.2835
   2829.4414   2670.0518  -2648.0518     100.0686     183.9174      82.0846     195.4530       0.2480       0.2698       2.2223       0.3045       0.2820
   2829.5664   2670.1470  -2648.1470     100.2787     184.9149      82.9055     202.5136       0.2443       0.2709       2.2210       0.3076       0.2922
