#------------------------------------------------------------------------------
#
#   Created by  : [OpenWorks] Log Export Utility (LEXP)
#   Created on  : 2007-05-07 11:57:18
#   Project     : NORNE
#   User        : JSE
#   Interpreter : JSE
#
#------------------------------------------------------------------------------
~VERSION INFORMATION
VERS. 2.0 : CWLS Log ASCII Standard - version 2.0
WRAP.  NO : One line per depth step
~WELL INFORMATION
#MNEMONIC   .UNIT                                           VALUE :DESCRIPTION
#------------------------------------------------------------------------------
STRT        .M                                           437.6250 :START DEPTH
STOP        .M                                          2890.0000 :STOP DEPTH
STEP        .M                                             0.1250 :STEP
NULL        .                                           -999.2500 :NULL VALUE
COMP        .                                             STATOIL :COMPANY
WELL        .                                       6608/10-C-4 H :WELL
FLD         .                                               NORNE :FIELD
LOC         .                                             UNKNOWN :LOCATION
CNTY        .                                             UNKNOWN :COUNTY
STAT        .                                             UNKNOWN :STATE
CTRY        .                                              Norway :COUNTRY
SRVC        .                                             UNKNOWN :SERVICE COMPANY
DATE        .                                             UNKNOWN :LOG DATE
UWI         .                                    NO 6608/10-C-4 H :UNIQUE WELL ID
XCOORD      .                                       457180.075915 :SURFACE X
YCOORD      .                                      7322034.182216 :SURFACE Y
LAT         .                                           66.014501 :LATITUDE
LON         .                                            8.056034 :LONGITUDE
ELEV        .M                                            25.0000 :SURFACE ELEV
ELEV_TYPE   .                                                  KB :ELEV TYPE
~CURVE INFORMATION
#MNEMONIC.UNIT        API CODE       : CURVE DESCRIPTION
#------------------------------------------------------------------------------
DEPTH    .M                          : Measured Depth
TVD      .M                          : True Vertical Depth (TVD)
TVDSS    .M                          : True Vertical Depth (TVDSS)
DT       .us/ft                      : DT:UNKNOWN:rC:NONE:v1 
GR       .API                        : GR:UNKNOWN:rC:NONE:v1 
KLOGH    .mD          UNKNOWN        : KLOGH:UNKNOWN:rC::v0 (auto-composite)
NPHI     .v/v_decimal                : NPHI:UNKNOWN:rC:NONE:v1 
PHIF     .v/v_decimal UNKNOWN        : PHIF:UNKNOWN:rC::v0 (auto-composite)
RHOB     .g/cm3                      : RHOB:UNKNOWN:rC:NONE:v1 
SW       .v/v_decimal UNKNOWN        : SW:UNKNOWN:rC::v0 (auto-composite)
VSH      .v/v_decimal UNKNOWN        : VSH:UNKNOWN:rC::v0 (auto-composite)
~A     DEPTH         TVD       TVDSS           DT           GR        KLOGH         NPHI         PHIF         RHOB           SW          VSH
# ...
   2767.5000   2743.4949  -2718.4949      93.9066      79.5686     547.3318       0.2739       0.2849       2.1829       0.8436       0.0853
   2767.6250   2743.6199  -2718.6199      94.8627      81.1276     468.4331       0.2753       0.2808       2.1896       0.8294       0.1056
   2767.7500   2743.7449  -2718.7449      95.2869      80.2506     329.1982       0.2751       0.2715       2.2049       0.8331       0.0942
   2767.8750   2743.8699  -2718.8699      95.2771      79.1406     335.4837       0.2710       0.2720       2.2041       0.8184       0.0797
   2768.0000   2743.9949  -2718.9949      95.2359      79.1847     298.8127       0.2644       0.2689       2.2091       0.8190       0.0803
   2768.1250   2744.1199  -2719.1199      95.3232      78.2361     248.7603       0.2597       0.2641       2.2170       0.8202       0.0680
   2768.2500   2744.2449  -2719.2449      95.5292      76.1068     354.6632       0.2580       0.2735       2.2017       0.7910       0.0404
   2768.3750   2744.3699  -2719.3699      95.7854      75.2426     686.6286       0.2584       0.2909       2.1731       0.7551       0.0291
   2768.5000   2744.4949  -2719.4949      95.9910      80.9700     370.9794       0.2577       0.2747       2.1990       0.8001       0.1039
   2768.6250   2744.6199  -2719.6199      96.0308      83.2569      91.3437       0.2512       0.2376       2.2604       0.8884       0.1332
   2768.7500   2744.7449  -2719.7449      95.9499      88.0189     112.1430       0.2463       0.2431       2.2515       0.8618       0.1951
   2768.8750   2744.8699  -2719.8699      95.8002      89.7601     196.2820       0.2466       0.2578       2.2273       0.7952       0.2177
   2769.0000   2744.9949  -2719.9949      95.6190      86.9353     170.6753       0.2504       0.2541       2.2333       0.7692       0.1810
   2769.1250   2745.1199  -2720.1199      95.4207      80.1335      46.3893       0.2533       0.2197       2.2897       0.8342       0.0927
   2769.2500   2745.2449  -2720.2449      95.1590      69.2971      14.6111       0.2484       0.1892       2.3398       0.9387       0.0010
   2769.3750   2745.3699  -2720.3699      94.7334      65.3588      97.4982       0.2415       0.2394       2.2576       0.7548       0.0010
   2769.5000   2745.4949  -2720.4949      94.1915      64.3912      90.1127       0.2388       0.2373       2.2610       0.7659       0.0010
   2769.6250   2745.6199  -2720.6199      93.6174      65.9276     112.7266       0.2394       0.2432       2.2513       0.7704       0.0010
   2769.7500   2745.7449  -2720.7449      93.1024      67.9206     352.2130       0.2405       0.2733       2.2020       0.7192       0.0010
   2769.8750   2745.8696  -2720.8696      92.7253      66.9454     259.1646       0.2388       0.2652       2.2152       0.7476       0.0010
   2770.0000   2745.9946  -2720.9946      92.5013      74.6869      68.8369       0.2339       0.2302       2.2727       0.8608       0.0220
   2770.1250   2746.1196  -2721.1196      92.2853      73.5829     165.8874       0.2302       0.2534       2.2345       0.7770       0.0076
   2770.2500   2746.2446  -2721.2446      92.0381      71.3749     270.0707       0.2286       0.2663       2.2135       0.7265       0.0010
   2770.3750   2746.3696  -2721.3696      91.7992      70.6216     269.8651       0.2289       0.2662       2.2135       0.7276       0.0010
   2770.5000   2746.4946  -2721.4946      91.6534      71.2721     245.5048       0.2303       0.2638       2.2176       0.7639       0.0010
   2770.6250   2746.6196  -2721.6196      91.7363      71.6629      62.7858       0.2324       0.2277       2.2767       0.8988       0.0010
   2770.7500   2746.7446  -2721.7446      92.0947      76.3548      59.1553       0.2358       0.2262       2.2792       0.9001       0.0436
   2770.8750   2746.8696  -2721.8696      92.5470      81.2080       9.0870       0.2415       0.1767       2.3603       1.0000       0.1066
   2771.0000   2746.9946  -2721.9946      92.9806      81.2495      10.3508       0.2513       0.1801       2.3548       0.9863       0.1072
   2771.1250   2747.1196  -2722.1196      93.3314      78.6530      89.1909       0.2644       0.2370       2.2614       0.7836       0.0734
   2771.2500   2747.2446  -2722.2446      93.5906      80.5930     157.9910       0.2773       0.2521       2.2367       0.8048       0.0986
   2771.3750   2747.3696  -2722.3696      93.8261      75.5780     501.5663       0.2791       0.2826       2.1866       0.7755       0.0335
   2771.5000   2747.4946  -2722.4946      94.0992      77.6399     680.3101       0.2739       0.2907       2.1734       0.7925       0.0603
   2771.6250   2747.6196  -2722.6196      94.3841      80.6129     406.6618       0.2694       0.2771       2.1957       0.8587       0.0989
   2771.7500   2747.7446  -2722.7446      94.6387      83.4462     223.3253       0.2667       0.2612       2.2217       0.9139       0.1357
   2771.8750   2747.8696  -2722.8696      94.8212      86.0663     189.8689       0.2646       0.2570       2.2287       0.9048       0.1697
   2772.0000   2747.9946  -2722.9946      94.9016      87.3242     154.1610       0.2623       0.2515       2.2377       0.9020       0.1860
   2772.1250   2748.1196  -2723.1196      94.9080      80.5249     350.3070       0.2660       0.2731       2.2022       0.8157       0.0977
   2772.2500   2748.2446  -2723.2446      94.9121      79.8041     307.7694       0.2708       0.2697       2.2078       0.8149       0.0884
   2772.3750   2748.3696  -2723.3696      94.9197      78.6464     295.2770       0.2715       0.2686       2.2096       0.8239       0.0734
   2772.5000   2748.4946  -2723.4946      94.9121      76.0239     453.2599       0.2681       0.2799       2.1910       0.8080       0.0393
   2772.6250   2748.6196  -2723.6196      94.8533      74.9055     772.6450       0.2647       0.2940       2.1679       0.7827       0.0247
   2772.7500   2748.7446  -2723.7446      94.6859      72.6597     376.2146       0.2665       0.2750       2.1991       0.8672       0.0010
   2772.8750   2748.8696  -2723.8696      94.4238      71.9195     238.7614       0.2654       0.2630       2.2188       0.9105       0.0010
   2773.0000   2748.9946  -2723.9946      94.1064      79.7400     122.8114       0.2593       0.2455       2.2475       0.9533       0.0874
   2773.1250   2749.1196  -2724.1196      93.7335      86.1643      41.8675       0.2523       0.2170       2.2942       1.0000       0.1710
   2773.2500   2749.2446  -2724.2446      93.2809      87.0027      16.0495       0.2483       0.1917       2.3357       1.0000       0.1819
   2773.3750   2749.3696  -2724.3696      92.6980      94.4650      34.9503       0.2497       0.2123       2.3020       0.8977       0.2788
   2773.5000   2749.4946  -2724.4946      91.8889      97.8889       4.0312       0.2533       0.1612       2.3823       1.0000       0.3232
   2773.6250   2749.6196  -2724.6196      90.9747     100.6148       3.9791       0.2545       0.1609       2.3860       0.9730       0.3586
   2773.7500   2749.7446  -2724.7446      90.0879     103.0558       2.2586       0.2538       0.1483       2.4069       0.9809       0.3903
   2773.8750   2749.8696  -2724.8696      89.3446     104.3456       0.8042       0.2524       0.1253       2.4446       1.0000       0.4071
   2774.0000   2749.9944  -2724.9944      88.8291     101.9654       0.5022       0.2512       0.1148       2.4618       1.0000       0.3761
   2774.1250   2750.1194  -2725.1194      88.5739      88.2358       0.0852       0.2511       0.0752       2.5267       1.0000       0.1979
   2774.2500   2750.2444  -2725.2444      88.4698      86.1894       0.0184       0.2515       0.0411       2.5825       1.0000       0.1713
   2774.3750   2750.3694  -2725.3694      88.4420      87.2461       0.0836       0.2527       0.0748       2.5273       1.0000       0.1850
   2774.5000   2750.4944  -2725.4944      88.5062      96.2421       0.4407       0.2554       0.1119       2.4590       0.8368       0.3018
