#------------------------------------------------------------------------------
#
#   Created by  : [OpenWorks] Log Export Utility (LEXP)
#   Created on  : 2007-05-07 11:56:53
#   Project     : NORNE
#   User        : JSE
#   Interpreter : JSE
#
#------------------------------------------------------------------------------
~VERSION INFORMATION
VERS. 2.0 : CWLS Log ASCII Standard - version 2.0
WRAP.  NO : One line per depth step
~WELL INFORMATION
#MNEMONIC   .UNIT                                           VALUE :DESCRIPTION
#------------------------------------------------------------------------------
STRT        .M                                           450.6626 :START DEPTH
STOP        .M                                          3861.9126 :STOP DEPTH
STEP        .M                                             0.1250 :STEP
NULL        .                                           -999.2500 :NULL VALUE
COMP        .                                             STATOIL :COMPANY
WELL        .                                       6608/10-B-2 H :WELL
FLD         .                                               NORNE :FIELD
LOC         .                                             UNKNOWN :LOCATION
CNTY        .                                             UNKNOWN :COUNTY
STAT        .                                             UNKNOWN :STATE
CTRY        .                                              Norway :COUNTRY
SRVC        .                                             UNKNOWN :SERVICE COMPANY
DATE        .                                             UNKNOWN :LOG DATE
UWI         .                                    NO 6608/10-B-2 H :UNIQUE WELL ID
XCOORD      .                                       457121.854690 :SURFACE X
YCOORD      .                                      7322122.976330 :SURFACE Y
LAT         .                                           66.015290 :LATITUDE
LON         .                                            8.054722 :LONGITUDE
ELEV        .M                                            25.0000 :SURFACE ELEV
ELEV_TYPE   .                                                  KB :ELEV TYPE
~CURVE INFORMATION
#MNEMONIC.UNIT        API CODE       : CURVE DESCRIPTION
#------------------------------------------------------------------------------
DEPTH    .M                          : Measured Depth
TVD      .M                          : True Vertical Depth (TVD)
TVDSS    .M                          : True Vertical Depth (TVDSS)
DT       .us/ft                      : DT:UNKNOWN:rC:NONE:v1 
GR       .API                        : GR:UNKNOWN:rC:NONE:v1 
KLOGH    .mD                         : KLOGH:UNKNOWN:rC:NONE:v1 
NPHI     .v/v_decimal                : NPHI:UNKNOWN:rC:NONE:v1 
PHIF     .v/v_decimal                : PHIF:UNKNOWN:rC:NONE:v1 
RHOB     .g/cm3                      : RHOB:UNKNOWN:rC:NONE:v1 
SW       .v/v_decimal                : SW:UNKNOWN:rC:NONE:v1 
VSH      .v/v_decimal                : VSH:UNKNOWN:rC:NONE:v1 
~A     DEPTH         TVD       TVDSS           DT           GR        KLOGH         NPHI         PHIF         RHOB           SW          VSH
# ...
   3165.2876   2655.8455  -2630.8455     103.9667      43.6628     469.6577       0.2475       0.2658       2.1604       0.0823       0.0000
   3165.4126   2655.8486  -2630.8486     102.2180      44.1686     440.8808       0.2475       0.2637       2.1641       0.0830       0.0000
   3165.5376   2655.8518  -2630.8518      98.1698      44.5240     417.5034       0.2475       0.2620       2.1670       0.0836       0.0000
   3165.6626   2655.8552  -2630.8552      93.7983      44.5128     420.1051       0.2475       0.2622       2.1666       0.0838       0.0000
   3165.7876   2655.8584  -2630.8584      92.9231      44.3701     453.4061       0.2475       0.2647       2.1617       0.0841       0.0000
   3165.9126   2655.8618  -2630.8618      93.6775      44.2879     478.6972       0.2475       0.2664       2.1589       0.0842       0.0094
   3166.0376   2655.8650  -2630.8650      95.5372      45.0009     503.6316       0.2475       0.2680       2.1554       0.0839       0.0105
   3166.1626   2655.8682  -2630.8682      98.2365      45.5115     529.8017       0.2475       0.2697       2.1520       0.0836       0.0192
   3166.2876   2655.8716  -2630.8716     100.8294      46.2829     546.0208       0.2475       0.2707       2.1507       0.0837       0.0470
   3166.4126   2655.8748  -2630.8748     100.9752      51.6162     518.8829       0.2475       0.2690       2.1539       0.0841       0.0784
   3166.5376   2655.8782  -2630.8782     102.5541      49.6424     505.6813       0.2475       0.2682       2.1556       0.0851       0.0303
   3166.6626   2655.8813  -2630.8813     103.6017      49.0011     502.6203       0.2475       0.2680       2.1554       0.0850       0.0358
   3166.7876   2655.8845  -2630.8845     104.2381      49.9553     509.6670       0.2475       0.2684       2.1541       0.0844       0.0482
   3166.9126   2655.8879  -2630.8879     104.7698      50.2231     531.8123       0.2475       0.2698       2.1514       0.0839       0.0448
   3167.0376   2655.8911  -2630.8911     105.4068      47.5479     571.9413       0.2475       0.2722       2.1467       0.0835       0.0318
   3167.1626   2655.8945  -2630.8945     105.2609      49.0454     601.7168       0.2475       0.2738       2.1443       0.0824       0.0671
   3167.2876   2655.8977  -2630.8977     104.8564      49.8225     647.8864       0.2475       0.2762       2.1404       0.0821       0.0626
   3167.4126   2655.9009  -2630.9009     104.5166      49.9515     699.2272       0.2475       0.2786       2.1357       0.0807       0.0583
   3167.5376   2655.9043  -2630.9043     104.0294      50.1673     736.8465       0.2475       0.2804       2.1323       0.0791       0.0608
   3167.6626   2655.9075  -2630.9075     103.1334      50.1213     765.0232       0.2475       0.2816       2.1299       0.0783       0.0603
   3167.7876   2655.9109  -2630.9109     101.6889      47.7000     824.3664       0.2475       0.2840       2.1250       0.0795       0.0318
   3167.9126   2655.9141  -2630.9141     100.9524      47.0993     708.7011       0.2475       0.2790       2.1349       0.0816       0.0247
   3168.0376   2655.9172  -2630.9172     101.0304      48.3423     598.3956       0.2475       0.2735       2.1454       0.0835       0.0393
   3168.1626   2655.9207  -2630.9207     101.9875      50.4116     551.4802       0.2475       0.2710       2.1500       0.0841       0.0637
   3168.2876   2655.9238  -2630.9238     103.0359      50.5325     630.1974       0.2475       0.2747       2.1428       0.0830       0.0651
   3168.4126   2655.9272  -2630.9272     103.0564      47.2495     821.6308       0.2475       0.2839       2.1252       0.0806       0.0265
   3168.5376   2655.9307  -2630.9307     101.3060      48.2997     801.0335       0.2475       0.2831       2.1269       0.0810       0.0388
   3168.6626   2655.9346  -2630.9346      99.2889      48.2440     763.3123       0.2475       0.2815       2.1300       0.0828       0.0382
   3168.7876   2655.9387  -2630.9387      98.9705      47.3559     738.2972       0.2475       0.2804       2.1321       0.0845       0.0309
   3168.9126   2655.9426  -2630.9426      99.1308      47.0938     711.4374       0.2475       0.2792       2.1346       0.0855       0.0281
   3169.0376   2655.9468  -2630.9468      98.5743      47.5645     660.4181       0.2475       0.2767       2.1393       0.0854       0.0288
   3169.1626   2655.9507  -2630.9507      96.8835      47.1242     571.0813       0.2475       0.2721       2.1478       0.0839       0.0187
   3169.2876   2655.9546  -2630.9546      96.7376      46.9683     632.5328       0.2475       0.2754       2.1421       0.0822       0.0222
   3169.4126   2655.9587  -2630.9587      97.9029      47.1813     764.8171       0.2475       0.2814       2.1303       0.0819       0.0182
   3169.5376   2655.9626  -2630.9626      98.4889      46.3683     800.1214       0.2475       0.2830       2.1265       0.0829       0.0104
   3169.6626   2655.9666  -2630.9666      98.1020      45.6441     774.9257       0.2475       0.2820       2.1283       0.0833       0.0104
   3169.7876   2655.9707  -2630.9707      97.2444      46.4570     768.8184       0.2475       0.2817       2.1294       0.0818       0.0252
   3169.9126   2655.9746  -2630.9746      97.2444      48.1555     730.6849       0.2475       0.2801       2.1319       0.0829       0.0376
   3170.0376   2655.9788  -2630.9788      97.2444      49.2460     728.4505       0.2475       0.2800       2.1328       0.0842       0.0277
   3170.1626   2655.9827  -2630.9827      97.6650      46.6424     702.6158       0.2475       0.2788       2.1354       0.0848       0.0100
   3170.2876   2655.9866  -2630.9866      98.5413      44.8871     667.8485       0.2475       0.2772       2.1382       0.0844       0.0041
   3170.4126   2655.9907  -2630.9907      99.0886      45.3655     639.1403       0.2475       0.2758       2.1405       0.0834       0.0097
   3170.5376   2655.9946  -2630.9946      98.0675      45.7789     625.1308       0.2475       0.2751       2.1419       0.0828       0.0092
   3170.6626   2655.9988  -2630.9988      97.0464      45.7626     641.2134       0.2475       0.2759       2.1411       0.0813       0.0090
   3170.7876   2656.0027  -2631.0027      97.5047      45.7877     657.7009       0.2475       0.2767       2.1396       0.0802       0.0093
   3170.9126   2656.0066  -2631.0066      98.1870      44.0000     624.2979       0.2475       0.2749       2.1421       0.0825       0.0046
   3171.0376   2656.0107  -2631.0107      98.5455      42.4333     586.6650       0.2475       0.2730       2.1450       0.0845       0.0000
   3171.1626   2656.0146  -2631.0146      98.4709      43.1631     592.4233       0.2475       0.2733       2.1445       0.0836       0.0011
   3171.2876   2656.0188  -2631.0188      98.3965      45.5262     623.1345       0.2475       0.2749       2.1421       0.0826       0.0069
   3171.4126   2656.0227  -2631.0227      98.3942      47.5443     639.6493       0.2475       0.2758       2.1404       0.0826       0.0299
   3171.5376   2656.0266  -2631.0266      99.0489      46.8838     576.7883       0.2475       0.2723       2.1468       0.0825       0.0222
   3171.6626   2656.0308  -2631.0308      99.5382      45.9329     549.5029       0.2475       0.2709       2.1493       0.0825       0.0110
   3171.7876   2656.0347  -2631.0347      99.0046      45.1939     568.8009       0.2475       0.2720       2.1473       0.0830       0.0057
   3171.9126   2656.0388  -2631.0388      97.1632      43.7630     565.0112       0.2475       0.2718       2.1484       0.0847       0.0003
   3172.0376   2656.0427  -2631.0427      97.3085      42.7062     523.7276       0.2475       0.2693       2.1525       0.0882       0.0038
   3172.1626   2656.0466  -2631.0466      98.2167      46.5583     518.4059       0.2475       0.2690       2.1530       0.0887       0.0277
   3172.2876   2656.0508  -2631.0508      99.1915      47.2989     545.3801       0.2475       0.2706       2.1503       0.0878       0.0172
