#------------------------------------------------------------------------------
#
#   Created by  : [OpenWorks] Log Export Utility (LEXP)
#   Created on  : 2007-05-07 11:57:18
#   Project     : NORNE
#   User        : JSE
#   Interpreter : JSE
#
#------------------------------------------------------------------------------
~VERSION INFORMATION
VERS. 2.0 : CWLS Log ASCII Standard - version 2.0
WRAP.  NO : One line per depth step
~WELL INFORMATION
#MNEMONIC   .UNIT                                           VALUE :DESCRIPTION
#------------------------------------------------------------------------------
STRT        .M                                           437.6250 :START DEPTH
STOP        .M                                          2890.0000 :STOP DEPTH
STEP        .M                                             0.1250 :STEP
NULL        .                                           -999.2500 :NULL VALUE
COMP        .                                             STATOIL :COMPANY
WELL        .                                       6608/10-C-4 H :WELL
FLD         .                                               NORNE :FIELD
LOC         .                                             UNKNOWN :LOCATION
CNTY        .                                             UNKNOWN :COUNTY
STAT        .                                             UNKNOWN :STATE
CTRY        .                                              Norway :COUNTRY
SRVC        .                                             UNKNOWN :SERVICE COMPANY
DATE        .                                             UNKNOWN :LOG DATE
UWI         .                                    NO 6608/10-C-4 H :UNIQUE WELL ID
XCOORD      .                                       457180.075915 :SURFACE X
YCOORD      .                                      7322034.182216 :SURFACE Y
LAT         .                                           66.014501 :LATITUDE
LON         .                                            8.056034 :LONGITUDE
ELEV        .M                                            25.0000 :SURFACE ELEV
ELEV_TYPE   .                                                  KB :ELEV TYPE
~CURVE INFORMATION
#MNEMONIC.UNIT        API CODE       : CURVE DESCRIPTION
#------------------------------------------------------------------------------
DEPTH    .M                          : Measured Depth
TVD      .M                          : True Vertical Depth (TVD)
TVDSS    .M                          : True Vertical Depth (TVDSS)
DT       .us/ft                      : DT:UNKNOWN:rC:NONE:v1 
GR       .API                        : GR:UNKNOWN:rC:NONE:v1 
KLOGH    .mD          UNKNOWN        : KLOGH:UNKNOWN:rC::v0 (auto-composite)
NPHI     .v/v_decimal                : NPHI:UNKNOWN:rC:NONE:v1 
PHIF     .v/v_decimal UNKNOWN        : PHIF:UNKNOWN:rC::v0 (auto-composite)
RHOB     .g/cm3                      : RHOB:UNKNOWN:rC:NONE:v1 
SW       .v/v_decimal UNKNOWN        : SW:UNKNOWN:rC::v0 (auto-composite)
VSH      .v/v_decimal UNKNOWN        : VSH:UNKNOWN:rC::v0 (auto-composite)
~A     DEPTH         TVD       TVDSS           DT           GR        KLOGH         NPHI         PHIF         RHOB           SW          VSH
# ...
   2853.0000   2828.9902  -2803.9902    -999.2500    -999.2500       3.5233    -999.2500       0.2677       2.2251       0.8771       0.0010
   2853.1250   2829.1150  -2804.1150    -999.2500    -999.2500       1.9083    -999.2500       0.2540       2.2478       0.8743       0.0010
   2853.2500   2829.2400  -2804.2400    -999.2500    -999.2500       0.3390    -999.2500       0.2155       2.3118       0.9227       0.0010
   2853.3750   2829.3650  -2804.3650    -999.2500    -999.2500       0.1331    -999.2500       0.1947       2.3397       0.9090       0.0010
   2853.5000   2829.4900  -2804.4900    -999.2500    -999.2500       0.2007    -999.2500       0.2038       2.3299       0.8433       0.0010
   2853.6250   2829.6150  -2804.6150    -999.2500    -999.2500       0.2656    -999.2500       0.2101       2.3208       0.7838       0.0010
   2853.7500   2829.7400  -2804.7400    -999.2500    -999.2500       0.2916    -999.2500       0.2121       2.3174       0.7384       0.0010
   2853.8750   2829.8650  -2804.8650    -999.2500    -999.2500       0.1942    -999.2500       0.2031       2.3282       0.7392       0.0010
   2854.0000   2829.9900  -2804.9900    -999.2500    -999.2500       0.0804    -999.2500       0.1834       2.3651       0.8031       0.0010
   2854.1250   2830.1150  -2805.1150    -999.2500    -999.2500       0.1387    -999.2500       0.1956       2.3429       0.7123       0.0010
   2854.2500   2830.2400  -2805.2400    -999.2500    -999.2500       0.0758    -999.2500       0.1821       2.3666       0.7289       0.0010
   2854.3750   2830.3650  -2805.3650    -999.2500    -999.2500       0.0702    -999.2500       0.1804       2.3701       0.7211       0.0010
   2854.5000   2830.4900  -2805.4900    -999.2500    -999.2500       0.0785    -999.2500       0.1829       2.3619       0.6978       0.0010
   2854.6250   2830.6150  -2805.6150    -999.2500    -999.2500       0.0649    -999.2500       0.1787       2.3651       0.6867       0.0010
   2854.7500   2830.7400  -2805.7400    -999.2500    -999.2500       0.0807    -999.2500       0.1835       2.3593       0.6524       0.0010
   2854.8750   2830.8650  -2805.8650    -999.2500    -999.2500       0.1202    -999.2500       0.1924       2.3458       0.6174       0.0010
   2855.0000   2830.9900  -2805.9900    -999.2500    -999.2500       0.1310    -999.2500       0.1943       2.3295       0.5872       0.0010
   2855.1250   2831.1150  -2806.1150    -999.2500    -999.2500       0.0732    -999.2500       0.1813       2.3492       0.5955       0.0010
   2855.2500   2831.2400  -2806.2400    -999.2500    -999.2500       0.0197    -999.2500       0.1521       2.4024       0.6630       0.0010
   2855.3750   2831.3650  -2806.3650    -999.2500    -999.2500       0.0072    -999.2500       0.1297       2.4439       0.7264       0.0010
   2855.5000   2831.4900  -2806.4900    -999.2500    -999.2500       0.0189    -999.2500       0.1512       2.4127       0.6264       0.0010
   2855.6250   2831.6150  -2806.6150    -999.2500    -999.2500       0.0260    -999.2500       0.1583       2.4052       0.6788       0.0010
   2855.7500   2831.7400  -2806.7400    -999.2500    -999.2500       0.2170    -999.2500       0.2056       2.3271       0.6635       0.0010
   2855.8750   2831.8650  -2806.8650    -999.2500    -999.2500       1.7843    -999.2500       0.2525       2.2503       0.6889       0.0010
   2856.0000   2831.9900  -2806.9900    -999.2500    -999.2500       3.0705    -999.2500       0.2646       2.2287       0.7448       0.0010
   2856.1250   2832.1150  -2807.1150    -999.2500    -999.2500      17.9462    -999.2500       0.3039       2.1648       0.7867       0.0010
   2856.2500   2832.2400  -2807.2400    -999.2500    -999.2500      12.7840    -999.2500       0.2964       2.1773       0.8369       0.0010
   2856.3750   2832.3650  -2807.3650    -999.2500    -999.2500      13.0180    -999.2500       0.2968       2.1767       0.8327       0.0010
   2856.5000   2832.4900  -2807.4900    -999.2500    -999.2500      11.3123    -999.2500       0.2937       2.1819       0.8376       0.0010
   2856.6250   2832.6150  -2807.6150    -999.2500    -999.2500       6.7455    -999.2500       0.2821       2.2010       0.8576       0.0010
   2856.7500   2832.7400  -2807.7400    -999.2500    -999.2500       3.6862    -999.2500       0.2687       2.2234       0.8551       0.0010
   2856.8750   2832.8650  -2807.8650    -999.2500    -999.2500      10.2086    -999.2500       0.2914       2.1856       0.8001       0.0010
   2857.0000   2832.9900  -2807.9900    -999.2500    -999.2500       6.3477    -999.2500       0.2808       2.2033       0.8312       0.0010
   2857.1250   2833.1150  -2808.1150    -999.2500    -999.2500       0.4753    -999.2500       0.2230       2.2992       1.0000       0.0010
   2857.2500   2833.2400  -2808.2400    -999.2500    -999.2500       0.0596    -999.2500       0.1768       2.3762       1.0000       0.0010
   2857.3750   2833.3650  -2808.3650    -999.2500    -999.2500       0.0538    -999.2500       0.1745       2.3800       1.0000       0.0010
   2857.5000   2833.4900  -2808.4900    -999.2500    -999.2500       0.0537    -999.2500       0.1745       2.3800       1.0000       0.0010
   2857.6250   2833.6150  -2808.6150    -999.2500    -999.2500       0.0574    -999.2500       0.1759       2.3775       1.0000       0.0010
   2857.7500   2833.7400  -2808.7400    -999.2500    -999.2500       0.0755    -999.2500       0.1820       2.3674       1.0000       0.0010
   2857.8750   2833.8647  -2808.8647    -999.2500    -999.2500       0.1472    -999.2500       0.1969       2.3427       1.0000       0.0010
   2858.0000   2833.9897  -2808.9897    -999.2500    -999.2500       0.2116    -999.2500       0.2050       2.3293       1.0000       0.0010
   2858.1250   2834.1147  -2809.1147    -999.2500    -999.2500       0.1024    -999.2500       0.1888       2.3561       1.0000       0.0010
   2858.2500   2834.2397  -2809.2397    -999.2500    -999.2500       0.0516    -999.2500       0.1735       2.3815       1.0000       0.0010
   2858.3750   2834.3647  -2809.3647    -999.2500    -999.2500       0.0196    -999.2500       0.1520       2.4173       1.0000       0.0010
   2858.5000   2834.4897  -2809.4897    -999.2500    -999.2500       0.0082    -999.2500       0.1325       2.4498       1.0000       0.0010
   2858.6250   2834.6147  -2809.6147    -999.2500    -999.2500       0.0015    -999.2500       0.0952       2.5118       1.0000       0.0010
   2858.7500   2834.7397  -2809.7397    -999.2500    -999.2500       0.0001    -999.2500       0.0216       2.6343       1.0000       0.0010
   2858.8750   2834.8647  -2809.8647    -999.2500    -999.2500       0.0000    -999.2500       0.0010       2.8246       1.0000       0.0010
   2859.0000   2834.9897  -2809.9897    -999.2500    -999.2500       0.0000    -999.2500       0.0010       2.8090       1.0000       0.0010
   2859.1250   2835.1147  -2810.1147    -999.2500    -999.2500       0.0000    -999.2500       0.0010       2.7848       1.0000       0.0010
   2859.2500   2835.2397  -2810.2397    -999.2500    -999.2500       0.0000    -999.2500       0.0010       2.8280       1.0000       0.0010
   2859.3750   2835.3647  -2810.3647    -999.2500    -999.2500       0.0000    -999.2500       0.0010       2.8860       1.0000       0.0010
   2859.5000   2835.4897  -2810.4897    -999.2500    -999.2500   10000.0000    -999.2500       1.0000    -999.2500       0.2588       0.0000
   2859.6250   2835.6147  -2810.6147    -999.2500    -999.2500   10000.0000    -999.2500       1.0000    -999.2500       0.2785       0.0000
   2859.7500   2835.7397  -2810.7397    -999.2500    -999.2500   10000.0000    -999.2500       1.0000    -999.2500       0.2743       0.0000
   2859.8750   2835.8647  -2810.8647    -999.2500    -999.2500   10000.0000    -999.2500       1.0000    -999.2500       0.2647       0.0000
   2860.0000   2835.9897  -2810.9897    -999.2500    -999.2500   10000.0000    -999.2500       1.0000    -999.2500       0.2530       0.0000
