#------------------------------------------------------------------------------
#
#   Created by  : [OpenWorks] Log Export Utility (LEXP)
#   Created on  : 2007-05-07 11:56:53
#   Project     : NORNE
#   User        : JSE
#   Interpreter : JSE
#
#------------------------------------------------------------------------------
~VERSION INFORMATION
VERS. 2.0 : CWLS Log ASCII Standard - version 2.0
WRAP.  NO : One line per depth step
~WELL INFORMATION
#MNEMONIC   .UNIT                                           VALUE :DESCRIPTION
#------------------------------------------------------------------------------
STRT        .M                                           450.6626 :START DEPTH
STOP        .M                                          3861.9126 :STOP DEPTH
STEP        .M                                             0.1250 :STEP
NULL        .                                           -999.2500 :NULL VALUE
COMP        .                                             STATOIL :COMPANY
WELL        .                                       6608/10-B-2 H :WELL
FLD         .                                               NORNE :FIELD
LOC         .                                             UNKNOWN :LOCATION
CNTY        .                                             UNKNOWN :COUNTY
STAT        .                                             UNKNOWN :STATE
CTRY        .                                              Norway :COUNTRY
SRVC        .                                             UNKNOWN :SERVICE COMPANY
DATE        .                                             UNKNOWN :LOG DATE
UWI         .                                    NO 6608/10-B-2 H :UNIQUE WELL ID
XCOORD      .                                       457121.854690 :SURFACE X
YCOORD      .                                      7322122.976330 :SURFACE Y
LAT         .                                           66.015290 :LATITUDE
LON         .                                            8.054722 :LONGITUDE
ELEV        .M                                            25.0000 :SURFACE ELEV
ELEV_TYPE   .                                                  KB :ELEV TYPE
~CURVE INFORMATION
#MNEMONIC.UNIT        API CODE       : CURVE DESCRIPTION
#------------------------------------------------------------------------------
DEPTH    .M                          : Measured Depth
TVD      .M                          : True Vertical Depth (TVD)
TVDSS    .M                          : True Vertical Depth (TVDSS)
DT       .us/ft                      : DT:UNKNOWN:rC:NONE:v1 
GR       .API                        : GR:UNKNOWN:rC:NONE:v1 
KLOGH    .mD                         : KLOGH:UNKNOWN:rC:NONE:v1 
NPHI     .v/v_decimal                : NPHI:UNKNOWN:rC:NONE:v1 
PHIF     .v/v_decimal                : PHIF:UNKNOWN:rC:NONE:v1 
RHOB     .g/cm3                      : RHOB:UNKNOWN:rC:NONE:v1 
SW       .v/v_decimal                : SW:UNKNOWN:rC:NONE:v1 
VSH      .v/v_decimal                : VSH:UNKNOWN:rC:NONE:v1 
~A     DEPTH         TVD       TVDSS           DT           GR        KLOGH         NPHI         PHIF         RHOB           SW          VSH
# ...
   3008.5376   2654.9546  -2629.9546     107.7225      43.6223    1021.7047       0.2619       0.2909       2.1111       0.0714       0.0000
   3008.6626   2654.9519  -2629.9519     107.5769      42.7367     996.1707       0.2722       0.2901       2.1128       0.0727       0.0000
   3008.7876   2654.9495  -2629.9495     107.6800      43.0370    1083.9438       0.2698       0.2928       2.1074       0.0722       0.0000
   3008.9126   2654.9468  -2629.9468     107.6407      42.3590    1160.4240       0.2670       0.2950       2.1029       0.0711       0.0000
   3009.0376   2654.9441  -2629.9441     107.7983      41.1151    1248.4573       0.2645       0.2974       2.0986       0.0698       0.0000
   3009.1626   2654.9417  -2629.9417     108.6695      40.4347    1332.6841       0.2644       0.2995       2.0948       0.0690       0.0000
   3009.2876   2654.9390  -2629.9390     110.7117      41.3965    1234.3932       0.2778       0.2971       2.0989       0.0702       0.0000
   3009.4126   2654.9363  -2629.9363     110.7556      40.3942    1471.0128       0.2711       0.3026       2.0894       0.0688       0.0000
   3009.5376   2654.9338  -2629.9338     109.6502      42.6782    1530.1000       0.2595       0.3040       2.0870       0.0681       0.0000
   3009.6626   2654.9312  -2629.9312     108.5846      44.2808    1415.4910       0.2499       0.3013       2.0919       0.0685       0.0000
   3009.7876   2654.9285  -2629.9285     107.7151      43.8898    1303.4561       0.2451       0.2988       2.0964       0.0692       0.0000
   3009.9126   2654.9260  -2629.9260     106.5040      42.8413    1387.5782       0.2456       0.3008       2.0922       0.0693       0.0000
   3010.0376   2654.9233  -2629.9233     104.9020      45.3644    1319.0646       0.2555       0.2992       2.0947       0.0701       0.0000
   3010.1626   2654.9207  -2629.9207     104.8396      47.2319    1226.9584       0.2749       0.2968       2.1001       0.0707       0.0241
   3010.2876   2654.9180  -2629.9180     106.0479      50.0854    1119.2379       0.2801       0.2938       2.1058       0.0708       0.0558
   3010.4126   2654.9155  -2629.9155     107.6689      49.6693    1055.7474       0.2736       0.2920       2.1090       0.0710       0.0502
   3010.5376   2654.9128  -2629.9128     109.2252      44.8495    1068.1411       0.2642       0.2924       2.1083       0.0712       0.0060
   3010.6626   2654.9102  -2629.9102     111.1111      41.3880    1123.1041       0.2612       0.2940       2.1050       0.0706       0.0000
   3010.7876   2654.9077  -2629.9077     109.2074      42.3328    1213.0355       0.2623       0.2965       2.1001       0.0704       0.0000
   3010.9126   2654.9050  -2629.9050     105.7077      41.6627    1161.9460       0.2651       0.2951       2.1029       0.0720       0.0000
   3011.0376   2654.9023  -2629.9023     104.0000      39.7203    1107.2104       0.2624       0.2935       2.1064       0.0734       0.0000
   3011.1626   2654.8999  -2629.8999     104.3043      38.0115    1140.8445       0.2611       0.2944       2.1049       0.0730       0.0000
   3011.2876   2654.8972  -2629.8972     105.1793      38.5826    1262.9344       0.2695       0.2978       2.0974       0.0707       0.0000
   3011.4126   2654.8945  -2629.8945     106.0531      43.6050    1200.4905       0.2704       0.2962       2.1007       0.0720       0.0000
   3011.5376   2654.8921  -2629.8921     107.5906      44.3343    1251.5610       0.2708       0.2975       2.0988       0.0717       0.0000
   3011.6626   2654.8894  -2629.8894     107.7872      44.0243    1149.2235       0.2699       0.2946       2.1042       0.0733       0.0000
   3011.7876   2654.8867  -2629.8867     106.3883      42.8107    1055.7474       0.2669       0.2920       2.1090       0.0743       0.0000
   3011.9126   2654.8843  -2629.8843     104.2398      41.0940    1049.1122       0.2648       0.2918       2.1096       0.0740       0.0000
   3012.0376   2654.8816  -2629.8816     103.0746      40.0367    1020.5460       0.2700       0.2909       2.1122       0.0746       0.0000
   3012.1626   2654.8789  -2629.8789     101.9077      40.4108     922.8259       0.2676       0.2876       2.1179       0.0759       0.0000
   3012.2876   2654.8765  -2629.8765     102.7556      40.3317     851.0787       0.2486       0.2850       2.1223       0.0770       0.0000
   3012.4126   2654.8738  -2629.8738     106.4935      39.7567     937.0905       0.2541       0.2879       2.1172       0.0772       0.0000
   3012.5376   2654.8711  -2629.8711     110.2490      39.7227    1045.8717       0.2684       0.2917       2.1106       0.0769       0.0000
   3012.6626   2654.8687  -2629.8687     110.8410      40.9868    1045.2688       0.2645       0.2916       2.1107       0.0763       0.0000
   3012.7876   2654.8660  -2629.8660     109.0906      41.9772    1185.7067       0.2577       0.2957       2.1025       0.0739       0.0000
   3012.9126   2654.8633  -2629.8633     108.0225      44.0054    1283.9133       0.2561       0.2983       2.0966       0.0739       0.0000
   3013.0376   2654.8608  -2629.8608     107.2105      42.0098    1123.5957       0.2659       0.2937       2.1062       0.0759       0.0000
   3013.1626   2654.8582  -2629.8582     107.6436      40.2258    1005.1678       0.2689       0.2904       2.1132       0.0764       0.0000
   3013.2876   2654.8555  -2629.8555     108.8407      40.1598     990.0488       0.2649       0.2899       2.1140       0.0752       0.0000
   3013.4126   2654.8530  -2629.8530     108.9094      39.8649     881.0596       0.2718       0.2861       2.1207       0.0747       0.0000
   3013.5376   2654.8503  -2629.8503     107.7425      41.1605     951.0080       0.2693       0.2886       2.1158       0.0743       0.0000
   3013.6626   2654.8477  -2629.8477     107.3106      42.7042    1097.3894       0.2637       0.2931       2.1067       0.0738       0.0000
   3013.7876   2654.8452  -2629.8452     107.3812      45.7572    1196.0398       0.2579       0.2960       2.1015       0.0747       0.0000
   3013.9126   2654.8425  -2629.8425     107.6728      44.0975    1433.2593       0.2581       0.3013       2.0918       0.0748       0.0000
   3014.0376   2654.8398  -2629.8398     107.9641      36.9469    2816.8137       0.2666       0.3173       2.0610       0.0736       0.0051
   3014.1626   2654.8374  -2629.8374     108.2559      42.5674    8183.2871       0.2733       0.3575       1.9839       0.0774       0.0333
   3014.2876   2654.8347  -2629.8347     108.9690      45.9694    2647.0979       0.2711       0.3076       2.0798       0.0774       0.0241
   3014.4126   2654.8320  -2629.8320     110.6752      42.5580    1123.1041       0.2730       0.2940       2.1054       0.0759       0.0083
   3014.5376   2654.8296  -2629.8296     111.4149      39.2922    1029.0183       0.2770       0.2910       2.1110       0.0765       0.0000
   3014.6626   2654.8269  -2629.8269     110.2222      40.1108     959.1536       0.2812       0.2887       2.1157       0.0785       0.0000
   3014.7876   2654.8242  -2629.8242     107.4804      44.6413    1158.6862       0.2828       0.2948       2.1044       0.0784       0.0000
   3014.9126   2654.8218  -2629.8218     106.6051      43.4352    1572.7310       0.2657       0.3047       2.0855       0.0743       0.0000
   3015.0376   2654.8191  -2629.8191     106.7419      41.7737    1907.6324       0.2648       0.3110       2.0738       0.0728       0.0000
   3015.1626   2654.8164  -2629.8164     107.2228      43.3004    1811.8070       0.2717       0.3093       2.0764       0.0730       0.0012
   3015.2876   2654.8137  -2629.8137     108.1814      44.5227    1354.0537       0.2773       0.2986       2.0960       0.0759       0.0014
   3015.4126   2654.8113  -2629.8113     109.3943      43.3337     837.3392       0.2760       0.2845       2.1230       0.0800       0.0000
   3015.5376   2654.8086  -2629.8086     109.6889      43.5060     774.9257       0.2688       0.2820       2.1280       0.0795       0.0000
