#------------------------------------------------------------------------------
#
#   Created by  : [OpenWorks] Log Export Utility (LEXP)
#   Created on  : 2007-05-07 11:57:46
#   Project     : NORNE
#   User        : JSE
#   Interpreter : JSE
#
#------------------------------------------------------------------------------
~VERSION INFORMATION
VERS. 2.0 : CWLS Log ASCII Standard - version 2.0
WRAP.  NO : One line per depth step
~WELL INFORMATION
#MNEMONIC   .UNIT                                           VALUE :DESCRIPTION
#------------------------------------------------------------------------------
STRT        .M                                          1250.1914 :START DEPTH
STOP        .M                                          3136.8164 :STOP DEPTH
STEP        .M                                             0.1250 :STEP
NULL        .                                           -999.2500 :NULL VALUE
COMP        .                                             STATOIL :COMPANY
WELL        .                                       6608/10-D-4 H :WELL
FLD         .                                               NORNE :FIELD
LOC         .                                             UNKNOWN :LOCATION
CNTY        .                                             UNKNOWN :COUNTY
STAT        .                                             UNKNOWN :STATE
CTRY        .                                              Norway :COUNTRY
SRVC        .                                             UNKNOWN :SERVICE COMPANY
DATE        .                                             UNKNOWN :LOG DATE
UWI         .                                    NO 6608/10-D-4 H :UNIQUE WELL ID
XCOORD      .                                       457259.082734 :SURFACE X
YCOORD      .                                      7321952.911776 :SURFACE Y
LAT         .                                           66.013783 :LATITUDE
LON         .                                            8.057803 :LONGITUDE
ELEV        .M                                            22.0000 :SURFACE ELEV
ELEV_TYPE   .                                                  KB :ELEV TYPE
~CURVE INFORMATION
#MNEMONIC.UNIT        API CODE       : CURVE DESCRIPTION
#------------------------------------------------------------------------------
DEPTH    .M                          : Measured Depth
TVD      .M                          : True Vertical Depth (TVD)
TVDSS    .M                          : True Vertical Depth (TVDSS)
DT       .us/ft                      : DT:UNKNOWN:rC:NONE:v1 
DTS      .us/ft                      : DTS:UNKNOWN:rC:NONE:v1 
GR       .API                        : GR:UNKNOWN:rC:NONE:v1 
KLOGH    .mD          UNKNOWN        : KLOGH:UNKNOWN:rC::v0 (auto-composite)
NPHI     .v/v_decimal                : NPHI:UNKNOWN:rC:NONE:v1 
PHIF     .v/v_decimal UNKNOWN        : PHIF:UNKNOWN:rC::v0 (auto-composite)
RHOB     .g/cm3                      : RHOB:UNKNOWN:rC:NONE:v1 
SW       .v/v_decimal UNKNOWN        : SW:UNKNOWN:rC::v0 (auto-composite)
VSH      .v/v_decimal UNKNOWN        : VSH:UNKNOWN:rC::v0 (auto-composite)
~A     DEPTH         TVD       TVDSS           DT          DTS           GR        KLOGH         NPHI         PHIF         RHOB           SW          VSH
# ...
   3005.1914   2799.4675  -2777.4675      94.2811     191.5503      70.5419    1350.2595       0.2230       0.2906       2.1729       1.0000       0.1390
   3005.3164   2799.5576  -2777.5576      93.9985     190.4657      70.6517    1102.9216       0.2305       0.2862       2.1803       1.0000       0.1403
   3005.4414   2799.6479  -2777.6479      93.6865     189.5312      71.9202     996.9324       0.2431       0.2839       2.1840       1.0000       0.1560
   3005.5664   2799.7380  -2777.7380      93.3319     188.5208      73.8556     968.2604       0.2516       0.2833       2.1850       1.0000       0.1800
   3005.6914   2799.8281  -2777.8281      92.9340     187.2343      75.9345     864.0702       0.2527       0.2805       2.1896       1.0000       0.2058
   3005.8164   2799.9182  -2777.9182      92.5022     185.5596      77.7636     619.0611       0.2464       0.2724       2.2029       1.0000       0.2285
   3005.9414   2800.0083  -2778.0083      92.0558     183.5142      79.1979     310.8474       0.2358       0.2578       2.2268       1.0000       0.2462
   3006.0664   2800.0986  -2778.0986      91.6348     181.3441      80.5061     160.1017       0.2269       0.2418       2.2531       1.0000       0.2624
   3006.1914   2800.1887  -2778.1887      91.2737     179.3315      82.4772      93.3235       0.2214       0.2303       2.2720       1.0000       0.2869
   3006.3164   2800.2788  -2778.2788      90.9839     177.5597      85.0659      71.2423       0.2176       0.2251       2.2805       1.0000       0.3190
   3006.4414   2800.3689  -2778.3689      90.7704     176.1057      87.6404      78.8308       0.2150       0.2270       2.2774       1.0000       0.3509
   3006.5664   2800.4592  -2778.4592      90.6316     175.0280      89.1603     118.5918       0.2143       0.2356       2.2633       1.0000       0.3697
   3006.6914   2800.5493  -2778.5493      90.5645     174.3800      87.9700     220.6823       0.2175       0.2501       2.2395       1.0000       0.3550
   3006.8164   2800.6394  -2778.6394      90.5562     174.0076      83.1853     427.6064       0.2231       0.2641       2.2165       1.0000       0.2957
   3006.9414   2800.7295  -2778.7295      90.5767     173.6859      76.4914     645.9648       0.2283       0.2738       2.2006       1.0000       0.2127
   3007.0664   2800.8198  -2778.8198      90.6144     173.3346      69.4978     832.1611       0.2317       0.2798       2.1907       1.0000       0.1260
   3007.1914   2800.9099  -2778.9099      90.6604     172.9478      63.7358     994.2779       0.2331       0.2838       2.1842       1.0000       0.0545
   3007.3164   2801.0000  -2779.0000      90.7084     172.5915      60.3899    1191.8911       0.2336       0.2879       2.1775       1.0000       0.0131
   3007.4414   2801.0901  -2779.0901      90.7502     172.4405      59.6999    1528.7990       0.2351       0.2934       2.1684       1.0000       0.0046
   3007.5664   2801.1804  -2779.1804      90.7811     172.5212      59.9826    1849.5581       0.2375       0.2977       2.1615       1.0000       0.0081
   3007.6914   2801.2705  -2779.2705      90.7991     172.8413      59.9801    2026.7670       0.2416       0.2998       2.1580       1.0000       0.0080
   3007.8164   2801.3606  -2779.3606      90.8040     173.3675      59.1341    2119.6399       0.2473       0.3008       2.1563       1.0000       0.0042
   3007.9414   2801.4507  -2779.4507      90.7961     173.9983      57.4053    2246.0574       0.2536       0.3020       2.1543       1.0000       0.0010
   3008.0664   2801.5408  -2779.5408      90.7748     174.5177      55.4253    2509.8015       0.2568       0.3045       2.1502       1.0000       0.0010
   3008.1914   2801.6311  -2779.6311      90.7338     174.4694      54.4562    2575.1316       0.2506       0.3051       2.1492       1.0000       0.0010
   3008.3164   2801.7212  -2779.7212      90.6816     173.9821      54.5191    2279.9849       0.2394       0.3023       2.1539       1.0000       0.0010
   3008.4414   2801.8113  -2779.8113      90.6288     173.3623      55.1184    1780.2765       0.2279       0.2964       2.1634       1.0000       0.0010
   3008.5664   2801.9014  -2779.9014      90.5838     172.8759      55.9039    1252.4841       0.2197       0.2886       2.1762       1.0000       0.0010
   3008.6914   2801.9917  -2779.9917      90.5513     172.6883      56.7157     852.8619       0.2172       0.2805       2.1897       1.0000       0.0010
   3008.8164   2802.0818  -2780.0818      90.5308     172.7153      57.5461     682.8414       0.2210       0.2755       2.1979       1.0000       0.0010
   3008.9414   2802.1719  -2780.1719      90.5131     172.5649      58.1344     699.9634       0.2282       0.2761       2.1969       1.0000       0.0010
   3009.0664   2802.2620  -2780.2620      90.4964     172.1922      58.2118     849.6394       0.2367       0.2802       2.1902       1.0000       0.0010
   3009.1914   2802.3523  -2780.3523      90.4821     171.7519      57.6245    1017.3926       0.2444       0.2844       2.1832       1.0000       0.0010
   3009.3164   2802.4424  -2780.4424      90.4713     171.4477      56.4730    1085.1056       0.2487       0.2859       2.1809       1.0000       0.0010
   3009.4414   2802.5325  -2780.5325      90.4630     171.4660      55.2270     967.6005       0.2469       0.2833       2.1850       1.0000       0.0010
   3009.5664   2802.6226  -2780.6226      90.4444     171.5203      54.8337     796.4241       0.2372       0.2788       2.1923       1.0000       0.0010
   3009.6914   2802.7129  -2780.7129      90.4091     171.0916      55.2149     684.2224       0.2283       0.2755       2.1978       1.0000       0.0010
   3009.8164   2802.8030  -2780.8030      90.3539     170.1349      55.9199     642.0190       0.2249       0.2742       2.2000       1.0000       0.0010
   3009.9414   2802.8931  -2780.8931      90.2701     168.7582      56.4900     667.5873       0.2281       0.2750       2.1986       1.0000       0.0010
   3010.0664   2802.9832  -2780.9832      90.1393     167.1147      56.5384     741.7909       0.2351       0.2774       2.1947       1.0000       0.0010
   3010.1914   2803.0732  -2781.0732      89.8997     165.0643      55.7696     793.4013       0.2380       0.2788       2.1923       1.0000       0.0010
   3010.3164   2803.1636  -2781.1636      89.4690     162.4257      54.5621     724.1648       0.2323       0.2768       2.1957       1.0000       0.0010
   3010.4414   2803.2537  -2781.2537      88.8383     159.6240      53.3792     553.6081       0.2223       0.2702       2.2064       1.0000       0.0010
   3010.5664   2803.3438  -2781.3438      88.0163     157.0951      52.5451     371.5435       0.2130       0.2613       2.2211       1.0000       0.0010
   3010.6914   2803.4338  -2781.4338      87.0373     155.2042      52.4197     246.2919       0.2082       0.2527       2.2353       1.0000       0.0010
   3010.8164   2803.5242  -2781.5242      85.9760     154.1720      53.3760     187.5548       0.2090       0.2467       2.2451       1.0000       0.0010
   3010.9414   2803.6143  -2781.6143      84.8235     153.3628      55.2952     153.4581       0.2112       0.2422       2.2525       1.0000       0.0010
   3011.0664   2803.7043  -2781.7043      83.6358     151.2238      56.9900     106.2511       0.2098       0.2333       2.2671       1.0000       0.0010
   3011.1914   2803.7944  -2781.7944      82.3904     147.0434      57.9795      59.2494       0.2038       0.2184       2.2916       1.0000       0.0010
   3011.3164   2803.8848  -2781.8848      81.1174     140.9276      58.0180      24.5782       0.1939       0.1988       2.3237       1.0000       0.0010
   3011.4414   2803.9749  -2781.9749      79.8787     133.6172      57.1020       8.9437       0.1819       0.1784       2.3572       1.0000       0.0010
   3011.5664   2804.0649  -2782.0649      78.8022     126.5879      55.5373       4.7637       0.1705       0.1644       2.3802       1.0000       0.0010
