#------------------------------------------------------------------------------
#
#   Created by  : [OpenWorks] Log Export Utility (LEXP)
#   Created on  : 2007-05-07 11:57:46
#   Project     : NORNE
#   User        : JSE
#   Interpreter : JSE
#
#------------------------------------------------------------------------------
~VERSION INFORMATION
VERS. 2.0 : CWLS Log ASCII Standard - version 2.0
WRAP.  NO : One line per depth step
~WELL INFORMATION
#MNEMONIC   .UNIT                                           VALUE :DESCRIPTION
#------------------------------------------------------------------------------
STRT        .M                                          1250.1914 :START DEPTH
STOP        .M                                          3136.8164 :STOP DEPTH
STEP        .M                                             0.1250 :STEP
NULL        .                                           -999.2500 :NULL VALUE
COMP        .                                             STATOIL :COMPANY
WELL        .                                       6608/10-D-4 H :WELL
FLD         .                                               NORNE :FIELD
LOC         .                                             UNKNOWN :LOCATION
CNTY        .                                             UNKNOWN :COUNTY
STAT        .                                             UNKNOWN :STATE
CTRY        .                                              Norway :COUNTRY
SRVC        .                                             UNKNOWN :SERVICE COMPANY
DATE        .                                             UNKNOWN :LOG DATE
UWI         .                                    NO 6608/10-D-4 H :UNIQUE WELL ID
XCOORD      .                                       457259.082734 :SURFACE X
YCOORD      .                                      7321952.911776 :SURFACE Y
LAT         .                                           66.013783 :LATITUDE
LON         .                                            8.057803 :LONGITUDE
ELEV        .M                                            22.0000 :SURFACE ELEV
ELEV_TYPE   .                                                  KB :ELEV TYPE
~CURVE INFORMATION
#MNEMONIC.UNIT        API CODE       : CURVE DESCRIPTION
#------------------------------------------------------------------------------
DEPTH    .M                          : Measured Depth
TVD      .M                          : True Vertical Depth (TVD)
TVDSS    .M                          : True Vertical Depth (TVDSS)
DT       .us/ft                      : DT:UNKNOWN:rC:NONE:v1 
DTS      .us/ft                      : DTS:UNKNOWN:rC:NONE:v1 
GR       .API                        : GR:UNKNOWN:rC:NONE:v1 
KLOGH    .mD          UNKNOWN        : KLOGH:UNKNOWN:rC::v0 (auto-composite)
NPHI     .v/v_decimal                : NPHI:UNKNOWN:rC:NONE:v1 
PHIF     .v/v_decimal UNKNOWN        : PHIF:UNKNOWN:rC::v0 (auto-composite)
RHOB     .g/cm3                      : RHOB:UNKNOWN:rC:NONE:v1 
SW       .v/v_decimal UNKNOWN        : SW:UNKNOWN:rC::v0 (auto-composite)
VSH      .v/v_decimal UNKNOWN        : VSH:UNKNOWN:rC::v0 (auto-composite)
~A     DEPTH         TVD       TVDSS           DT          DTS           GR        KLOGH         NPHI         PHIF         RHOB           SW          VSH
# ...
   2849.1914   2685.0747  -2663.0747      99.1707     171.8451      68.6741     522.0584       0.2391       0.2827       2.1870       0.2005       0.1158
   2849.3164   2685.1685  -2663.1685      99.1810     171.9474      70.3235     518.9682       0.2430       0.2825       2.1863       0.1999       0.1363
   2849.4414   2685.2622  -2663.2622      99.1286     172.0322      71.5108     461.7107       0.2495       0.2806       2.1874       0.2008       0.1510
   2849.5664   2685.3560  -2663.3560      98.9776     172.0806      71.5026     420.1556       0.2556       0.2789       2.1898       0.2031       0.1509
   2849.6914   2685.4497  -2663.4497      98.6870     172.0466      70.4920     497.3939       0.2565       0.2818       2.1877       0.2052       0.1383
   2849.8164   2685.5435  -2663.5435      98.2931     171.9191      69.0173     666.6157       0.2527       0.2866       2.1806       0.2068       0.1200
   2849.9414   2685.6372  -2663.6372      97.8300     171.7057      67.2989     813.1954       0.2462       0.2903       2.1740       0.2100       0.0987
   2850.0664   2685.7310  -2663.7310      97.3414     171.4336      65.6819     832.9760       0.2397       0.2907       2.1721       0.2155       0.0787
   2850.1914   2685.8250  -2663.8250      96.8763     171.1476      64.6470     670.9195       0.2363       0.2870       2.1764       0.2227       0.0659
   2850.3164   2685.9187  -2663.9187      96.5021     170.9121      64.8751     550.2108       0.2367       0.2836       2.1846       0.2290       0.0687
   2850.4414   2686.0125  -2664.0125      96.2593     170.7457      66.1803     466.9898       0.2372       0.2807       2.1901       0.2314       0.0849
   2850.5664   2686.1062  -2664.1062      96.1710     170.6391      67.7387     422.7871       0.2366       0.2790       2.1930       0.2312       0.1042
   2850.6914   2686.2000  -2664.2000      96.2450     170.5849      68.6640     388.7953       0.2353       0.2775       2.1946       0.2299       0.1157
   2850.8164   2686.2937  -2664.2937      96.4680     170.5766      68.3487     337.3521       0.2346       0.2751       2.1963       0.2284       0.1117
   2850.9414   2686.3875  -2664.3875      96.7978     170.6144      66.9472     272.0569       0.2363       0.2714       2.1979       0.2270       0.0943
   2851.0664   2686.4812  -2664.4812      97.1363     170.6906      66.2407     264.8666       0.2394       0.2710       2.1996       0.2304       0.0856
   2851.1914   2686.5750  -2664.5750      97.4318     170.7781      66.8799     270.9402       0.2405       0.2714       2.1976       0.2311       0.0936
   2851.3164   2686.6687  -2664.6687      97.6927     170.8674      68.3078     276.3703       0.2386       0.2717       2.1934       0.2293       0.1113
   2851.4414   2686.7625  -2664.7625      97.9419     170.9587      69.7669     291.3160       0.2350       0.2726       2.1902       0.2284       0.1294
   2851.5664   2686.8562  -2664.8562      98.2102     171.0606      70.4792     329.3982       0.2331       0.2747       2.1916       0.2321       0.1382
   2851.6914   2686.9502  -2664.9502      98.5244     171.1927      69.8827     266.5742       0.2381       0.2710       2.1990       0.2296       0.1308
   2851.8164   2687.0439  -2665.0439      98.8509     171.3486      68.3669     254.5717       0.2466       0.2703       2.2049       0.2297       0.1120
   2851.9414   2687.1377  -2665.1377      99.1603     171.5059      66.4922     257.6503       0.2517       0.2705       2.2059       0.2278       0.0888
   2852.0664   2687.2314  -2665.2314      99.4427     171.6559      64.7619     273.4960       0.2510       0.2715       2.2022       0.2246       0.0673
   2852.1914   2687.3252  -2665.3252      99.6933     171.8015      63.6218     305.4731       0.2451       0.2734       2.1965       0.2221       0.0532
   2852.3164   2687.4189  -2665.4189      99.9100     171.9640      63.3810     353.4662       0.2373       0.2760       2.1940       0.2233       0.0502
   2852.4414   2687.5127  -2665.5127     100.0344     172.1732      63.9440     325.3616       0.2349       0.2745       2.1997       0.2289       0.0571
   2852.5664   2687.6064  -2665.6064     100.0640     172.4093      64.5396     286.3163       0.2371       0.2723       2.2041       0.2326       0.0645
   2852.6914   2687.7002  -2665.7002     100.0032     172.6416      64.6624     280.5135       0.2419       0.2719       2.2047       0.2333       0.0660
   2852.8164   2687.7939  -2665.7939      99.8777     172.8589      64.2914     301.9588       0.2479       0.2732       2.2006       0.2317       0.0614
   2852.9414   2687.8877  -2665.8877      99.7250     173.0670      63.8251     320.6386       0.2553       0.2743       2.1933       0.2306       0.0556
   2853.0664   2687.9814  -2665.9814      99.5855     173.3001      64.1606     367.1084       0.2653       0.2766       2.1867       0.2385       0.0598
   2853.1914   2688.0752  -2666.0752      99.4579     173.5546      65.4247     400.8174       0.2748       0.2781       2.1838       0.2438       0.0755
   2853.3164   2688.1692  -2666.1692      99.3228     173.7852      66.9139     419.4978       0.2773       0.2789       2.1846       0.2447       0.0940
   2853.4414   2688.2629  -2666.2629      99.1819     173.9666      68.2369     448.3267       0.2712       0.2800       2.1871       0.2451       0.1104
   2853.5664   2688.3567  -2666.3567      99.0431     174.1002      69.1366     471.4669       0.2586       0.2809       2.1899       0.2465       0.1215
   2853.6914   2688.4504  -2666.4504      98.9190     174.2210      69.5210     407.7317       0.2447       0.2784       2.1940       0.2460       0.1263
   2853.8164   2688.5442  -2666.5442      98.7770     174.3837      69.2537     363.2122       0.2375       0.2764       2.1973       0.2456       0.1230
   2853.9414   2688.6379  -2666.6379      98.5720     174.5352      68.7423     323.8470       0.2356       0.2744       2.2006       0.2477       0.1166
   2854.0664   2688.7317  -2666.7317      98.2873     174.6239      68.0762     279.9978       0.2372       0.2718       2.2048       0.2529       0.1084
   2854.1914   2688.8254  -2666.8254      97.9361     174.6262      67.3145     237.2301       0.2417       0.2690       2.2095       0.2602       0.0989
   2854.3164   2688.9192  -2666.9192      97.5529     174.5509      66.5397     207.8730       0.2486       0.2667       2.2131       0.2675       0.0893
   2854.4414   2689.0129  -2667.0129      97.1960     174.4615      66.0105     201.9379       0.2557       0.2662       2.2139       0.2716       0.0828
   2854.5664   2689.1067  -2667.1067      96.9206     174.4247      66.0118     201.4344       0.2589       0.2662       2.2140       0.2742       0.0828
   2854.6914   2689.2004  -2667.2004      96.7169     174.4196      66.2957     197.4446       0.2571       0.2659       2.2146       0.2778       0.0863
   2854.8164   2689.2944  -2667.2944      96.5804     174.4124      66.5582     197.1755       0.2525       0.2658       2.2146       0.2827       0.0895
   2854.9414   2689.3882  -2667.3882      96.5102     174.3799      66.5752     204.5298       0.2479       0.2665       2.2136       0.2883       0.0897
   2855.0664   2689.4819  -2667.4819      96.5109     174.3171      66.2822     216.6293       0.2458       0.2674       2.2119       0.2940       0.0861
   2855.1914   2689.5757  -2667.5757      96.6117     174.2434      66.1068     229.5739       0.2457       0.2685       2.2103       0.2982       0.0840
   2855.3164   2689.6694  -2667.6694      96.7965     174.1756      66.8848     231.8948       0.2439       0.2687       2.2100       0.3022       0.0936
   2855.4414   2689.7632  -2667.7632      97.0423     174.1126      68.6069     235.9808       0.2403       0.2690       2.2095       0.3056       0.1149
   2855.5664   2689.8569  -2667.8569      97.3189     174.0369      70.6735     245.6825       0.2368       0.2697       2.2084       0.3086       0.1406
