#------------------------------------------------------------------------------
#
#   Created by  : [OpenWorks] Log Export Utility (LEXP)
#   Created on  : 2007-05-07 11:57:08
#   Project     : NORNE
#   User        : JSE
#   Interpreter : JSE
#
#------------------------------------------------------------------------------
~VERSION INFORMATION
VERS. 2.0 : CWLS Log ASCII Standard - version 2.0
WRAP.  NO : One line per depth step
~WELL INFORMATION
#MNEMONIC   .UNIT                                           VALUE :DESCRIPTION
#------------------------------------------------------------------------------
STRT        .M                                          1375.3750 :START DEPTH
STOP        .M                                          3298.0000 :STOP DEPTH
STEP        .M                                             0.1250 :STEP
NULL        .                                           -999.2500 :NULL VALUE
COMP        .                                             STATOIL :COMPANY
WELL        .                                       6608/10-C-1 H :WELL
FLD         .                                               NORNE :FIELD
LOC         .                                             UNKNOWN :LOCATION
CNTY        .                                             UNKNOWN :COUNTY
STAT        .                                             UNKNOWN :STATE
CTRY        .                                              Norway :COUNTRY
SRVC        .                                             UNKNOWN :SERVICE COMPANY
DATE        .                                             UNKNOWN :LOG DATE
UWI         .                                    NO 6608/10-C-1 H :UNIQUE WELL ID
XCOORD      .                                       457190.110178 :SURFACE X
YCOORD      .                                      7322024.307354 :SURFACE Y
LAT         .                                           66.014414 :LATITUDE
LON         .                                            8.056259 :LONGITUDE
ELEV        .M                                            22.0000 :SURFACE ELEV
ELEV_TYPE   .                                                  KB :ELEV TYPE
~CURVE INFORMATION
#MNEMONIC.UNIT        API CODE       : CURVE DESCRIPTION
#------------------------------------------------------------------------------
DEPTH    .M                          : Measured Depth
TVD      .M                          : True Vertical Depth (TVD)
TVDSS    .M                          : True Vertical Depth (TVDSS)
DT       .us/ft                      : DT:UNKNOWN:rC:NONE:v1 
DTS      .us/ft                      : DTS:UNKNOWN:rC:NONE:v1 
GR       .API         UNKNOWN        : GR:GR:rC:NONE:v1 
KLOGH    .mD          UNKNOWN        : KLOGH:UNKNOWN:rC::v0 (auto-composite)
NPHI     .v/v_decimal                : NPHI:UNKNOWN:rC:NONE:v1 
PHIF     .v/v_decimal UNKNOWN        : PHIF:UNKNOWN:rC::v0 (auto-composite)
RHOB     .g/cm3       UNKNOWN        : RHOB:UNKNOWN:rC:NONE:v1 
SW       .v/v_decimal UNKNOWN        : SW:UNKNOWN:rC::v0 (auto-composite)
VSH      .v/v_decimal UNKNOWN        : VSH:UNKNOWN:rC::v0 (auto-composite)
~A     DEPTH         TVD       TVDSS           DT          DTS           GR        KLOGH         NPHI         PHIF         RHOB           SW          VSH
# ...
   3026.3750   2701.8040  -2679.8040      92.2284     170.7048      78.6832     147.9360       0.2290       0.2609       2.2226       0.4311       0.0163
   3026.5000   2701.9260  -2679.9260      92.1448     170.6163      78.4879     215.3970       0.2205       0.2674       2.2120       0.4209       0.0132
   3026.6250   2702.0479  -2680.0479      92.1065     170.6303      78.3100     367.0493       0.2254       0.2766       2.1969       0.4110       0.0103
   3026.7500   2702.1699  -2680.1699      92.1265     170.7762      78.3774     553.0422       0.2393       0.2837       2.1852       0.4062       0.0114
   3026.8750   2702.2920  -2680.2920      92.2096     171.0838      78.6316     683.1807       0.2543       0.2874       2.1792       0.4059       0.0155
   3027.0000   2702.4141  -2680.4141      92.3526     171.5724      78.8804     698.1762       0.2635       0.2878       2.1786       0.4085       0.0195
   3027.1250   2702.5361  -2680.5361      92.5443     172.2489      78.8380     641.2872       0.2630       0.2863       2.1810       0.4115       0.0188
   3027.2500   2702.6582  -2680.6582      92.7778     173.1435      78.2924     622.9951       0.2583       0.2858       2.1818       0.4120       0.0100
   3027.3750   2702.7803  -2680.7803      93.0302     174.1443      77.6470     713.1516       0.2584       0.2881       2.1780       0.4095       0.0010
   3027.5000   2702.9023  -2680.9023      93.2787     175.1166      77.2040     892.8176       0.2628       0.2920       2.1716       0.4061       0.0010
   3027.6250   2703.0244  -2681.0244      93.5023     175.9436      77.1920    1073.9120       0.2687       0.2952       2.1664       0.4047       0.0010
   3027.7500   2703.1462  -2681.1462      93.6823     176.5392      77.7723    1088.4010       0.2722       0.2954       2.1660       0.4076       0.0017
   3027.8750   2703.2683  -2681.2683      93.8011     176.8644      79.0638     863.6826       0.2698       0.2914       2.1726       0.4159       0.0224
   3028.0000   2703.3904  -2681.3904      93.8519     176.9435      80.5273     615.1951       0.2599       0.2856       2.1822       0.4270       0.0459
   3028.1250   2703.5125  -2681.5125      93.8627     176.7985      81.1797     453.2370       0.2481       0.2803       2.1909       0.4384       0.0564
   3028.2500   2703.6345  -2681.6345      93.8492     176.4097      80.6905     375.2851       0.2378       0.2770       2.1962       0.4477       0.0485
   3028.3750   2703.7566  -2681.7566      93.8234     175.7942      79.2407     346.8651       0.2307       0.2756       2.1985       0.4541       0.0253
   3028.5000   2703.8787  -2681.8787      93.7919     175.0169      77.4996     327.9147       0.2267       0.2747       2.2000       0.4585       0.0010
   3028.6250   2704.0007  -2682.0007      93.7541     174.2554      76.7083     318.5616       0.2260       0.2742       2.2009       0.4588       0.0010
   3028.7500   2704.1226  -2682.1226      93.7191     173.6714      77.0131     324.8412       0.2302       0.2745       2.2003       0.4554       0.0010
   3028.8750   2704.2446  -2682.2446      93.7009     173.2618      77.7922     352.7905       0.2380       0.2759       2.1980       0.4501       0.0020
   3029.0000   2704.3667  -2682.3667      93.7088     172.9924      78.5078     400.6165       0.2467       0.2781       2.1944       0.4449       0.0135
   3029.1250   2704.4888  -2682.4888      93.7468     172.8169      78.7817     460.4745       0.2533       0.2805       2.1904       0.4416       0.0179
   3029.2500   2704.6108  -2682.6108      93.8115     172.7005      78.5818     516.8836       0.2552       0.2825       2.1871       0.4412       0.0147
   3029.3750   2704.7329  -2682.7329      93.8731     172.6116      78.5551     548.8435       0.2500       0.2836       2.1854       0.4432       0.0143
   3029.5000   2704.8550  -2682.8550      93.9201     172.4940      78.8563     533.6597       0.2408       0.2831       2.1862       0.4470       0.0191
   3029.6250   2704.9771  -2682.9771      93.9421     172.3329      79.2085     481.3350       0.2300       0.2813       2.1891       0.4525       0.0247
   3029.7500   2705.0991  -2683.0991      93.9180     172.1189      79.2430     435.2589       0.2201       0.2796       2.1920       0.4582       0.0253
   3029.8750   2705.2209  -2683.2209      93.8181     171.8444      78.6008     440.6028       0.2136       0.2798       2.1917       0.4618       0.0150
   3030.0000   2705.3430  -2683.3430      93.5933     171.4801      77.1319     509.0824       0.2136       0.2823       2.1876       0.4632       0.0010
   3030.1250   2705.4651  -2683.4651      93.2712     171.0519      75.7512     618.3746       0.2190       0.2857       2.1820       0.4630       0.0010
   3030.2500   2705.5872  -2683.5872      92.9308     170.6541      75.0452     639.8701       0.2251       0.2862       2.1811       0.4653       0.0010
   3030.3750   2705.7092  -2683.7092      92.6309     170.3910      75.0645     508.0672       0.2282       0.2822       2.1876       0.4721       0.0010
   3030.5000   2705.8313  -2683.8313      92.4186     170.3657      75.5958     306.7718       0.2263       0.2735       2.2019       0.4843       0.0010
   3030.6250   2705.9534  -2683.9534      92.3240     170.6770      76.2290     157.8032       0.2199       0.2620       2.2210       0.5008       0.0010
   3030.7500   2706.0752  -2684.0752      92.3629     171.3590      76.6182      88.4395       0.2138       0.2520       2.2372       0.5170       0.0010
   3030.8750   2706.1970  -2684.1970      92.4774     172.1980      76.8757      69.2591       0.2126       0.2477       2.2442       0.5258       0.0010
   3031.0000   2706.3191  -2684.3191      92.6601     173.0944      76.9884      74.8865       0.2160       0.2491       2.2419       0.5270       0.0010
   3031.1250   2706.4409  -2684.4409      92.8891     173.9625      76.9162     104.8574       0.2231       0.2549       2.2324       0.5225       0.0010
   3031.2500   2706.5630  -2684.5630      93.1339     174.7297      76.6566     169.7224       0.2320       0.2633       2.2187       0.5162       0.0010
   3031.3750   2706.6848  -2684.6848      93.3570     175.3106      76.5098     254.3559       0.2405       0.2703       2.2072       0.5136       0.0010
   3031.5000   2706.8069  -2684.8069      93.5180     175.6586      76.9620     279.6978       0.2476       0.2719       2.2045       0.5196       0.0010
   3031.6250   2706.9287  -2684.9287      93.5990     175.8111      77.7865     248.7122       0.2532       0.2699       2.2079       0.5298       0.0019
   3031.7500   2707.0508  -2685.0508      93.5867     175.7859      78.6794     192.7596       0.2565       0.2655       2.2151       0.5417       0.0162
   3031.8750   2707.1726  -2685.1726      93.4803     175.6091      79.3801     147.0945       0.2568       0.2608       2.2228       0.5517       0.0275
   3032.0000   2707.2947  -2685.2947      93.2970     175.3200      79.7510     131.2112       0.2535       0.2588       2.2260       0.5547       0.0335
   3032.1250   2707.4165  -2685.4165      93.0578     174.9300      79.8860     127.4694       0.2461       0.2583       2.2268       0.5544       0.0356
   3032.2500   2707.5386  -2685.5386      92.8308     174.5153      79.8215     112.9387       0.2396       0.2562       2.2303       0.5580       0.0346
   3032.3750   2707.6604  -2685.6604      92.6332     174.1172      79.5168      86.9633       0.2359       0.2517       2.2377       0.5673       0.0297
   3032.5000   2707.7825  -2685.7825      92.4762     173.7604      79.0534      60.2164       0.2352       0.2453       2.2481       0.5818       0.0222
   3032.6250   2707.9043  -2685.9043      92.3637     173.4546      78.6365      41.1590       0.2362       0.2387       2.2589       0.5984       0.0156
   3032.7500   2708.0264  -2686.0264      92.2964     173.2068      78.7342      32.6617       0.2370       0.2347       2.2655       0.6114       0.0171
