#------------------------------------------------------------------------------
#
#   Created by  : [OpenWorks] Log Export Utility (LEXP)
#   Created on  : 2007-05-07 11:56:53
#   Project     : NORNE
#   User        : JSE
#   Interpreter : JSE
#
#------------------------------------------------------------------------------
~VERSION INFORMATION
VERS. 2.0 : CWLS Log ASCII Standard - version 2.0
WRAP.  NO : One line per depth step
~WELL INFORMATION
#MNEMONIC   .UNIT                                           VALUE :DESCRIPTION
#------------------------------------------------------------------------------
STRT        .M                                           450.6626 :START DEPTH
STOP        .M                                          3861.9126 :STOP DEPTH
STEP        .M                                             0.1250 :STEP
NULL        .                                           -999.2500 :NULL VALUE
COMP        .                                             STATOIL :COMPANY
WELL        .                                       6608/10-B-2 H :WELL
FLD         .                                               NORNE :FIELD
LOC         .                                             UNKNOWN :LOCATION
CNTY        .                                             UNKNOWN :COUNTY
STAT        .                                             UNKNOWN :STATE
CTRY        .                                              Norway :COUNTRY
SRVC        .                                             UNKNOWN :SERVICE COMPANY
DATE        .                                             UNKNOWN :LOG DATE
UWI         .                                    NO 6608/10-B-2 H :UNIQUE WELL ID
XCOORD      .                                       457121.854690 :SURFACE X
YCOORD      .                                      7322122.976330 :SURFACE Y
LAT         .                                           66.015290 :LATITUDE
LON         .                                            8.054722 :LONGITUDE
ELEV        .M                                            25.0000 :SURFACE ELEV
ELEV_TYPE   .                                                  KB :ELEV TYPE
~CURVE INFORMATION
#MNEMONIC.UNIT        API CODE       : CURVE DESCRIPTION
#------------------------------------------------------------------------------
DEPTH    .M                          : Measured Depth
TVD      .M                          : True Vertical Depth (TVD)
TVDSS    .M                          : True Vertical Depth (TVDSS)
DT       .us/ft                      : DT:UNKNOWN:rC:NONE:v1 
GR       .API                        : GR:UNKNOWN:rC:NONE:v1 
KLOGH    .mD                         : KLOGH:UNKNOWN:rC:NONE:v1 
NPHI     .v/v_decimal                : NPHI:UNKNOWN:rC:NONE:v1 
PHIF     .v/v_decimal                : PHIF:UNKNOWN:rC:NONE:v1 
RHOB     .g/cm3                      : RHOB:UNKNOWN:rC:NONE:v1 
SW       .v/v_decimal                : SW:UNKNOWN:rC:NONE:v1 
VSH      .v/v_decimal                : VSH:UNKNOWN:rC:NONE:v1 
~A     DEPTH         TVD       TVDSS           DT           GR        KLOGH         NPHI         PHIF         RHOB           SW          VSH
# ...
   2702.1626   2564.4668  -2539.4668      93.4504      48.9975    -999.2500       0.6179    -999.2500    -999.2500    -999.2500    -999.2500
   2702.2876   2564.5264  -2539.5264      89.2219      51.0855    -999.2500       0.6304    -999.2500    -999.2500    -999.2500    -999.2500
   2702.4126   2564.5857  -2539.5857      86.4217      53.8962    -999.2500       0.6213    -999.2500    -999.2500    -999.2500    -999.2500
   2702.5376   2564.6450  -2539.6450      87.0431      52.4527    -999.2500       0.6085    -999.2500    -999.2500    -999.2500    -999.2500
   2702.6626   2564.7046  -2539.7046      89.6000      47.9100    -999.2500       0.5034    -999.2500    -999.2500    -999.2500    -999.2500
   2702.7876   2564.7639  -2539.7639      91.3151      51.5402    -999.2500       0.5875    -999.2500    -999.2500    -999.2500    -999.2500
   2702.9126   2564.8232  -2539.8232      94.9352      58.9751    -999.2500       0.6257    -999.2500    -999.2500    -999.2500    -999.2500
   2703.0376   2564.8828  -2539.8828      96.7111      59.6760    -999.2500       0.6377    -999.2500    -999.2500    -999.2500    -999.2500
   2703.1626   2564.9421  -2539.9421      95.4362      57.1648    -999.2500       0.6374    -999.2500    -999.2500    -999.2500    -999.2500
   2703.2876   2565.0015  -2540.0015      92.1458      58.7482    -999.2500       0.6357    -999.2500       3.0890    -999.2500    -999.2500
   2703.4126   2565.0610  -2540.0610      91.2219      54.9903    -999.2500       0.6464    -999.2500       3.0816    -999.2500    -999.2500
   2703.5376   2565.1204  -2540.1204      89.9876      57.4815    -999.2500       0.6603    -999.2500       3.0773    -999.2500    -999.2500
   2703.6626   2565.1799  -2540.1799      89.5327      54.8516    -999.2500       0.5988    -999.2500       3.0709    -999.2500    -999.2500
   2703.7876   2565.2393  -2540.2393      91.8027      52.9948    -999.2500       0.5868    -999.2500       3.0651    -999.2500    -999.2500
   2703.9126   2565.2986  -2540.2986      95.9852      52.5725    -999.2500       0.6354    -999.2500       3.0599    -999.2500    -999.2500
   2704.0376   2565.3582  -2540.3582      97.9197      45.8582    -999.2500       0.5912    -999.2500       3.0517    -999.2500    -999.2500
   2704.1626   2565.4175  -2540.4175      96.8986      48.0818    -999.2500       0.5998    -999.2500       3.0444    -999.2500    -999.2500
   2704.2876   2565.4768  -2540.4768      96.5920      47.7878    -999.2500       0.6261    -999.2500       3.0397    -999.2500    -999.2500
   2704.4126   2565.5364  -2540.5364      97.4037      53.6426    -999.2500       0.6598    -999.2500       3.0336    -999.2500    -999.2500
   2704.5376   2565.5957  -2540.5957      98.7143      58.3113    -999.2500       0.6724    -999.2500       3.0275    -999.2500    -999.2500
   2704.6626   2565.6550  -2540.6550     100.3686      54.7705    -999.2500       0.6528    -999.2500       3.0228    -999.2500    -999.2500
   2704.7876   2565.7146  -2540.7146     105.1337      58.0608    -999.2500       0.6682    -999.2500       3.0154    -999.2500    -999.2500
   2704.9126   2565.7739  -2540.7739     108.2543      52.7485    -999.2500       0.6248    -999.2500       3.0112    -999.2500    -999.2500
   2705.0376   2565.8335  -2540.8335     111.0206      54.2686    -999.2500       0.5806    -999.2500       3.0047    -999.2500    -999.2500
   2705.1626   2565.8928  -2540.8928     110.3864      54.0354    -999.2500       0.5617    -999.2500       2.9989    -999.2500    -999.2500
   2705.2876   2565.9521  -2540.9521     106.9402      52.2808    -999.2500       0.5552    -999.2500       2.9939    -999.2500    -999.2500
   2705.4126   2566.0117  -2541.0117     104.9618      57.6469    -999.2500       0.5201    -999.2500       2.9867    -999.2500    -999.2500
   2705.5376   2566.0710  -2541.0710     106.1288      51.1977    -999.2500       0.5103    -999.2500       2.9826    -999.2500    -999.2500
   2705.6626   2566.1304  -2541.1304     107.6628      57.1296    -999.2500       0.5102    -999.2500       2.9758    -999.2500    -999.2500
   2705.7876   2566.1899  -2541.1899     109.0846      60.5623    -999.2500       0.5181    -999.2500       2.9704    -999.2500    -999.2500
   2705.9126   2566.2493  -2541.2493     109.5718      60.8501    -999.2500       0.5401    -999.2500       2.9650    -999.2500    -999.2500
   2706.0376   2566.3086  -2541.3086     108.0034      60.3637    -999.2500       0.5783    -999.2500       2.9582    -999.2500    -999.2500
   2706.1626   2566.3682  -2541.3682     102.7522      58.0663    -999.2500       0.6200    -999.2500       2.9541    -999.2500    -999.2500
   2706.2876   2566.4275  -2541.4275     100.0393      53.8558    -999.2500       0.5575    -999.2500       2.9469    -999.2500    -999.2500
   2706.4126   2566.4871  -2541.4871      96.7632      52.6904    -999.2500       0.5516    -999.2500       2.9419    -999.2500    -999.2500
   2706.5376   2566.5464  -2541.5464      94.6752      56.1059    -999.2500       0.5803    -999.2500       2.9660    -999.2500    -999.2500
   2706.6626   2566.6057  -2541.6057      93.9537      59.9866    -999.2500       0.5995    -999.2500       3.0076    -999.2500    -999.2500
   2706.7876   2566.6653  -2541.6653      93.4150      57.4439    -999.2500       0.5666    -999.2500       3.0344    -999.2500    -999.2500
   2706.9126   2566.7246  -2541.7246      92.3453      50.9209    -999.2500       0.5095    -999.2500       3.0836    -999.2500    -999.2500
   2707.0376   2566.7839  -2541.7839      92.8840      53.1485    -999.2500       0.4952    -999.2500       2.6479    -999.2500    -999.2500
   2707.1626   2566.8435  -2541.8435      94.9581      59.0601    -999.2500       0.5431    -999.2500       2.3473    -999.2500    -999.2500
   2707.2876   2566.9028  -2541.9028      97.6037      63.0827    -999.2500       0.6130    -999.2500       2.1656    -999.2500    -999.2500
   2707.4126   2566.9624  -2541.9624      99.5866      64.1216    -999.2500       0.6527    -999.2500       2.0335    -999.2500    -999.2500
   2707.5376   2567.0217  -2542.0217      99.7333      69.6100    -999.2500       0.6187    -999.2500       2.0500    -999.2500    -999.2500
   2707.6626   2567.0811  -2542.0811     100.8916      65.9289    -999.2500       0.5627    -999.2500       2.4572    -999.2500    -999.2500
   2707.7876   2567.1406  -2542.1406     100.8171      59.1881    -999.2500       0.5324    -999.2500       2.2835    -999.2500    -999.2500
   2707.9126   2567.2000  -2542.2000      98.7612      57.4148    -999.2500       0.5516    -999.2500       2.4440    -999.2500    -999.2500
   2708.0376   2567.2593  -2542.2593      96.4843      59.6577    -999.2500       0.5921    -999.2500       2.6243    -999.2500    -999.2500
   2708.1626   2567.3188  -2542.3188      96.6633      60.7866    -999.2500       0.6109    -999.2500       2.1052    -999.2500    -999.2500
   2708.2876   2567.3782  -2542.3782      99.2889      63.7439    -999.2500       0.6473    -999.2500       2.0642    -999.2500    -999.2500
   2708.4126   2567.4375  -2542.4375      98.2471      63.8293    -999.2500       0.6687    -999.2500       2.6337    -999.2500    -999.2500
   2708.5376   2567.4971  -2542.4971      97.6789      62.8658    -999.2500       0.6246    -999.2500       2.3506    -999.2500    -999.2500
   2708.6626   2567.5564  -2542.5564      97.3992      63.0789    -999.2500       0.5835    -999.2500       1.9035    -999.2500    -999.2500
   2708.7876   2567.6160  -2542.6160      96.6812      63.0921    -999.2500       0.5873    -999.2500       1.8513    -999.2500    -999.2500
   2708.9126   2567.6753  -2542.6753      95.0172      57.0130    -999.2500       0.6085    -999.2500       2.0211    -999.2500    -999.2500
   2709.0376   2567.7346  -2542.7346      90.6482      59.9457    -999.2500       0.6159    -999.2500       2.0786    -999.2500    -999.2500
   2709.1626   2567.7942  -2542.7942      88.2203      59.2225    -999.2500       0.6049    -999.2500       2.0177    -999.2500    -999.2500
