#------------------------------------------------------------------------------
#
#   Created by  : [OpenWorks] Log Export Utility (LEXP)
#   Created on  : 2007-05-07 11:56:53
#   Project     : NORNE
#   User        : JSE
#   Interpreter : JSE
#
#------------------------------------------------------------------------------
~VERSION INFORMATION
VERS. 2.0 : CWLS Log ASCII Standard - version 2.0
WRAP.  NO : One line per depth step
~WELL INFORMATION
#MNEMONIC   .UNIT                                           VALUE :DESCRIPTION
#------------------------------------------------------------------------------
STRT        .M                                           450.6626 :START DEPTH
STOP        .M                                          3861.9126 :STOP DEPTH
STEP        .M                                             0.1250 :STEP
NULL        .                                           -999.2500 :NULL VALUE
COMP        .                                             STATOIL :COMPANY
WELL        .                                       6608/10-B-2 H :WELL
FLD         .                                               NORNE :FIELD
LOC         .                                             UNKNOWN :LOCATION
CNTY        .                                             UNKNOWN :COUNTY
STAT        .                                             UNKNOWN :STATE
CTRY        .                                              Norway :COUNTRY
SRVC        .                                             UNKNOWN :SERVICE COMPANY
DATE        .                                             UNKNOWN :LOG DATE
UWI         .                                    NO 6608/10-B-2 H :UNIQUE WELL ID
XCOORD      .                                       457121.854690 :SURFACE X
YCOORD      .                                      7322122.976330 :SURFACE Y
LAT         .                                           66.015290 :LATITUDE
LON         .                                            8.054722 :LONGITUDE
ELEV        .M                                            25.0000 :SURFACE ELEV
ELEV_TYPE   .                                                  KB :ELEV TYPE
~CURVE INFORMATION
#MNEMONIC.UNIT        API CODE       : CURVE DESCRIPTION
#------------------------------------------------------------------------------
DEPTH    .M                          : Measured Depth
TVD      .M                          : True Vertical Depth (TVD)
TVDSS    .M                          : True Vertical Depth (TVDSS)
DT       .us/ft                      : DT:UNKNOWN:rC:NONE:v1 
GR       .API                        : GR:UNKNOWN:rC:NONE:v1 
KLOGH    .mD                         : KLOGH:UNKNOWN:rC:NONE:v1 
NPHI     .v/v_decimal                : NPHI:UNKNOWN:rC:NONE:v1 
PHIF     .v/v_decimal                : PHIF:UNKNOWN:rC:NONE:v1 
RHOB     .g/cm3                      : RHOB:UNKNOWN:rC:NONE:v1 
SW       .v/v_decimal                : SW:UNKNOWN:rC:NONE:v1 
VSH      .v/v_decimal                : VSH:UNKNOWN:rC:NONE:v1 
~A     DEPTH         TVD       TVDSS           DT           GR        KLOGH         NPHI         PHIF         RHOB           SW          VSH
# ...
   2780.5376   2600.1321  -2575.1321     112.0000      70.6400     314.8695       0.2508       0.2770       2.1100       0.1828       0.2085
   2780.6626   2600.1860  -2575.1860     111.1282      87.9751     258.0020       0.2662       0.2729       2.1182       0.1834       0.4397
   2780.7876   2600.2400  -2575.2400     110.1396      82.5952     210.7180       0.2632       0.2688       2.1264       0.1807       0.3679
   2780.9126   2600.2939  -2575.2939     109.2815      73.3617     215.9299       0.2565       0.2693       2.1254       0.1789       0.2448
   2781.0376   2600.3479  -2575.3479     108.9980      67.5826     264.6613       0.2524       0.2734       2.1172       0.1779       0.1678
   2781.1626   2600.4016  -2575.4016     109.5459      65.0901     343.0066       0.2510       0.2783       2.1076       0.1746       0.1345
   2781.2876   2600.4556  -2575.4556     109.8376      67.6091     579.1740       0.2510       0.2889       2.0870       0.1633       0.1681
   2781.4126   2600.5095  -2575.5095     108.9473      81.0251     456.0405       0.2524       0.2841       2.0961       0.1611       0.1299
   2781.5376   2600.5635  -2575.5635     108.5228      71.2893     656.2837       0.2640       0.2904       2.0832       0.1592       0.0877
   2781.6626   2600.6174  -2575.6174     109.0522      62.5437     990.6025       0.2747       0.2997       2.0643       0.1559       0.1276
   2781.7876   2600.6711  -2575.6711     110.2222      67.8313    1369.1655       0.2765       0.3062       2.0506       0.1522       0.2282
   2781.9126   2600.7251  -2575.7251     110.9162      71.7850    2000.0000       0.2716       0.3151       2.0329       0.1519       0.2252
   2782.0376   2600.7791  -2575.7791     110.1869      61.3317    2000.0000       0.3255       0.3175       2.0280       0.1528       0.1450
   2782.1626   2600.8330  -2575.8330     108.8707      64.8890    2000.0000       0.3232       0.3338       1.9960       0.1498       0.1564
   2782.2876   2600.8870  -2575.8870     107.6684      63.3662    2000.0000       0.3115       0.3406       1.9824       0.1546       0.1137
   2782.4126   2600.9407  -2575.9407     107.1826      58.8145    1942.3488       0.2989       0.3309       2.0015       0.1600       0.0540
   2782.5376   2600.9946  -2575.9946     107.3419      60.5088    1722.8950       0.2862       0.3108       2.0424       0.1562       0.0789
   2782.6626   2601.0486  -2576.0486     105.8832      68.8288    1139.5902       0.3112       0.3026       2.0588       0.1525       0.2267
   2782.7876   2601.1025  -2576.1025     105.1012      71.3330     912.8353       0.2886       0.2982       2.0676       0.1609       0.2285
   2782.9126   2601.1565  -2576.1565     105.9231      74.3965    1263.1812       0.2721       0.3040       2.0555       0.1646       0.2915
   2783.0376   2601.2102  -2576.2102     107.2379      76.9732    1139.9045       0.2767       0.3002       2.0631       0.1666       0.3268
   2783.1626   2601.2642  -2576.2642     108.7966      77.4535     493.4804       0.2942       0.2859       2.0922       0.1727       0.2994
   2783.2876   2601.3181  -2576.3181     111.3556      75.8617     397.5647       0.2983       0.2816       2.1008       0.1870       0.2782
   2783.4126   2601.3721  -2576.3721     112.6684      94.2083     267.1894       0.2914       0.2734       2.1172       0.1786       0.5228
   2783.5376   2601.4260  -2576.4260     112.8889      84.3735     661.4857       0.2976       0.2891       2.0859       0.1640       0.3916
   2783.6626   2601.4797  -2576.4797     112.2627      79.1688     900.1197       0.2959       0.2980       2.0685       0.1580       0.3223
   2783.7876   2601.5337  -2576.5337     111.0698      83.9188     976.8097       0.2995       0.2996       2.0654       0.1651       0.3858
   2783.9126   2601.5876  -2576.5876     109.8413      91.5212    1051.6007       0.3226       0.3011       2.0617       0.1772       0.4869
   2784.0376   2601.6416  -2576.6416     109.6955      87.3283    1095.4668       0.3526       0.3020       2.0601       0.1621       0.4310
   2784.1626   2601.6956  -2576.6956     110.2462      86.8109     524.0582       0.2555       0.2848       2.0953       0.1685       0.4241
   2784.2876   2601.7493  -2576.7493     110.0778      87.0432     266.1417       0.2540       0.2727       2.1189       0.1750       0.4272
   2784.4126   2601.8032  -2576.8032     107.8315      88.7920     144.0886       0.2480       0.2587       2.1470       0.1870       0.4506
   2784.5376   2601.8572  -2576.8572     104.3305      90.1322      60.0552       0.2219       0.2433       2.1784       0.2023       0.4647
   2784.6626   2601.9111  -2576.9111     102.1470      88.0664      36.9982       0.2351       0.2336       2.1979       0.2131       0.4264
   2784.7876   2601.9651  -2576.9651     103.4598      91.3485      15.8549       0.2147       0.2155       2.2348       0.2307       0.4829
   2784.9126   2602.0188  -2577.0188     105.6501      83.6658      17.3428       0.1999       0.2186       2.2287       0.2258       0.4390
   2785.0376   2602.0728  -2577.0728     106.3023      75.9199      31.5420       0.3196       0.2294       2.2072       0.2206       0.3172
   2785.1626   2602.1267  -2577.1267     105.4595      77.8164      49.9377       0.3933       0.2398       2.1865       0.2148       0.3337
   2785.2876   2602.1807  -2577.1807     103.9430      89.1988      66.0115       0.3139       0.2457       2.1745       0.2081       0.5273
   2785.4126   2602.2346  -2577.2346     102.7761      90.6839      77.5666       0.2902       0.2489       2.1671       0.2131       0.4770
   2785.5376   2602.2883  -2577.2883      99.7461      88.5980      69.0467       0.3020       0.2466       2.1718       0.2117       0.4426
   2785.6626   2602.3423  -2577.3423      97.6855      86.5010      46.9144       0.3317       0.2379       2.1893       0.2154       0.4175
   2785.7876   2602.3962  -2577.3962      94.1113      84.6412      29.3233       0.3601       0.2290       2.2070       0.2244       0.3904
   2785.9126   2602.4502  -2577.4502      90.0046      85.4121      18.7931       0.3640       0.2192       2.2268       0.2351       0.3976
   2786.0376   2602.5042  -2577.5042      88.1624      90.0092       8.7966       0.3330       0.2052       2.2556       0.2442       0.4770
   2786.1626   2602.5579  -2577.5579      88.0165      83.8390       6.0989       0.3389       0.1978       2.2712       0.2616       0.4920
   2786.2876   2602.6118  -2577.6118      89.0347      88.7859       3.2102       0.3298       0.1832       2.2999       0.2736       0.4828
   2786.4126   2602.6658  -2577.6658      91.8866      86.8124       4.3481       0.3600       0.1889       2.2881       0.2619       0.4242
   2786.5376   2602.7197  -2577.7197      94.9915      83.8484       6.0900       0.3582       0.1980       2.2700       0.2469       0.3846
   2786.6626   2602.7737  -2577.7737      97.7629      84.5831       7.7539       0.3093       0.2014       2.2632       0.2408       0.3944
   2786.7876   2602.8276  -2577.8276     101.8074      84.6400      14.9638       0.3211       0.2160       2.2340       0.2316       0.3952
   2786.9126   2602.8813  -2577.8813     102.6421      88.0784      33.0284       0.3190       0.2309       2.2042       0.2090       0.4410
   2787.0376   2602.9353  -2577.9353     102.3156      90.5979     149.7732       0.3177       0.2567       2.1513       0.1951       0.4746
   2787.1626   2602.9893  -2577.9893     101.7948      84.4719     355.1361       0.3230       0.2774       2.1092       0.1847       0.3930
   2787.2876   2603.0432  -2578.0432     101.5111      76.8111     946.0947       0.3259       0.3112       2.0410       0.1657       0.2908
   2787.4126   2603.0972  -2578.0972     101.4142      77.3367    2000.0000       0.3201       0.3699       1.9222       0.1343       0.2978
   2787.5376   2603.1509  -2578.1509     100.6849      73.4721    2000.0000       0.3441       0.3617       1.9386       0.1351       0.2463
