#------------------------------------------------------------------------------
#
#   Created by  : [OpenWorks] Log Export Utility (LEXP)
#   Created on  : 2007-05-07 11:57:08
#   Project     : NORNE
#   User        : JSE
#   Interpreter : JSE
#
#------------------------------------------------------------------------------
~VERSION INFORMATION
VERS. 2.0 : CWLS Log ASCII Standard - version 2.0
WRAP.  NO : One line per depth step
~WELL INFORMATION
#MNEMONIC   .UNIT                                           VALUE :DESCRIPTION
#------------------------------------------------------------------------------
STRT        .M                                          1375.3750 :START DEPTH
STOP        .M                                          3298.0000 :STOP DEPTH
STEP        .M                                             0.1250 :STEP
NULL        .                                           -999.2500 :NULL VALUE
COMP        .                                             STATOIL :COMPANY
WELL        .                                       6608/10-C-1 H :WELL
FLD         .                                               NORNE :FIELD
LOC         .                                             UNKNOWN :LOCATION
CNTY        .                                             UNKNOWN :COUNTY
STAT        .                                             UNKNOWN :STATE
CTRY        .                                              Norway :COUNTRY
SRVC        .                                             UNKNOWN :SERVICE COMPANY
DATE        .                                             UNKNOWN :LOG DATE
UWI         .                                    NO 6608/10-C-1 H :UNIQUE WELL ID
XCOORD      .                                       457190.110178 :SURFACE X
YCOORD      .                                      7322024.307354 :SURFACE Y
LAT         .                                           66.014414 :LATITUDE
LON         .                                            8.056259 :LONGITUDE
ELEV        .M                                            22.0000 :SURFACE ELEV
ELEV_TYPE   .                                                  KB :ELEV TYPE
~CURVE INFORMATION
#MNEMONIC.UNIT        API CODE       : CURVE DESCRIPTION
#------------------------------------------------------------------------------
DEPTH    .M                          : Measured Depth
TVD      .M                          : True Vertical Depth (TVD)
TVDSS    .M                          : True Vertical Depth (TVDSS)
DT       .us/ft                      : DT:UNKNOWN:rC:NONE:v1 
DTS      .us/ft                      : DTS:UNKNOWN:rC:NONE:v1 
GR       .API         UNKNOWN        : GR:GR:rC:NONE:v1 
KLOGH    .mD          UNKNOWN        : KLOGH:UNKNOWN:rC::v0 (auto-composite)
NPHI     .v/v_decimal                : NPHI:UNKNOWN:rC:NONE:v1 
PHIF     .v/v_decimal UNKNOWN        : PHIF:UNKNOWN:rC::v0 (auto-composite)
RHOB     .g/cm3       UNKNOWN        : RHOB:UNKNOWN:rC:NONE:v1 
SW       .v/v_decimal UNKNOWN        : SW:UNKNOWN:rC::v0 (auto-composite)
VSH      .v/v_decimal UNKNOWN        : VSH:UNKNOWN:rC::v0 (auto-composite)
~A     DEPTH         TVD       TVDSS           DT          DTS           GR        KLOGH         NPHI         PHIF         RHOB           SW          VSH
# ...
   2896.3750   2574.7600  -2552.7600    -999.2500    -999.2500     124.7182    -999.2500       0.3347    -999.2500       2.3231    -999.2500    -999.2500
   2896.5000   2574.8823  -2552.8823    -999.2500    -999.2500     122.6718    -999.2500       0.3286    -999.2500       2.3436    -999.2500    -999.2500
   2896.6250   2575.0044  -2553.0044     100.4367     203.7085     120.8106    -999.2500       0.3319    -999.2500       2.3903    -999.2500    -999.2500
   2896.7500   2575.1265  -2553.1265     100.4545     203.8292     120.1571    -999.2500       0.3455    -999.2500       2.4397    -999.2500    -999.2500
   2896.8750   2575.2488  -2553.2488     100.4688     203.9316     121.0257    -999.2500       0.3664    -999.2500       2.4761    -999.2500    -999.2500
   2897.0000   2575.3708  -2553.3708     100.4790     203.9819     123.2910    -999.2500       0.3888    -999.2500       2.4892    -999.2500    -999.2500
   2897.1250   2575.4929  -2553.4929     100.4880     203.9550     126.3830    -999.2500       0.4043    -999.2500       2.4770    -999.2500    -999.2500
   2897.2500   2575.6152  -2553.6152     100.4905     203.7871     129.0862    -999.2500       0.4043    -999.2500       2.4489    -999.2500    -999.2500
   2897.3750   2575.7373  -2553.7373     100.4800     203.4250     130.0858    -999.2500       0.3912    -999.2500       2.4320    -999.2500    -999.2500
   2897.5000   2575.8594  -2553.8594     100.4637     202.8013     129.4586    -999.2500       0.3700    -999.2500       2.4279    -999.2500    -999.2500
   2897.6250   2575.9814  -2553.9814     100.4563     201.9514     127.9356    -999.2500       0.3458    -999.2500       2.4314    -999.2500    -999.2500
   2897.7500   2576.1038  -2554.1038     100.4742     201.0315     126.5853    -999.2500       0.3248    -999.2500       2.4377    -999.2500    -999.2500
   2897.8750   2576.2258  -2554.2258     100.5292     200.4924     126.4959    -999.2500       0.3208    -999.2500       2.4582    -999.2500    -999.2500
   2898.0000   2576.3479  -2554.3479     100.5939     200.8125     127.5275    -999.2500       0.3366    -999.2500       2.5094    -999.2500    -999.2500
   2898.1250   2576.4702  -2554.4702     100.6151     201.6790     128.5933    -999.2500       0.3533    -999.2500       2.5873    -999.2500    -999.2500
   2898.2500   2576.5923  -2554.5923     100.5299     202.6586     129.1010    -999.2500       0.3596    -999.2500       2.6739    -999.2500    -999.2500
   2898.3750   2576.7144  -2554.7144     100.2577     203.3182     128.8466    -999.2500       0.3492    -999.2500       2.7430    -999.2500    -999.2500
   2898.5000   2576.8364  -2554.8364      99.7062     203.3115     128.0590    -999.2500       0.3234    -999.2500       2.7642    -999.2500    -999.2500
   2898.6250   2576.9587  -2554.9587      98.7437     202.5591     127.2057    -999.2500       0.3056    -999.2500       2.7133    -999.2500    -999.2500
   2898.7500   2577.0808  -2555.0808      97.5756     201.5957     125.6503    -999.2500       0.3035    -999.2500       2.6298    -999.2500    -999.2500
   2898.8750   2577.2029  -2555.2029      96.4745     200.6304     122.8327    -999.2500       0.3144    -999.2500       2.5500    -999.2500    -999.2500
   2899.0000   2577.3252  -2555.3252      95.6637     199.7133     119.0261    -999.2500       0.3326    -999.2500       2.4902    -999.2500    -999.2500
   2899.1250   2577.4473  -2555.4473      95.2925     198.8226     115.1371    -999.2500       0.3517    -999.2500       2.4530    -999.2500    -999.2500
   2899.2500   2577.5693  -2555.5693      95.3778     197.9159     112.9693    -999.2500       0.3689    -999.2500       2.4275    -999.2500    -999.2500
   2899.3750   2577.6917  -2555.6917      95.6620     197.0270     114.3573    -999.2500       0.3906    -999.2500       2.4029    -999.2500    -999.2500
   2899.5000   2577.8137  -2555.8137      95.9581     196.1243     117.9703    -999.2500       0.4037    -999.2500       2.3818    -999.2500    -999.2500
   2899.6250   2577.9358  -2555.9358      96.2730     195.1379     122.1049    -999.2500       0.4041    -999.2500       2.3708    -999.2500    -999.2500
   2899.7500   2578.0579  -2556.0579      96.6231     194.1148     125.1795    -999.2500       0.3936    -999.2500       2.3732    -999.2500    -999.2500
   2899.8750   2578.1802  -2556.1802      97.0085     193.2458     126.0394    -999.2500       0.3794    -999.2500       2.3888    -999.2500    -999.2500
   2900.0000   2578.3022  -2556.3022      97.3038     193.1145     124.7340    -999.2500       0.3760    -999.2500       2.4184    -999.2500    -999.2500
   2900.1250   2578.4243  -2556.4243      97.2505     193.8578     123.5275    -999.2500       0.3813    -999.2500       2.4486    -999.2500    -999.2500
   2900.2500   2578.5466  -2556.5466      96.8660     195.1422     123.4220    -999.2500       0.3840    -999.2500       2.4692    -999.2500    -999.2500
   2900.3750   2578.6687  -2556.6687      96.3171     196.5545     124.4234    -999.2500       0.3785    -999.2500       2.4753    -999.2500    -999.2500
   2900.5000   2578.7908  -2556.7908      95.8188     197.6859     125.9926    -999.2500       0.3636    -999.2500       2.4659    -999.2500    -999.2500
   2900.6250   2578.9131  -2556.9131      95.5644     198.2406     127.0954    -999.2500       0.3424    -999.2500       2.4437    -999.2500    -999.2500
   2900.7500   2579.0352  -2557.0352      95.5623     198.1836     127.1487    -999.2500       0.3281    -999.2500       2.4287    -999.2500    -999.2500
   2900.8750   2579.1572  -2557.1572      95.5769     197.6174     127.0911    -999.2500       0.3213    -999.2500       2.4219    -999.2500    -999.2500
   2901.0000   2579.2793  -2557.2793      95.5050     196.4473     127.2865    -999.2500       0.3186    -999.2500       2.4191    -999.2500    -999.2500
   2901.1250   2579.4016  -2557.4016      95.3159     194.6515     127.6900    -999.2500       0.3184    -999.2500       2.4167    -999.2500    -999.2500
   2901.2500   2579.5237  -2557.5237      95.0570     192.2996     127.8629    -999.2500       0.3202    -999.2500       2.4129    -999.2500    -999.2500
   2901.3750   2579.6458  -2557.6458      94.9348     189.5787     126.6379    -999.2500       0.3223    -999.2500       2.4121    -999.2500    -999.2500
   2901.5000   2579.7681  -2557.7681      95.0767     186.7868     123.7811    -999.2500       0.3242    -999.2500       2.4177    -999.2500    -999.2500
   2901.6250   2579.8901  -2557.8901      95.4276     184.0374     120.6482    -999.2500       0.3269    -999.2500       2.4253    -999.2500    -999.2500
   2901.7500   2580.0122  -2558.0122      95.9333     181.3973     118.2220    -999.2500       0.3304    -999.2500       2.4304    -999.2500    -999.2500
   2901.8750   2580.1343  -2558.1343      96.5013     178.9413     117.0361    -999.2500       0.3332    -999.2500       2.4293    -999.2500    -999.2500
   2902.0000   2580.2566  -2558.2566      96.9940     176.7600     116.9040    -999.2500       0.3327    -999.2500       2.4210    -999.2500    -999.2500
   2902.1250   2580.3787  -2558.3787      97.1764     175.1532     116.9888    -999.2500       0.3196    -999.2500       2.4137    -999.2500    -999.2500
   2902.2500   2580.5007  -2558.5007      97.0771     173.9925     116.9470    -999.2500       0.3009    -999.2500       2.4126    -999.2500    -999.2500
   2902.3750   2580.6230  -2558.6230      96.6351     173.2674     116.9002    -999.2500       0.2839    -999.2500       2.4198    -999.2500    -999.2500
   2902.5000   2580.7451  -2558.7451      95.8408     172.8949     116.9979    -999.2500       0.2729    -999.2500       2.4313    -999.2500    -999.2500
   2902.6250   2580.8672  -2558.8672      94.7499     172.7349     117.3110    -999.2500       0.2687    -999.2500       2.4424    -999.2500    -999.2500
   2902.7500   2580.9895  -2558.9895      93.5626     172.5380     117.4735    -999.2500       0.2681    -999.2500       2.4629    -999.2500    -999.2500
