#------------------------------------------------------------------------------
#
#   Created by  : [OpenWorks] Log Export Utility (LEXP)
#   Created on  : 2007-05-07 11:57:08
#   Project     : NORNE
#   User        : JSE
#   Interpreter : JSE
#
#------------------------------------------------------------------------------
~VERSION INFORMATION
VERS. 2.0 : CWLS Log ASCII Standard - version 2.0
WRAP.  NO : One line per depth step
~WELL INFORMATION
#MNEMONIC   .UNIT                                           VALUE :DESCRIPTION
#------------------------------------------------------------------------------
STRT        .M                                          1375.3750 :START DEPTH
STOP        .M                                          3298.0000 :STOP DEPTH
STEP        .M                                             0.1250 :STEP
NULL        .                                           -999.2500 :NULL VALUE
COMP        .                                             STATOIL :COMPANY
WELL        .                                       6608/10-C-1 H :WELL
FLD         .                                               NORNE :FIELD
LOC         .                                             UNKNOWN :LOCATION
CNTY        .                                             UNKNOWN :COUNTY
STAT        .                                             UNKNOWN :STATE
CTRY        .                                              Norway :COUNTRY
SRVC        .                                             UNKNOWN :SERVICE COMPANY
DATE        .                                             UNKNOWN :LOG DATE
UWI         .                                    NO 6608/10-C-1 H :UNIQUE WELL ID
XCOORD      .                                       457190.110178 :SURFACE X
YCOORD      .                                      7322024.307354 :SURFACE Y
LAT         .                                           66.014414 :LATITUDE
LON         .                                            8.056259 :LONGITUDE
ELEV        .M                                            22.0000 :SURFACE ELEV
ELEV_TYPE   .                                                  KB :ELEV TYPE
~CURVE INFORMATION
#MNEMONIC.UNIT        API CODE       : CURVE DESCRIPTION
#------------------------------------------------------------------------------
DEPTH    .M                          : Measured Depth
TVD      .M                          : True Vertical Depth (TVD)
TVDSS    .M                          : True Vertical Depth (TVDSS)
DT       .us/ft                      : DT:UNKNOWN:rC:NONE:v1 
DTS      .us/ft                      : DTS:UNKNOWN:rC:NONE:v1 
GR       .API         UNKNOWN        : GR:GR:rC:NONE:v1 
KLOGH    .mD          UNKNOWN        : KLOGH:UNKNOWN:rC::v0 (auto-composite)
NPHI     .v/v_decimal                : NPHI:UNKNOWN:rC:NONE:v1 
PHIF     .v/v_decimal UNKNOWN        : PHIF:UNKNOWN:rC::v0 (auto-composite)
RHOB     .g/cm3       UNKNOWN        : RHOB:UNKNOWN:rC:NONE:v1 
SW       .v/v_decimal UNKNOWN        : SW:UNKNOWN:rC::v0 (auto-composite)
VSH      .v/v_decimal UNKNOWN        : VSH:UNKNOWN:rC::v0 (auto-composite)
~A     DEPTH         TVD       TVDSS           DT          DTS           GR        KLOGH         NPHI         PHIF         RHOB           SW          VSH
# ...
   3149.8750   2822.2048  -2800.2048      91.5821     164.3503     122.2042       0.0057       0.2809       0.1245       2.4631       0.9567       0.7145
   3150.0000   2822.3267  -2800.3267      91.5435     165.3476     122.8931       0.0058       0.2866       0.1248       2.4626       0.9405       0.7256
   3150.1250   2822.4485  -2800.4485      91.5161     166.1717     122.3276       0.0056       0.2922       0.1240       2.4639       0.9273       0.7165
   3150.2500   2822.5703  -2800.5703      91.4653     166.5936     120.2328       0.0057       0.2970       0.1245       2.4631       0.9107       0.6829
   3150.3750   2822.6921  -2800.6921      91.3610     166.5779     118.1825       0.0061       0.2989       0.1259       2.4607       0.9010       0.6500
   3150.5000   2822.8140  -2800.8140      91.2079     166.2772     117.8130       0.0065       0.2992       0.1274       2.4583       0.8997       0.6441
   3150.6250   2822.9358  -2800.9358      91.0249     165.7968     119.4806       0.0070       0.2989       0.1291       2.4554       0.8991       0.6708
   3150.7500   2823.0576  -2801.0576      90.8393     165.2460     122.8237       0.0080       0.2984       0.1320       2.4507       0.8871       0.7244
   3150.8750   2823.1792  -2801.1792      90.6807     164.7254     126.8369       0.0102       0.2977       0.1375       2.4416       0.8514       0.7888
   3151.0000   2823.3010  -2801.3010      90.5699     164.2749     129.9319       0.0139       0.2952       0.1444       2.4301       0.8046       0.8385
   3151.1250   2823.4229  -2801.4229      90.4672     163.9281     131.1880       0.0183       0.2899       0.1505       2.4172       0.7653       0.8495
   3151.2500   2823.5447  -2801.5447      90.3342     163.7141     130.2733       0.0259       0.2812       0.1582       2.4051       0.7451       0.8418
   3151.3750   2823.6665  -2801.6665      90.1423     163.6289     127.0235       0.0360       0.2699       0.1655       2.3923       0.7434       0.7918
   3151.5000   2823.7883  -2801.7883      89.8760     163.6468     121.5266       0.0546       0.2578       0.1748       2.3762       0.7573       0.7037
   3151.6250   2823.9102  -2801.9102      89.5410     163.7312     114.1432       0.1020       0.2470       0.1887       2.3533       0.7823       0.5851
   3151.7500   2824.0320  -2802.0320      89.2016     163.8645     106.4111       0.2028       0.2384       0.2041       2.3296       0.8207       0.4611
   3151.8750   2824.1538  -2802.1538      88.9201     163.9686      99.9958       0.3040       0.2311       0.2131       2.3159       0.8809       0.3582
   3152.0000   2824.2756  -2802.2756      88.7281     164.0053      95.6205       0.2931       0.2251       0.2123       2.3172       0.9566       0.2880
   3152.1250   2824.3975  -2802.3975      88.6432     163.9674      93.4688       0.1924       0.2209       0.2029       2.3328       1.0000       0.2535
   3152.2500   2824.5190  -2802.5190      88.6695     163.8796      93.1977       0.1033       0.2192       0.1890       2.3558       1.0000       0.2492
   3152.3750   2824.6409  -2802.6409      88.8122     163.8140      93.9399       0.0741       0.2213       0.1816       2.3681       1.0000       0.2611
   3152.5000   2824.7627  -2802.7627      89.0350     163.8743      94.1824       0.0988       0.2263       0.1880       2.3575       1.0000       0.2650
   3152.6250   2824.8845  -2802.8845      89.3072     163.9855      93.2684       0.2056       0.2310       0.2044       2.3303       0.9704       0.2503
   3152.7500   2825.0063  -2803.0063      89.6016     164.0647      91.1643       0.5308       0.2348       0.2255       2.2952       0.9235       0.2166
   3152.8750   2825.1282  -2803.1282      89.8911     164.0495      88.2379       1.3147       0.2374       0.2457       2.2616       0.9115       0.1696
   3153.0000   2825.2500  -2803.2500      90.1504     163.9305      85.2437       2.4442       0.2384       0.2595       2.2387       0.9374       0.1215
   3153.1250   2825.3718  -2803.3718      90.3683     163.8195      83.2285       2.8309       0.2381       0.2628       2.2332       0.9801       0.0892
   3153.2500   2825.4937  -2803.4937      90.5744     163.7612      82.3041       2.3957       0.2393       0.2591       2.2394       1.0000       0.0744
   3153.3750   2825.6155  -2803.6155      90.7775     163.6230      82.3405       1.6322       0.2417       0.2505       2.2536       1.0000       0.0750
   3153.5000   2825.7373  -2803.7373      90.9755     163.2433      83.2088       1.0027       0.2452       0.2397       2.2717       1.0000       0.0889
   3153.6250   2825.8589  -2803.8589      91.1557     162.4847      84.8162       0.6276       0.2499       0.2292       2.2890       1.0000       0.1147
   3153.7500   2825.9807  -2803.9807      91.2804     161.3614      87.3040       0.4706       0.2545       0.2228       2.2997       1.0000       0.1546
   3153.8750   2826.1025  -2804.1025      91.2666     160.1735      89.9857       0.4540       0.2576       0.2220       2.3010       1.0000       0.1976
   3154.0000   2826.2244  -2804.2244      91.0579     158.7868      91.7705       0.5026       0.2588       0.2243       2.2972       0.9859       0.2263
   3154.1250   2826.3462  -2804.3462      90.5621     156.9353      91.9901       0.5431       0.2579       0.2260       2.2944       0.9738       0.2298
   3154.2500   2826.4680  -2804.4680      89.6630     154.4167      90.4140       0.4966       0.2547       0.2240       2.2977       0.9803       0.2045
   3154.3750   2826.5898  -2804.5898      88.2120     151.1800      87.3820       0.3560       0.2484       0.2166       2.3100       1.0000       0.1559
   3154.5000   2826.7117  -2804.7117      85.9010     147.6800      84.2947       0.2004       0.2381       0.2038       2.3313       1.0000       0.1063
   3154.6250   2826.8335  -2804.8335      83.0254     144.5388      82.2315       0.1051       0.2264       0.1894       2.3552       1.0000       0.0732
   3154.7500   2826.9553  -2804.9553      79.9213     141.7685      81.0565       0.0478       0.2127       0.1718       2.3844       1.0000       0.0544
   3154.8750   2827.0769  -2805.0769      76.9256     139.3326      80.3188       0.0175       0.1975       0.1494       2.4216       1.0000       0.0426
   3155.0000   2827.1987  -2805.1987      74.3471     137.2285      79.4592       0.0051       0.1826       0.1220       2.4672       1.0000       0.0287
   3155.1250   2827.3206  -2805.3206      72.4985     135.7713      78.1398       0.0016       0.1728       0.0964       2.5098       1.0000       0.0076
   3155.2500   2827.4424  -2805.4424      71.5517     135.2610      77.1211       0.0010       0.1711       0.0867       2.5258       1.0000       0.0010
   3155.3750   2827.5642  -2805.5642      71.4900     135.3951      77.0569       0.0016       0.1773       0.0964       2.5098       1.0000       0.0010
   3155.5000   2827.6860  -2805.6860      72.3835     135.8131      78.0035       0.0047       0.1887       0.1203       2.4700       0.9661       0.0054
   3155.6250   2827.8079  -2805.8079      74.2076     136.2738      79.7410       0.0184       0.2011       0.1506       2.4198       0.8324       0.0333
   3155.7500   2827.9297  -2805.9297      76.8174     136.7670      81.8493       0.0627       0.2092       0.1779       2.3743       0.7930       0.0671
   3155.8750   2828.0515  -2806.0515      79.8262     137.9879      84.0688       0.1273       0.2152       0.1937       2.3481       0.8374       0.1027
   3156.0000   2828.1733  -2806.1733      82.5888     140.0885      86.7020       0.1777       0.2255       0.2011       2.3357       0.9122       0.1449
   3156.1250   2828.2952  -2806.2952      84.8574     142.3707      89.9258       0.1915       0.2386       0.2028       2.3330       0.9822       0.1966
   3156.2500   2828.4167  -2806.4167      86.5221     143.9942      93.5006       0.1688       0.2505       0.2000       2.3376       1.0000       0.2540
