#------------------------------------------------------------------------------
#
#   Created by  : [OpenWorks] Log Export Utility (LEXP)
#   Created on  : 2007-05-07 11:57:46
#   Project     : NORNE
#   User        : JSE
#   Interpreter : JSE
#
#------------------------------------------------------------------------------
~VERSION INFORMATION
VERS. 2.0 : CWLS Log ASCII Standard - version 2.0
WRAP.  NO : One line per depth step
~WELL INFORMATION
#MNEMONIC   .UNIT                                           VALUE :DESCRIPTION
#------------------------------------------------------------------------------
STRT        .M                                          1250.1914 :START DEPTH
STOP        .M                                          3136.8164 :STOP DEPTH
STEP        .M                                             0.1250 :STEP
NULL        .                                           -999.2500 :NULL VALUE
COMP        .                                             STATOIL :COMPANY
WELL        .                                       6608/10-D-4 H :WELL
FLD         .                                               NORNE :FIELD
LOC         .                                             UNKNOWN :LOCATION
CNTY        .                                             UNKNOWN :COUNTY
STAT        .                                             UNKNOWN :STATE
CTRY        .                                              Norway :COUNTRY
SRVC        .                                             UNKNOWN :SERVICE COMPANY
DATE        .                                             UNKNOWN :LOG DATE
UWI         .                                    NO 6608/10-D-4 H :UNIQUE WELL ID
XCOORD      .                                       457259.082734 :SURFACE X
YCOORD      .                                      7321952.911776 :SURFACE Y
LAT         .                                           66.013783 :LATITUDE
LON         .                                            8.057803 :LONGITUDE
ELEV        .M                                            22.0000 :SURFACE ELEV
ELEV_TYPE   .                                                  KB :ELEV TYPE
~CURVE INFORMATION
#MNEMONIC.UNIT        API CODE       : CURVE DESCRIPTION
#------------------------------------------------------------------------------
DEPTH    .M                          : Measured Depth
TVD      .M                          : True Vertical Depth (TVD)
TVDSS    .M                          : True Vertical Depth (TVDSS)
DT       .us/ft                      : DT:UNKNOWN:rC:NONE:v1 
DTS      .us/ft                      : DTS:UNKNOWN:rC:NONE:v1 
GR       .API                        : GR:UNKNOWN:rC:NONE:v1 
KLOGH    .mD          UNKNOWN        : KLOGH:UNKNOWN:rC::v0 (auto-composite)
NPHI     .v/v_decimal                : NPHI:UNKNOWN:rC:NONE:v1 
PHIF     .v/v_decimal UNKNOWN        : PHIF:UNKNOWN:rC::v0 (auto-composite)
RHOB     .g/cm3                      : RHOB:UNKNOWN:rC:NONE:v1 
SW       .v/v_decimal UNKNOWN        : SW:UNKNOWN:rC::v0 (auto-composite)
VSH      .v/v_decimal UNKNOWN        : VSH:UNKNOWN:rC::v0 (auto-composite)
~A     DEPTH         TVD       TVDSS           DT          DTS           GR        KLOGH         NPHI         PHIF         RHOB           SW          VSH
# ...
   3128.6914   2887.8328  -2865.8328    -999.2500    -999.2500   -9999.0000       0.0045     -99.9900       0.1187       2.4725       0.9393       0.0010
   3128.8164   2887.9211  -2865.9211    -999.2500    -999.2500   -9999.0000       0.0032     -99.9900       0.1112       2.4849       1.0000       0.0010
   3128.9414   2888.0098  -2866.0098    -999.2500    -999.2500   -9999.0000       0.0026     -99.9900       0.1073       2.4916       1.0000       0.0010
   3129.0664   2888.0984  -2866.0984    -999.2500    -999.2500   -9999.0000       0.0029     -99.9900       0.1092       2.4883       1.0000       0.0010
   3129.1914   2888.1870  -2866.1870    -999.2500    -999.2500   -9999.0000       0.0038     -99.9900       0.1153       2.4782       1.0000       0.0010
   3129.3164   2888.2754  -2866.2754    -999.2500    -999.2500   -9999.0000       0.0055     -99.9900       0.1230       2.4653       1.0000       0.0010
   3129.4414   2888.3640  -2866.3640    -999.2500    -999.2500   -9999.0000       0.0074     -99.9900       0.1300       2.4537       1.0000       0.0010
   3129.5664   2888.4526  -2866.4526    -999.2500    -999.2500   -9999.0000       0.0086     -99.9900       0.1336       2.4476       1.0000       0.0010
   3129.6914   2888.5413  -2866.5413    -999.2500    -999.2500   -9999.0000       0.0080     -99.9900       0.1320       2.4503       1.0000       0.0010
   3129.8164   2888.6296  -2866.6296    -999.2500    -999.2500   -9999.0000       0.0066     -99.9900       0.1276       2.4577       1.0000       0.0010
   3129.9414   2888.7183  -2866.7183    -999.2500    -999.2500   -9999.0000       0.0057     -99.9900       0.1244       2.4630       1.0000       0.0010
   3130.0664   2888.8069  -2866.8069    -999.2500    -999.2500   -9999.0000       0.0054     -99.9900       0.1232       2.4650       1.0000       0.0010
   3130.1914   2888.8953  -2866.8953    -999.2500    -999.2500   -9999.0000       0.0054     -99.9900       0.1232       2.4650       1.0000       0.0010
   3130.3164   2888.9839  -2866.9839    -999.2500    -999.2500   -9999.0000       0.0053     -99.9900       0.1230       2.4654       1.0000       0.0010
   3130.4414   2889.0725  -2867.0725    -999.2500    -999.2500   -9999.0000       0.0050     -99.9900       0.1215       2.4679       1.0000       0.0010
   3130.5664   2889.1611  -2867.1611    -999.2500    -999.2500   -9999.0000    7740.3857     -99.9900       0.8014    -999.2500       0.2633       0.0003
   3130.6914   2889.2495  -2867.2495    -999.2500    -999.2500   -9999.0000   10000.0000     -99.9900       0.9999    -999.2500       0.0481       0.0001
   3130.8164   2889.3381  -2867.3381    -999.2500    -999.2500   -9999.0000   10000.0000     -99.9900       0.9999    -999.2500       0.0483       0.0001
   3130.9414   2889.4268  -2867.4268    -999.2500    -999.2500   -9999.0000   10000.0000     -99.9900       0.9999    -999.2500       0.0486       0.0001
   3131.0664   2889.5154  -2867.5154    -999.2500    -999.2500   -9999.0000   10000.0000     -99.9900       0.9999    -999.2500       0.0488       0.0001
   3131.1914   2889.6038  -2867.6038    -999.2500    -999.2500   -9999.0000   10000.0000     -99.9900       0.9999    -999.2500    -999.2500       0.0001
   3131.3164   2889.6924  -2867.6924    -999.2500    -999.2500   -9999.0000   10000.0000     -99.9900       0.9999    -999.2500    -999.2500       0.0001
   3131.4414   2889.7810  -2867.7810    -999.2500    -999.2500   -9999.0000   10000.0000     -99.9900       0.9999    -999.2500    -999.2500       0.0001
   3131.5664   2889.8694  -2867.8694    -999.2500    -999.2500   -9999.0000   10000.0000     -99.9900       0.9999    -999.2500    -999.2500       0.0001
   3131.6914   2889.9580  -2867.9580    -999.2500    -999.2500   -9999.0000   10000.0000     -99.9900       0.9999    -999.2500    -999.2500       0.0001
   3131.8164   2890.0466  -2868.0466    -999.2500    -999.2500   -9999.0000   10000.0000     -99.9900       0.9999    -999.2500    -999.2500       0.0001
   3131.9414   2890.1353  -2868.1353    -999.2500    -999.2500   -9999.0000   10000.0000     -99.9900       0.9999    -999.2500    -999.2500       0.0001
   3132.0664   2890.2236  -2868.2236    -999.2500    -999.2500   -9999.0000   10000.0000     -99.9900       0.9999    -999.2500    -999.2500       0.0001
   3132.1914   2890.3123  -2868.3123    -999.2500    -999.2500   -9999.0000   10000.0000     -99.9900       0.9999    -999.2500    -999.2500       0.0001
   3132.3164   2890.4009  -2868.4009    -999.2500    -999.2500   -9999.0000   10000.0000     -99.9900       0.9999    -999.2500    -999.2500       0.0001
   3132.4414   2890.4895  -2868.4895    -999.2500    -999.2500   -9999.0000   10000.0000     -99.9900       0.9999    -999.2500    -999.2500       0.0001
   3132.5664   2890.5779  -2868.5779    -999.2500    -999.2500   -9999.0000   10000.0000     -99.9900       0.9999    -999.2500    -999.2500       0.0001
   3132.6914   2890.6665  -2868.6665    -999.2500    -999.2500   -9999.0000   10000.0000     -99.9900       0.9999    -999.2500    -999.2500       0.0001
   3132.8164   2890.7551  -2868.7551    -999.2500    -999.2500   -9999.0000   10000.0000     -99.9900       0.9999    -999.2500    -999.2500       0.0001
   3132.9414   2890.8438  -2868.8438    -999.2500    -999.2500   -9999.0000   10000.0000     -99.9900       0.9999    -999.2500    -999.2500       0.0001
   3133.0664   2890.9321  -2868.9321    -999.2500    -999.2500   -9999.0000   10000.0000     -99.9900       0.9999    -999.2500    -999.2500       0.0001
   3133.1914   2891.0208  -2869.0208    -999.2500    -999.2500   -9999.0000   10000.0000     -99.9900       0.9999    -999.2500    -999.2500       0.0001
   3133.3164   2891.1094  -2869.1094    -999.2500    -999.2500   -9999.0000   10000.0000     -99.9900       0.9999    -999.2500    -999.2500       0.0001
   3133.4414   2891.1978  -2869.1978    -999.2500    -999.2500   -9999.0000   10000.0000     -99.9900       0.9999    -999.2500    -999.2500       0.0001
   3133.5664   2891.2864  -2869.2864    -999.2500    -999.2500   -9999.0000   10000.0000     -99.9900       0.9999    -999.2500    -999.2500       0.0001
   3133.6914   2891.3750  -2869.3750    -999.2500    -999.2500   -9999.0000   10000.0000     -99.9900       0.9999    -999.2500    -999.2500       0.0001
   3133.8164   2891.4636  -2869.4636    -999.2500    -999.2500   -9999.0000   10000.0000     -99.9900       0.9999    -999.2500    -999.2500       0.0001
   3133.9414   2891.5520  -2869.5520    -999.2500    -999.2500   -9999.0000   10000.0000     -99.9900       0.9999    -999.2500    -999.2500       0.0001
   3134.0664   2891.6406  -2869.6406    -999.2500    -999.2500   -9999.0000   10000.0000     -99.9900       0.9999    -999.2500    -999.2500       0.0001
   3134.1914   2891.7292  -2869.7292    -999.2500    -999.2500   -9999.0000   10000.0000     -99.9900       0.9999    -999.2500    -999.2500       0.0001
   3134.3164   2891.8179  -2869.8179    -999.2500    -999.2500   -9999.0000   10000.0000     -99.9900       0.9999    -999.2500    -999.2500       0.0001
   3134.4414   2891.9062  -2869.9062    -999.2500    -999.2500   -9999.0000   10000.0000     -99.9900       0.9999    -999.2500    -999.2500       0.0001
   3134.5664   2891.9949  -2869.9949    -999.2500    -999.2500   -9999.0000   10000.0000     -99.9900       0.9999    -999.2500    -999.2500       0.0001
   3134.6914   2892.0835  -2870.0835    -999.2500    -999.2500   -9999.0000   10000.0000     -99.9900       0.9999    -999.2500    -999.2500       0.0001
   3134.8164   2892.1721  -2870.1721    -999.2500    -999.2500   -9999.0000   10000.0000     -99.9900       0.9999    -999.2500    -999.2500       0.0001
   3134.9414   2892.2605  -2870.2605    -999.2500    -999.2500   -9999.0000   10000.0000     -99.9900       0.9999    -999.2500    -999.2500       0.0001
   3135.0664   2892.3491  -2870.3491    -999.2500    -999.2500   -9999.0000   10000.0000     -99.9900       0.9999    -999.2500    -999.2500       0.0001
