#------------------------------------------------------------------------------
#
#   Created by  : [OpenWorks] Log Export Utility (LEXP)
#   Created on  : 2007-05-07 11:57:46
#   Project     : NORNE
#   User        : JSE
#   Interpreter : JSE
#
#------------------------------------------------------------------------------
~VERSION INFORMATION
VERS. 2.0 : CWLS Log ASCII Standard - version 2.0
WRAP.  NO : One line per depth step
~WELL INFORMATION
#MNEMONIC   .UNIT                                           VALUE :DESCRIPTION
#------------------------------------------------------------------------------
STRT        .M                                          1250.1914 :START DEPTH
STOP        .M                                          3136.8164 :STOP DEPTH
STEP        .M                                             0.1250 :STEP
NULL        .                                           -999.2500 :NULL VALUE
COMP        .                                             STATOIL :COMPANY
WELL        .                                       6608/10-D-4 H :WELL
FLD         .                                               NORNE :FIELD
LOC         .                                             UNKNOWN :LOCATION
CNTY        .                                             UNKNOWN :COUNTY
STAT        .                                             UNKNOWN :STATE
CTRY        .                                              Norway :COUNTRY
SRVC        .                                             UNKNOWN :SERVICE COMPANY
DATE        .                                             UNKNOWN :LOG DATE
UWI         .                                    NO 6608/10-D-4 H :UNIQUE WELL ID
XCOORD      .                                       457259.082734 :SURFACE X
YCOORD      .                                      7321952.911776 :SURFACE Y
LAT         .                                           66.013783 :LATITUDE
LON         .                                            8.057803 :LONGITUDE
ELEV        .M                                            22.0000 :SURFACE ELEV
ELEV_TYPE   .                                                  KB :ELEV TYPE
~CURVE INFORMATION
#MNEMONIC.UNIT        API CODE       : CURVE DESCRIPTION
#------------------------------------------------------------------------------
DEPTH    .M                          : Measured Depth
TVD      .M                          : True Vertical Depth (TVD)
TVDSS    .M                          : True Vertical Depth (TVDSS)
DT       .us/ft                      : DT:UNKNOWN:rC:NONE:v1 
DTS      .us/ft                      : DTS:UNKNOWN:rC:NONE:v1 
GR       .API                        : GR:UNKNOWN:rC:NONE:v1 
KLOGH    .mD          UNKNOWN        : KLOGH:UNKNOWN:rC::v0 (auto-composite)
NPHI     .v/v_decimal                : NPHI:UNKNOWN:rC:NONE:v1 
PHIF     .v/v_decimal UNKNOWN        : PHIF:UNKNOWN:rC::v0 (auto-composite)
RHOB     .g/cm3                      : RHOB:UNKNOWN:rC:NONE:v1 
SW       .v/v_decimal UNKNOWN        : SW:UNKNOWN:rC::v0 (auto-composite)
VSH      .v/v_decimal UNKNOWN        : VSH:UNKNOWN:rC::v0 (auto-composite)
~A     DEPTH         TVD       TVDSS           DT          DTS           GR        KLOGH         NPHI         PHIF         RHOB           SW          VSH
# ...
   3096.1914   2864.7856  -2842.7856      85.3395     160.4598     104.0715       0.0091       0.2861       0.1349       2.4457       1.0000       0.5546
   3096.3164   2864.8745  -2842.8745      85.2966     160.2397     105.2576       0.0104       0.2823       0.1379       2.4407       0.9994       0.5693
   3096.4414   2864.9636  -2842.9636      85.2654     159.7876     106.7854       0.0124       0.2771       0.1418       2.4341       0.9865       0.5882
   3096.5664   2865.0527  -2843.0527      85.2505     159.2190     107.8226       0.0126       0.2700       0.1421       2.4337       0.9732       0.6011
   3096.6914   2865.1416  -2843.1416      85.2485     158.6636     108.5164       0.0116       0.2617       0.1401       2.4370       0.9667       0.6097
   3096.8164   2865.2307  -2843.2307      85.2494     158.2155     109.0935       0.0103       0.2538       0.1375       2.4413       0.9642       0.6169
   3096.9414   2865.3198  -2843.3198      85.2375     157.9316     109.7546       0.0094       0.2479       0.1357       2.4444       0.9621       0.6251
   3097.0664   2865.4087  -2843.4087      85.1866     157.8102     110.5201       0.0088       0.2454       0.1342       2.4469       0.9650       0.6345
   3097.1914   2865.4978  -2843.4978      85.0641     157.7526     111.2234       0.0088       0.2488       0.1341       2.4470       0.9668       0.6433
   3097.3164   2865.5869  -2843.5869      84.8834     157.6746     111.6555       0.0094       0.2549       0.1355       2.4446       0.9619       0.6486
   3097.4414   2865.6758  -2843.6758      84.6633     157.5429     111.8177       0.0099       0.2626       0.1368       2.4426       0.9583       0.6506
   3097.5664   2865.7649  -2843.7649      84.4255     157.3347     111.7429       0.0095       0.2704       0.1358       2.4441       0.9670       0.6497
   3097.6914   2865.8540  -2843.8540      84.1924     157.0344     111.4669       0.0077       0.2762       0.1311       2.4519       0.9943       0.6463
   3097.8164   2865.9429  -2843.9429      83.9897     156.5971     110.8704       0.0054       0.2772       0.1232       2.4651       0.9993       0.6389
   3097.9414   2866.0320  -2844.0320      83.8174     156.0177     109.3979       0.0043       0.2738       0.1178       2.4740       1.0000       0.6206
   3098.0664   2866.1211  -2844.1211      83.6646     155.3313     107.1830       0.0043       0.2672       0.1182       2.4734       1.0000       0.5931
   3098.1914   2866.2100  -2844.2100      83.5212     154.5769     104.7392       0.0054       0.2587       0.1231       2.4652       1.0000       0.5629
   3098.3164   2866.2991  -2844.2991      83.3777     153.7948     102.7004       0.0070       0.2501       0.1290       2.4555       1.0000       0.5376
   3098.4414   2866.3882  -2844.3882      83.2275     153.0153     101.6633       0.0075       0.2437       0.1305       2.4531       1.0000       0.5248
   3098.5664   2866.4771  -2844.4771      83.0712     152.2258     102.0862       0.0058       0.2438       0.1247       2.4626       1.0000       0.5300
   3098.6914   2866.5662  -2844.5662      82.9152     151.4128     102.9670       0.0043       0.2463       0.1180       2.4737       1.0000       0.5410
   3098.8164   2866.6553  -2844.6553      82.7628     150.5892     103.6584       0.0035       0.2480       0.1135       2.4812       1.0000       0.5495
   3098.9414   2866.7444  -2844.7444      82.6161     149.7812     103.6452       0.0035       0.2463       0.1134       2.4814       1.0000       0.5494
   3099.0664   2866.8333  -2844.8333      82.4765     149.0246     102.6767       0.0044       0.2401       0.1187       2.4724       0.9989       0.5374
   3099.1914   2866.9224  -2844.9224      82.3510     148.3780     101.2678       0.0068       0.2297       0.1282       2.4569       0.9875       0.5199
   3099.3164   2867.0115  -2845.0115      82.2494     147.8673     100.7010       0.0107       0.2190       0.1380       2.4405       0.9558       0.5128
   3099.4414   2867.1003  -2845.1003      82.1700     147.4557     100.8346       0.0157       0.2084       0.1465       2.4263       0.9409       0.5145
   3099.5664   2867.1895  -2845.1895      82.1060     147.0958     101.2276       0.0201       0.1985       0.1524       2.4165       0.9491       0.5193
   3099.6914   2867.2786  -2845.2786      82.0498     146.7308     101.3673       0.0220       0.1909       0.1546       2.4129       0.9741       0.5211
   3099.8164   2867.3674  -2845.3674      81.9950     146.3050     100.8140       0.0197       0.1878       0.1521       2.4170       1.0000       0.5142
   3099.9414   2867.4565  -2845.4565      81.9547     145.7523      99.6437       0.0149       0.1937       0.1457       2.4277       1.0000       0.4997
   3100.0664   2867.5457  -2845.5457      81.9434     145.1427      99.3255       0.0113       0.2060       0.1393       2.4384       1.0000       0.4958
   3100.1914   2867.6345  -2845.6345      81.9591     144.5370     100.3380       0.0087       0.2199       0.1337       2.4476       1.0000       0.5083
   3100.3164   2867.7236  -2845.7236      81.9926     143.9913     102.4920       0.0073       0.2318       0.1298       2.4541       0.9909       0.5350
   3100.4414   2867.8127  -2845.8127      82.0316     143.5533     105.1674       0.0068       0.2391       0.1285       2.4563       0.9557       0.5682
   3100.5664   2867.9016  -2845.9016      82.0676     143.2796     107.5807       0.0080       0.2421       0.1320       2.4505       0.8597       0.5982
   3100.6914   2867.9907  -2845.9907      82.1119     143.1953     109.7649       0.0127       0.2421       0.1417       2.4344       0.7758       0.6252
   3100.8164   2868.0798  -2846.0798      82.1869     143.2359     111.6145       0.0269       0.2392       0.1567       2.4092       0.7135       0.6482
   3100.9414   2868.1687  -2846.1687      82.3059     143.3438     112.0397       0.0525       0.2341       0.1724       2.3832       0.6910       0.6534
   3101.0664   2868.2578  -2846.2578      82.4754     143.4687     110.0366       0.0829       0.2279       0.1840       2.3639       0.7219       0.6285
   3101.1914   2868.3469  -2846.3469      82.6949     143.5795     105.0523       0.1019       0.2223       0.1888       2.3561       0.8105       0.5668
   3101.3164   2868.4358  -2846.4358      82.9783     143.6909      98.2456       0.0954       0.2174       0.1873       2.3585       0.9514       0.4824
   3101.4414   2868.5244  -2846.5244      83.3013     143.8517      92.7588       0.0863       0.2142       0.1850       2.3623       0.9927       0.4144
   3101.5664   2868.6128  -2846.6128      83.6366     144.0618      89.5646       0.0881       0.2131       0.1855       2.3616       1.0000       0.3748
   3101.6914   2868.7014  -2846.7014      83.9527     144.2798      88.4824       0.1086       0.2146       0.1898       2.3544       1.0000       0.3614
   3101.8164   2868.7900  -2846.7900      84.2181     144.4474      88.7343       0.1548       0.2184       0.1976       2.3413       1.0000       0.3645
   3101.9414   2868.8787  -2846.8787      84.3999     144.5080      89.4495       0.2431       0.2227       0.2079       2.3241       1.0000       0.3733
   3102.0664   2868.9673  -2846.9673      84.4894     144.5442      90.2554       0.3438       0.2214       0.2155       2.3115       0.9864       0.3833
   3102.1914   2869.0559  -2847.0559      84.5247     144.7323      91.0172       0.3670       0.2161       0.2172       2.3086       0.9872       0.3928
   3102.3164   2869.1445  -2847.1445      84.5265     145.1438      91.7232       0.3164       0.2107       0.2136       2.3147       0.9945       0.4015
   3102.4414   2869.2332  -2847.2332      84.5100     145.7720      92.5033       0.2365       0.2083       0.2074       2.3250       1.0000       0.4112
   3102.5664   2869.3215  -2847.3215      84.4844     146.5328      93.5775       0.1949       0.2104       0.2032       2.3320       1.0000       0.4245
