#------------------------------------------------------------------------------
#
#   Created by  : [OpenWorks] Log Export Utility (LEXP)
#   Created on  : 2007-05-07 11:57:46
#   Project     : NORNE
#   User        : JSE
#   Interpreter : JSE
#
#------------------------------------------------------------------------------
~VERSION INFORMATION
VERS. 2.0 : CWLS Log ASCII Standard - version 2.0
WRAP.  NO : One line per depth step
~WELL INFORMATION
#MNEMONIC   .UNIT                                           VALUE :DESCRIPTION
#------------------------------------------------------------------------------
STRT        .M                                          1250.1914 :START DEPTH
STOP        .M                                          3136.8164 :STOP DEPTH
STEP        .M                                             0.1250 :STEP
NULL        .                                           -999.2500 :NULL VALUE
COMP        .                                             STATOIL :COMPANY
WELL        .                                       6608/10-D-4 H :WELL
FLD         .                                               NORNE :FIELD
LOC         .                                             UNKNOWN :LOCATION
CNTY        .                                             UNKNOWN :COUNTY
STAT        .                                             UNKNOWN :STATE
CTRY        .                                              Norway :COUNTRY
SRVC        .                                             UNKNOWN :SERVICE COMPANY
DATE        .                                             UNKNOWN :LOG DATE
UWI         .                                    NO 6608/10-D-4 H :UNIQUE WELL ID
XCOORD      .                                       457259.082734 :SURFACE X
YCOORD      .                                      7321952.911776 :SURFACE Y
LAT         .                                           66.013783 :LATITUDE
LON         .                                            8.057803 :LONGITUDE
ELEV        .M                                            22.0000 :SURFACE ELEV
ELEV_TYPE   .                                                  KB :ELEV TYPE
~CURVE INFORMATION
#MNEMONIC.UNIT        API CODE       : CURVE DESCRIPTION
#------------------------------------------------------------------------------
DEPTH    .M                          : Measured Depth
TVD      .M                          : True Vertical Depth (TVD)
TVDSS    .M                          : True Vertical Depth (TVDSS)
DT       .us/ft                      : DT:UNKNOWN:rC:NONE:v1 
DTS      .us/ft                      : DTS:UNKNOWN:rC:NONE:v1 
GR       .API                        : GR:UNKNOWN:rC:NONE:v1 
KLOGH    .mD          UNKNOWN        : KLOGH:UNKNOWN:rC::v0 (auto-composite)
NPHI     .v/v_decimal                : NPHI:UNKNOWN:rC:NONE:v1 
PHIF     .v/v_decimal UNKNOWN        : PHIF:UNKNOWN:rC::v0 (auto-composite)
RHOB     .g/cm3                      : RHOB:UNKNOWN:rC:NONE:v1 
SW       .v/v_decimal UNKNOWN        : SW:UNKNOWN:rC::v0 (auto-composite)
VSH      .v/v_decimal UNKNOWN        : VSH:UNKNOWN:rC::v0 (auto-composite)
~A     DEPTH         TVD       TVDSS           DT          DTS           GR        KLOGH         NPHI         PHIF         RHOB           SW          VSH
# ...
   2699.6914   2569.2732  -2547.2732      95.9609     197.9665     130.7012    -999.2500       0.3246    -999.2500       2.4280    -999.2500    -999.2500
   2699.8164   2569.3699  -2547.3699      94.9250     197.1027     130.9905    -999.2500       0.3226    -999.2500       2.4330    -999.2500    -999.2500
   2699.9414   2569.4666  -2547.4666      93.8428     194.5460     133.2225    -999.2500       0.3293    -999.2500       2.4381    -999.2500    -999.2500
   2700.0664   2569.5630  -2547.5630      92.8557     190.9350     136.8311    -999.2500       0.3412    -999.2500       2.4332    -999.2500    -999.2500
   2700.1914   2569.6597  -2547.6597      92.1053     187.9232     140.3376    -999.2500       0.3469    -999.2500       2.4235    -999.2500    -999.2500
   2700.3164   2569.7563  -2547.7563      91.6170     186.1802     143.2141    -999.2500       0.3454    -999.2500       2.4210    -999.2500    -999.2500
   2700.4414   2569.8528  -2547.8528      91.4408     185.4611     145.2264    -999.2500       0.3383    -999.2500       2.4266    -999.2500    -999.2500
   2700.5664   2569.9495  -2547.9495      91.5768     185.3088     146.2411    -999.2500       0.3268    -999.2500       2.4401    -999.2500    -999.2500
   2700.6914   2570.0459  -2548.0459      91.9615     185.2026     146.2034    -999.2500       0.3125    -999.2500       2.4591    -999.2500    -999.2500
   2700.8164   2570.1426  -2548.1426      92.3546     184.8793     144.9562    -999.2500       0.3009    -999.2500       2.4714    -999.2500    -999.2500
   2700.9414   2570.2393  -2548.2393      92.4174     184.5945     142.2243    -999.2500       0.3027    -999.2500       2.4787    -999.2500    -999.2500
   2701.0664   2570.3357  -2548.3357      92.0991     184.4906     138.4322    -999.2500       0.3200    -999.2500       2.4975    -999.2500    -999.2500
   2701.1914   2570.4324  -2548.4324      91.4476     184.4772     134.8058    -999.2500       0.3421    -999.2500       2.5290    -999.2500    -999.2500
   2701.3164   2570.5291  -2548.5291      90.5488     184.3531     132.2399    -999.2500       0.3626    -999.2500       2.5609    -999.2500    -999.2500
   2701.4414   2570.6255  -2548.6255      89.4870     183.8280     130.5720    -999.2500       0.3904    -999.2500       2.5650    -999.2500    -999.2500
   2701.5664   2570.7222  -2548.7222      88.2846     182.6590     127.6404    -999.2500       0.4653    -999.2500       2.5080    -999.2500    -999.2500
   2701.6914   2570.8188  -2548.8188      87.0583     181.0133     123.9418    -999.2500       0.5581    -999.2500       2.4315    -999.2500    -999.2500
   2701.8164   2570.9153  -2548.9153      86.0155     178.8332     120.8108    -999.2500       0.6297    -999.2500       2.3659    -999.2500    -999.2500
   2701.9414   2571.0120  -2549.0120      85.3557     176.1070     119.4809    -999.2500       0.6456    -999.2500       2.3310    -999.2500    -999.2500
   2702.0664   2571.1084  -2549.1084      85.2416     172.9053     120.7596    -999.2500       0.5863    -999.2500       2.3330    -999.2500    -999.2500
   2702.1914   2571.2051  -2549.2051      85.7766     169.4887     124.2271    -999.2500       0.4713    -999.2500       2.3502    -999.2500    -999.2500
   2702.3164   2571.3018  -2549.3018      86.7000     166.4222     127.6534    -999.2500       0.3721    -999.2500       2.3594    -999.2500    -999.2500
   2702.4414   2571.3982  -2549.3982      87.7887     164.0707     129.4422    -999.2500       0.3167    -999.2500       2.3631    -999.2500    -999.2500
   2702.5664   2571.4949  -2549.4949      89.0324     162.4336     129.3613    -999.2500       0.2950    -999.2500       2.3700    -999.2500    -999.2500
   2702.6914   2571.5916  -2549.5916      90.4326     161.2497     127.8777    -999.2500       0.2885    -999.2500       2.3886    -999.2500    -999.2500
   2702.8164   2571.6880  -2549.6880      91.9576     160.0106     126.0731    -999.2500       0.2783    -999.2500       2.4252    -999.2500    -999.2500
   2702.9414   2571.7847  -2549.7847      93.2171     158.3515     124.7446    -999.2500       0.2734    -999.2500       2.4851    -999.2500    -999.2500
   2703.0664   2571.8813  -2549.8813      93.8157     156.9288     123.9080    -999.2500       0.2735    -999.2500       2.5535    -999.2500    -999.2500
   2703.1914   2571.9778  -2549.9778      93.6948     156.2756     123.4847    -999.2500       0.2815    -999.2500       2.6126    -999.2500    -999.2500
   2703.3164   2572.0745  -2550.0745      92.9797     156.7032     123.2891    -999.2500       0.3001    -999.2500       2.6492    -999.2500    -999.2500
   2703.4414   2572.1711  -2550.1711      91.9299     158.2619     123.0889    -999.2500       0.3310    -999.2500       2.6541    -999.2500    -999.2500
   2703.5664   2572.2676  -2550.2676      90.9125     160.6036     122.6811    -999.2500       0.3724    -999.2500       2.6196    -999.2500    -999.2500
   2703.6914   2572.3643  -2550.3643      90.2326     162.4833     122.9277    -999.2500       0.4093    -999.2500       2.5662    -999.2500    -999.2500
   2703.8164   2572.4607  -2550.4607      89.7921     163.6306     124.6860    -999.2500       0.4263    -999.2500       2.5176    -999.2500    -999.2500
   2703.9414   2572.5574  -2550.5574      89.5685     164.2955     127.8010    -999.2500       0.4183    -999.2500       2.4852    -999.2500    -999.2500
   2704.0664   2572.6541  -2550.6541      89.5646     164.7591     131.6486    -999.2500       0.3884    -999.2500       2.4751    -999.2500    -999.2500
   2704.1914   2572.7505  -2550.7505      89.8011     165.2327     135.2390    -999.2500       0.3472    -999.2500       2.4868    -999.2500    -999.2500
   2704.3164   2572.8472  -2550.8472      90.2089     165.9097     136.7750    -999.2500       0.3101    -999.2500       2.5049    -999.2500    -999.2500
   2704.4414   2572.9438  -2550.9438      90.6311     166.9866     135.6327    -999.2500       0.2927    -999.2500       2.5032    -999.2500    -999.2500
   2704.5664   2573.0410  -2551.0410      90.9904     168.5086     132.6838    -999.2500       0.2956    -999.2500       2.4855    -999.2500    -999.2500
   2704.6914   2573.1382  -2551.1382      91.2430     170.3334     129.1260    -999.2500       0.3120    -999.2500       2.4601    -999.2500    -999.2500
   2704.8164   2573.2354  -2551.2354      91.3576     172.1880     126.2423    -999.2500       0.3308    -999.2500       2.4366    -999.2500    -999.2500
   2704.9414   2573.3325  -2551.3325      91.2903     173.6592     125.1198    -999.2500       0.3366    -999.2500       2.4227    -999.2500    -999.2500
   2705.0664   2573.4297  -2551.4297      91.0392     173.9718     126.1060    -999.2500       0.3327    -999.2500       2.4298    -999.2500    -999.2500
   2705.1914   2573.5271  -2551.5271      90.7299     173.2548     128.7883    -999.2500       0.3354    -999.2500       2.4464    -999.2500    -999.2500
   2705.3164   2573.6243  -2551.6243      90.4428     171.8600     132.0631    -999.2500       0.3473    -999.2500       2.4589    -999.2500    -999.2500
   2705.4414   2573.7214  -2551.7214      90.2293     170.0799     134.5299    -999.2500       0.3653    -999.2500       2.4572    -999.2500    -999.2500
   2705.5664   2573.8186  -2551.8186      90.1028     168.1063     134.8252    -999.2500       0.3813    -999.2500       2.4363    -999.2500    -999.2500
   2705.6914   2573.9158  -2551.9158      90.0053     166.1296     132.5502    -999.2500       0.3766    -999.2500       2.3993    -999.2500    -999.2500
   2705.8164   2574.0129  -2552.0129      89.9791     164.5990     129.6909    -999.2500       0.3634    -999.2500       2.3666    -999.2500    -999.2500
   2705.9414   2574.1101  -2552.1101      90.1407     163.8690     127.6933    -999.2500       0.3621    -999.2500       2.3508    -999.2500    -999.2500
   2706.0664   2574.2075  -2552.2075      90.5797     164.1977     127.0828    -999.2500       0.3787    -999.2500       2.3525    -999.2500    -999.2500
