#------------------------------------------------------------------------------
#
#   Created by  : [OpenWorks] Log Export Utility (LEXP)
#   Created on  : 2007-05-07 11:56:53
#   Project     : NORNE
#   User        : JSE
#   Interpreter : JSE
#
#------------------------------------------------------------------------------
~VERSION INFORMATION
VERS. 2.0 : CWLS Log ASCII Standard - version 2.0
WRAP.  NO : One line per depth step
~WELL INFORMATION
#MNEMONIC   .UNIT                                           VALUE :DESCRIPTION
#------------------------------------------------------------------------------
STRT        .M                                           450.6626 :START DEPTH
STOP        .M                                          3861.9126 :STOP DEPTH
STEP        .M                                             0.1250 :STEP
NULL        .                                           -999.2500 :NULL VALUE
COMP        .                                             STATOIL :COMPANY
WELL        .                                       6608/10-B-2 H :WELL
FLD         .                                               NORNE :FIELD
LOC         .                                             UNKNOWN :LOCATION
CNTY        .                                             UNKNOWN :COUNTY
STAT        .                                             UNKNOWN :STATE
CTRY        .                                              Norway :COUNTRY
SRVC        .                                             UNKNOWN :SERVICE COMPANY
DATE        .                                             UNKNOWN :LOG DATE
UWI         .                                    NO 6608/10-B-2 H :UNIQUE WELL ID
XCOORD      .                                       457121.854690 :SURFACE X
YCOORD      .                                      7322122.976330 :SURFACE Y
LAT         .                                           66.015290 :LATITUDE
LON         .                                            8.054722 :LONGITUDE
ELEV        .M                                            25.0000 :SURFACE ELEV
ELEV_TYPE   .                                                  KB :ELEV TYPE
~CURVE INFORMATION
#MNEMONIC.UNIT        API CODE       : CURVE DESCRIPTION
#------------------------------------------------------------------------------
DEPTH    .M                          : Measured Depth
TVD      .M                          : True Vertical Depth (TVD)
TVDSS    .M                          : True Vertical Depth (TVDSS)
DT       .us/ft                      : DT:UNKNOWN:rC:NONE:v1 
GR       .API                        : GR:UNKNOWN:rC:NONE:v1 
KLOGH    .mD                         : KLOGH:UNKNOWN:rC:NONE:v1 
NPHI     .v/v_decimal                : NPHI:UNKNOWN:rC:NONE:v1 
PHIF     .v/v_decimal                : PHIF:UNKNOWN:rC:NONE:v1 
RHOB     .g/cm3                      : RHOB:UNKNOWN:rC:NONE:v1 
SW       .v/v_decimal                : SW:UNKNOWN:rC:NONE:v1 
VSH      .v/v_decimal                : VSH:UNKNOWN:rC:NONE:v1 
~A     DEPTH         TVD       TVDSS           DT           GR        KLOGH         NPHI         PHIF         RHOB           SW          VSH
# ...
   2930.1626   2647.8811  -2622.8811      98.9778      50.3390      32.7334       0.3115       0.2316       2.2247       0.1705       0.0628
   2930.2876   2647.9060  -2622.9060      98.2723      51.2387      28.1609       0.3113       0.2286       2.2315       0.1729       0.0734
   2930.4126   2647.9307  -2622.9307      97.7515      54.9744      24.3707       0.3120       0.2257       2.2371       0.1752       0.1173
   2930.5376   2647.9556  -2622.9556      96.8450      57.1112      21.7837       0.3126       0.2235       2.2410       0.1773       0.1181
   2930.6626   2647.9802  -2622.9802      95.5954      56.0805      20.1920       0.3043       0.2220       2.2439       0.1789       0.0395
   2930.7876   2648.0051  -2623.0051      95.0119      52.7886      20.1920       0.3042       0.2220       2.2431       0.1752       0.0808
   2930.9126   2648.0298  -2623.0298      94.6809      55.8500      19.4937       0.3118       0.2213       2.2444       0.1736       0.1072
   2931.0376   2648.0547  -2623.0547      94.8607      53.6606      18.7120       0.3115       0.2205       2.2466       0.1725       0.0884
   2931.1626   2648.0793  -2623.0793      95.7963      52.0798      18.9452       0.3104       0.2207       2.2466       0.1713       0.0793
   2931.2876   2648.1042  -2623.1042      97.2177      54.3921      19.7148       0.3120       0.2215       2.2448       0.1699       0.1011
   2931.4126   2648.1289  -2623.1289      97.9556      50.9720      17.3824       0.3035       0.2190       2.2490       0.1682       0.0703
   2931.5376   2648.1536  -2623.1536      98.3881      53.1176      14.8300       0.2995       0.2158       2.2555       0.1678       0.1196
   2931.6626   2648.1785  -2623.1785      98.1522      58.0644      15.6875       0.2959       0.2169       2.2538       0.1646       0.1646
   2931.7876   2648.2031  -2623.2031      97.0177      60.5991      17.7435       0.2900       0.2194       2.2488       0.1601       0.1802
   2931.9126   2648.2280  -2623.2280      95.3562      62.0436      19.2083       0.2795       0.2210       2.2453       0.1562       0.1952
   2932.0376   2648.2527  -2623.2527      93.4125      66.3609      18.7540       0.2663       0.2205       2.2471       0.1551       0.2404
   2932.1626   2648.2776  -2623.2776      88.5512      68.4171      14.6731       0.2707       0.2155       2.2569       0.1594       0.1662
   2932.2876   2648.3022  -2623.3022      85.9246      64.3141      10.1364       0.2773       0.2077       2.2719       0.1602       0.1951
   2932.4126   2648.3271  -2623.3271      83.3864      64.3987      10.6376       0.2789       0.2089       2.2693       0.1556       0.2703
   2932.5376   2648.3518  -2623.3518      82.0218      69.2605      10.1946       0.2744       0.2075       2.2716       0.1533       0.3332
   2932.6626   2648.3767  -2623.3767      82.6461      72.9196       6.2210       0.2676       0.1981       2.2898       0.1568       0.3285
   2932.7876   2648.4014  -2623.4014      84.8000      63.4470       4.0841       0.2669       0.1900       2.3060       0.1614       0.2170
   2932.9126   2648.4263  -2623.4263      86.8741      61.1970       4.8367       0.2739       0.1933       2.2985       0.1571       0.1906
   2933.0376   2648.4509  -2623.4509      89.9624      61.9553       4.8284       0.2610       0.1933       2.2990       0.1523       0.1995
   2933.1626   2648.4758  -2623.4758      91.1248      62.0139      12.5501       0.2516       0.2072       2.2721       0.1380       0.2002
   2933.2876   2648.5005  -2623.5005      90.3734      60.6885      15.0455       0.2514       0.1940       2.2970       0.1526       0.1846
   2933.4126   2648.5251  -2623.5251      89.1837      59.3250       0.1481       0.2567       0.1235       2.4328       0.2205       0.1685
   2933.5376   2648.5500  -2623.5500      88.7461      61.3008       0.1256       0.2646       0.1203       2.4385       0.2223       0.1918
   2933.6626   2648.5747  -2623.5747      88.6217      55.7527       0.1286       0.2765       0.1208       2.4382       0.2185       0.1265
   2933.7876   2648.5996  -2623.5996      92.4792      57.5798       0.4255       0.2782       0.1394       2.4030       0.1801       0.1148
   2933.9126   2648.6243  -2623.6243      97.1280      57.9507       0.6194       0.2778       0.1522       2.3786       0.1598       0.1173
   2934.0376   2648.6492  -2623.6492     100.2464      54.1387       0.4826       0.2809       0.1441       2.3941       0.1807       0.1223
   2934.1626   2648.6738  -2623.6738     101.5949      53.6893       0.1220       0.2866       0.1195       2.4410       0.2171       0.1689
   2934.2876   2648.6987  -2623.6987      99.4068      59.5132       0.2198       0.2957       0.1310       2.4189       0.2058       0.1807
   2934.4126   2648.7234  -2623.7234      96.8581      54.8738       0.1955       0.3084       0.1289       2.4224       0.2901       0.1043
   2934.5376   2648.7483  -2623.7483      96.1749      50.7588       0.0998       0.3063       0.1067       2.4646       0.3183       0.0589
   2934.6626   2648.7729  -2623.7729      97.3191      49.1132       0.0184       0.2982       0.0803       2.5150       0.4113       0.0611
   2934.7876   2648.7979  -2623.7979      99.1433      49.5066       0.0080       0.2948       0.0604       2.5537       1.0273       0.0877
   2934.9126   2648.8225  -2623.8225      99.8726      54.7324       0.0009       0.2817       0.0144       2.6423       3.3518       0.1162
   2935.0376   2648.8462  -2623.8462      99.6348      53.8895       0.0010       0.2816       0.0229       2.6260       1.6629       0.0785
   2935.1626   2648.8669  -2623.8669      99.1305      50.2054       0.0013       0.2869       0.0290       2.6146       1.0502       0.0477
   2935.2876   2648.8877  -2623.8877      98.3990      49.0905       0.0020       0.2922       0.0364       2.6006       0.9141       0.0726
   2935.4126   2648.9084  -2623.9084      97.7356      52.1950       0.0033       0.2963       0.0466       2.5810       0.7629       0.1295
   2935.5376   2648.9292  -2623.9292      97.5248      57.0058       0.0053       0.3008       0.0562       2.5626       0.5859       0.1422
   2935.6626   2648.9500  -2623.9500      96.4551      57.5432       0.0127       0.3005       0.0734       2.5290       0.3091       0.1620
   2935.7876   2648.9707  -2623.9707      95.2198      58.0911       0.1965       0.2952       0.1179       2.4431       0.2063       0.1590
   2935.9126   2648.9915  -2623.9915      92.0215      54.1933       0.2072       0.2933       0.1293       2.4209       0.1830       0.1081
   2936.0376   2649.0122  -2624.0122      88.4395      51.4483       3.1462       0.2976       0.1281       2.4239       0.1789       0.0759
   2936.1626   2649.0330  -2624.0330      86.0898      53.9375      11.3248       0.3049       0.1429       2.3965       0.1595       0.1051
   2936.2876   2649.0537  -2624.0537      84.4852      55.9158      23.2303       0.3025       0.1684       2.3472       0.1309       0.1284
   2936.4126   2649.0745  -2624.0745      85.0132      51.9180      16.9199       0.3049       0.1578       2.3676       0.1383       0.0814
   2936.5376   2649.0952  -2624.0952      85.9261      53.1591      32.8582       0.3038       0.1761       2.3322       0.1226       0.0960
   2936.6626   2649.1160  -2624.1160      86.5561      53.8333      49.8334       0.3060       0.1930       2.2991       0.1095       0.1039
   2936.7876   2649.1367  -2624.1367      87.0325      49.9413      48.2848       0.3115       0.1897       2.3051       0.1115       0.0690
   2936.9126   2649.1575  -2624.1575      87.8507      42.2093      22.9189       0.3151       0.1676       2.3480       0.1227       0.0111
   2937.0376   2649.1782  -2624.1782      88.1425      50.1076      37.9845       0.3120       0.1840       2.3168       0.0997       0.1253
   2937.1626   2649.1990  -2624.1990      87.1522      56.8046      66.0174       0.2988       0.2011       2.2835       0.0961       0.1579
