#------------------------------------------------------------------------------
#
#   Created by  : [OpenWorks] Log Export Utility (LEXP)
#   Created on  : 2007-05-07 11:57:46
#   Project     : NORNE
#   User        : JSE
#   Interpreter : JSE
#
#------------------------------------------------------------------------------
~VERSION INFORMATION
VERS. 2.0 : CWLS Log ASCII Standard - version 2.0
WRAP.  NO : One line per depth step
~WELL INFORMATION
#MNEMONIC   .UNIT                                           VALUE :DESCRIPTION
#------------------------------------------------------------------------------
STRT        .M                                          1250.1914 :START DEPTH
STOP        .M                                          3136.8164 :STOP DEPTH
STEP        .M                                             0.1250 :STEP
NULL        .                                           -999.2500 :NULL VALUE
COMP        .                                             STATOIL :COMPANY
WELL        .                                       6608/10-D-4 H :WELL
FLD         .                                               NORNE :FIELD
LOC         .                                             UNKNOWN :LOCATION
CNTY        .                                             UNKNOWN :COUNTY
STAT        .                                             UNKNOWN :STATE
CTRY        .                                              Norway :COUNTRY
SRVC        .                                             UNKNOWN :SERVICE COMPANY
DATE        .                                             UNKNOWN :LOG DATE
UWI         .                                    NO 6608/10-D-4 H :UNIQUE WELL ID
XCOORD      .                                       457259.082734 :SURFACE X
YCOORD      .                                      7321952.911776 :SURFACE Y
LAT         .                                           66.013783 :LATITUDE
LON         .                                            8.057803 :LONGITUDE
ELEV        .M                                            22.0000 :SURFACE ELEV
ELEV_TYPE   .                                                  KB :ELEV TYPE
~CURVE INFORMATION
#MNEMONIC.UNIT        API CODE       : CURVE DESCRIPTION
#------------------------------------------------------------------------------
DEPTH    .M                          : Measured Depth
TVD      .M                          : True Vertical Depth (TVD)
TVDSS    .M                          : True Vertical Depth (TVDSS)
DT       .us/ft                      : DT:UNKNOWN:rC:NONE:v1 
DTS      .us/ft                      : DTS:UNKNOWN:rC:NONE:v1 
GR       .API                        : GR:UNKNOWN:rC:NONE:v1 
KLOGH    .mD          UNKNOWN        : KLOGH:UNKNOWN:rC::v0 (auto-composite)
NPHI     .v/v_decimal                : NPHI:UNKNOWN:rC:NONE:v1 
PHIF     .v/v_decimal UNKNOWN        : PHIF:UNKNOWN:rC::v0 (auto-composite)
RHOB     .g/cm3                      : RHOB:UNKNOWN:rC:NONE:v1 
SW       .v/v_decimal UNKNOWN        : SW:UNKNOWN:rC::v0 (auto-composite)
VSH      .v/v_decimal UNKNOWN        : VSH:UNKNOWN:rC::v0 (auto-composite)
~A     DEPTH         TVD       TVDSS           DT          DTS           GR        KLOGH         NPHI         PHIF         RHOB           SW          VSH
# ...
   2946.6914   2757.0623  -2735.0623      90.5154     150.7694      69.5702     185.5267       0.2470       0.2563       2.2297       1.0000       0.1269
   2946.8164   2757.1533  -2735.1533      90.1881     148.5457      68.6983     160.5118       0.2494       0.2525       2.2361       1.0000       0.1161
   2946.9414   2757.2444  -2735.2444      89.7779     145.9825      68.0280     118.9969       0.2500       0.2444       2.2492       1.0000       0.1078
   2947.0664   2757.3352  -2735.3352      89.2348     142.9485      67.5561      87.2628       0.2517       0.2359       2.2630       1.0000       0.1019
   2947.1914   2757.4263  -2735.4263      88.5253     139.6932      66.7772      72.0938       0.2541       0.2313       2.2706       1.0000       0.0923
   2947.3164   2757.5173  -2735.5173      87.6481     136.6345      65.6881      73.5910       0.2562       0.2318       2.2699       1.0000       0.0788
   2947.4414   2757.6082  -2735.6082      86.6388     134.2602      64.5650      82.6451       0.2567       0.2350       2.2647       1.0000       0.0649
   2947.5664   2757.6992  -2735.6992      85.5580     133.0560      63.9450      76.4789       0.2550       0.2329       2.2680       1.0000       0.0572
   2947.6914   2757.7903  -2735.7903      84.5936     133.4082      64.4005      44.9073       0.2489       0.2176       2.2930       1.0000       0.0629
   2947.8164   2757.8813  -2735.8813      83.7381     134.3149      65.1023      21.8390       0.2417       0.1960       2.3285       1.0000       0.0716
   2947.9414   2757.9722  -2735.9722      83.0217     135.2981      65.4742       8.3739       0.2363       0.1720       2.3680       1.0000       0.0761
   2948.0664   2758.0632  -2736.0632      82.4544     136.0150      65.0939       2.5451       0.2346       0.1485       2.4065       1.0000       0.0714
   2948.1914   2758.1543  -2736.1543      82.0414     136.2666      63.8082       0.9271       0.2367       0.1282       2.4398       1.0000       0.0555
   2948.3164   2758.2451  -2736.2451      81.8026     135.9097      62.1343       0.5941       0.2380       0.1182       2.4562       1.0000       0.0347
   2948.4414   2758.3362  -2736.3362      81.7032     135.0656      61.7886       0.7976       0.2313       0.1246       2.4456       1.0000       0.0304
   2948.5664   2758.4272  -2736.4272      81.6946     133.9681      62.8323       1.4766       0.2194       0.1371       2.4251       1.0000       0.0434
   2948.6914   2758.5183  -2736.5183      81.7749     132.7316      64.7401       2.0231       0.2074       0.1458       2.4109       1.0000       0.0670
   2948.8164   2758.6091  -2736.6091      81.9594     131.4574      66.8263       1.8650       0.2003       0.1425       2.4164       1.0000       0.0929
   2948.9414   2758.7002  -2736.7002      82.2740     130.2500      68.4400       0.7323       0.2020       0.1232       2.4480       1.0000       0.1129
   2949.0664   2758.7913  -2736.7913      82.7862     129.4456      69.1058       0.3224       0.2095       0.1024       2.4820       1.0000       0.1211
   2949.1914   2758.8821  -2736.8821      83.3691     129.3213      69.5116       0.2343       0.2162       0.0978       2.4897       1.0000       0.1262
   2949.3164   2758.9731  -2736.9731      83.9613     129.9267      70.7083       0.3707       0.2227       0.1062       2.4759       1.0000       0.1410
   2949.4414   2759.0642  -2737.0642      84.5113     131.1725      73.2993       0.7415       0.2301       0.1216       2.4507       1.0000       0.1731
   2949.5664   2759.1553  -2737.1553      84.9807     132.8408      77.4156       1.3745       0.2389       0.1368       2.4257       1.0000       0.2241
   2949.6914   2759.2461  -2737.2461      85.3343     134.5679      82.4732       2.1810       0.2471       0.1473       2.4084       1.0000       0.2868
   2949.8164   2759.3372  -2737.3372      85.5614     136.0660      87.2893       2.1154       0.2494       0.1468       2.4093       1.0000       0.3467
   2949.9414   2759.4282  -2737.4282      85.6937     137.3130      90.8392       1.2952       0.2465       0.1328       2.4323       1.0000       0.3906
   2950.0664   2759.5190  -2737.5190      85.7503     138.2856      92.6802       0.5010       0.2410       0.1102       2.4693       1.0000       0.4134
   2950.1914   2759.6101  -2737.6101      85.7562     138.9787      92.8014       0.1518       0.2359       0.0872       2.5071       1.0000       0.4149
   2950.3164   2759.7012  -2737.7012      85.7419     139.4059      91.6218       0.0797       0.2336       0.0736       2.5293       1.0000       0.4003
   2950.4414   2759.7922  -2737.7922      85.7394     139.5837      89.7229       0.1323       0.2337       0.0846       2.5112       1.0000       0.3767
   2950.5664   2759.8831  -2737.8831      85.7578     139.6879      88.8831       0.3820       0.2350       0.1054       2.4770       1.0000       0.3663
   2950.6914   2759.9741  -2737.9741      85.7965     139.8367      90.1824       0.9113       0.2383       0.1254       2.4443       1.0000       0.3824
   2950.8164   2760.0652  -2738.0652      85.8495     140.1037      93.3012       1.5319       0.2438       0.1393       2.4216       1.0000       0.4211
   2950.9414   2760.1560  -2738.1560      85.9061     140.5309      97.0708       1.9721       0.2507       0.1452       2.4112       1.0000       0.4678
   2951.0664   2760.2471  -2738.2471      85.9495     141.1348      99.5988       2.0415       0.2562       0.1461       2.4063       1.0000       0.4991
   2951.1914   2760.3381  -2738.3381      85.9605     141.8591      99.9908       2.0675       0.2574       0.1463       2.4045       1.0000       0.5040
   2951.3164   2760.4290  -2738.4290      85.9233     142.5820      99.5558       2.0723       0.2567       0.1463       2.4076       1.0000       0.4986
   2951.4414   2760.5200  -2738.5200      85.8170     143.2288      99.1644       1.9414       0.2553       0.1448       2.4125       1.0000       0.4938
   2951.5664   2760.6111  -2738.6111      85.6287     143.7488      99.3012       1.7927       0.2541       0.1431       2.4153       1.0000       0.4955
   2951.6914   2760.7021  -2738.7021      85.3578     144.1176      99.9675       1.9137       0.2539       0.1446       2.4129       1.0000       0.5038
   2951.8164   2760.7930  -2738.7930      85.0392     144.3068     100.2763       2.0018       0.2554       0.1455       2.4113       1.0000       0.5075
   2951.9414   2760.8840  -2738.8840      84.7707     144.3714     100.4170       1.2843       0.2570       0.1343       2.4297       1.0000       0.5093
   2952.0664   2760.9751  -2738.9751      84.6133     144.4184     100.8320       0.5835       0.2557       0.1127       2.4653       1.0000       0.5144
   2952.1914   2761.0659  -2739.0659      84.6106     144.5612     101.1415       0.1704       0.2507       0.0872       2.5071       1.0000       0.5183
   2952.3164   2761.1570  -2739.1570      84.7952     144.9123     100.6583       0.0600       0.2430       0.0674       2.5395       1.0000       0.5123
   2952.4414   2761.2480  -2739.2480      85.1974     145.5792      98.5644       0.0560       0.2350       0.0659       2.5419       1.0000       0.4863
   2952.5664   2761.3391  -2739.3391      85.8618     146.5721      94.9801       0.1556       0.2341       0.0867       2.5078       1.0000       0.4418
   2952.6914   2761.4299  -2739.4299      86.6848     147.6667      91.7200       0.6154       0.2402       0.1138       2.4633       1.0000       0.4015
   2952.8164   2761.5210  -2739.5210      87.5892     148.7877      90.1598       1.5597       0.2485       0.1372       2.4218       1.0000       0.3822
   2952.9414   2761.6121  -2739.6121      88.4944     149.9332      91.2356       3.1025       0.2546       0.1541       2.3883       0.9977       0.3955
   2953.0664   2761.7029  -2739.7029      89.3238     151.1879      95.2362       5.4397       0.2556       0.1674       2.3605       0.9865       0.4451
