#------------------------------------------------------------------------------
#
#   Created by  : [OpenWorks] Log Export Utility (LEXP)
#   Created on  : 2007-05-07 11:57:08
#   Project     : NORNE
#   User        : JSE
#   Interpreter : JSE
#
#------------------------------------------------------------------------------
~VERSION INFORMATION
VERS. 2.0 : CWLS Log ASCII Standard - version 2.0
WRAP.  NO : One line per depth step
~WELL INFORMATION
#MNEMONIC   .UNIT                                           VALUE :DESCRIPTION
#------------------------------------------------------------------------------
STRT        .M                                          1375.3750 :START DEPTH
STOP        .M                                          3298.0000 :STOP DEPTH
STEP        .M                                             0.1250 :STEP
NULL        .                                           -999.2500 :NULL VALUE
COMP        .                                             STATOIL :COMPANY
WELL        .                                       6608/10-C-1 H :WELL
FLD         .                                               NORNE :FIELD
LOC         .                                             UNKNOWN :LOCATION
CNTY        .                                             UNKNOWN :COUNTY
STAT        .                                             UNKNOWN :STATE
CTRY        .                                              Norway :COUNTRY
SRVC        .                                             UNKNOWN :SERVICE COMPANY
DATE        .                                             UNKNOWN :LOG DATE
UWI         .                                    NO 6608/10-C-1 H :UNIQUE WELL ID
XCOORD      .                                       457190.110178 :SURFACE X
YCOORD      .                                      7322024.307354 :SURFACE Y
LAT         .                                           66.014414 :LATITUDE
LON         .                                            8.056259 :LONGITUDE
ELEV        .M                                            22.0000 :SURFACE ELEV
ELEV_TYPE   .                                                  KB :ELEV TYPE
~CURVE INFORMATION
#MNEMONIC.UNIT        API CODE       : CURVE DESCRIPTION
#------------------------------------------------------------------------------
DEPTH    .M                          : Measured Depth
TVD      .M                          : True Vertical Depth (TVD)
TVDSS    .M                          : True Vertical Depth (TVDSS)
DT       .us/ft                      : DT:UNKNOWN:rC:NONE:v1 
DTS      .us/ft                      : DTS:UNKNOWN:rC:NONE:v1 
GR       .API         UNKNOWN        : GR:GR:rC:NONE:v1 
KLOGH    .mD          UNKNOWN        : KLOGH:UNKNOWN:rC::v0 (auto-composite)
NPHI     .v/v_decimal                : NPHI:UNKNOWN:rC:NONE:v1 
PHIF     .v/v_decimal UNKNOWN        : PHIF:UNKNOWN:rC::v0 (auto-composite)
RHOB     .g/cm3       UNKNOWN        : RHOB:UNKNOWN:rC:NONE:v1 
SW       .v/v_decimal UNKNOWN        : SW:UNKNOWN:rC::v0 (auto-composite)
VSH      .v/v_decimal UNKNOWN        : VSH:UNKNOWN:rC::v0 (auto-composite)
~A     DEPTH         TVD       TVDSS           DT          DTS           GR        KLOGH         NPHI         PHIF         RHOB           SW          VSH
# ...
   3097.8750   2771.5334  -2749.5334      83.6561     136.2723     101.6970       0.2402       0.2399       0.0983       2.4887       1.0000       0.3855
   3098.0000   2771.6553  -2749.6553      82.7145     137.8030     104.5882       0.1808       0.2451       0.0920       2.4991       1.0000       0.4319
   3098.1250   2771.7771  -2749.7771      81.8136     139.2799     107.0442       0.1768       0.2507       0.0915       2.4999       1.0000       0.4713
   3098.2500   2771.8989  -2749.8989      80.9677     139.9325     109.4645       0.1597       0.2591       0.0892       2.5036       1.0000       0.5101
   3098.3750   2772.0208  -2750.0208      80.0741     139.7091     111.9913       0.1194       0.2697       0.0828       2.5143       1.0000       0.5507
   3098.5000   2772.1426  -2750.1426      79.0282     138.6265     114.4884       0.0831       0.2803       0.0747       2.5275       1.0000       0.5907
   3098.6250   2772.2644  -2750.2644      77.7769     136.6044     116.6599       0.0603       0.2877       0.0675       2.5392       1.0000       0.6256
   3098.7500   2772.3862  -2750.3862      76.3600     133.3840     118.0770       0.0460       0.2887       0.0615       2.5490       1.0000       0.6483
   3098.8750   2772.5081  -2750.5081      75.0197     128.7449     117.9870       0.0314       0.2776       0.0530       2.5630       1.0000       0.6469
   3099.0000   2772.6299  -2750.6299      73.9294     123.5987     116.6298       0.0207       0.2593       0.0437       2.5783       1.0000       0.6251
   3099.1250   2772.7517  -2750.7517      73.0761     118.4889     114.0586       0.0184       0.2397       0.0410       2.5827       1.0000       0.5838
   3099.2500   2772.8735  -2750.8735      72.4302     114.0470     110.4957       0.0288       0.2234       0.0510       2.5663       1.0000       0.5267
   3099.3750   2772.9954  -2750.9954      71.9683     110.9546     106.3330       0.0927       0.2141       0.0771       2.5235       1.0000       0.4598
   3099.5000   2773.1172  -2751.1172      71.7845     110.3154     102.2682       0.5580       0.2147       0.1171       2.4579       0.7741       0.3946
   3099.6250   2773.2390  -2751.2390      72.0704     112.9659      99.1451       2.4725       0.2201       0.1503       2.4035       0.6740       0.3446
   3099.7500   2773.3608  -2751.3608      72.7573     117.9108      97.1315       4.1923       0.2221       0.1621       2.3842       0.6952       0.3123
   3099.8750   2773.4827  -2751.4827      73.6812     124.1059      96.0654       2.7040       0.2178       0.1523       2.4002       0.8153       0.2952
   3100.0000   2773.6045  -2751.6045      74.6394     130.3594      95.5410       0.9103       0.2080       0.1280       2.4400       1.0000       0.2868
   3100.1250   2773.7263  -2751.7263      75.4274     135.4725      94.9564       0.2858       0.1972       0.1022       2.4823       1.0000       0.2774
   3100.2500   2773.8481  -2751.8481      75.8918     138.1367      93.4032       0.2184       0.1927       0.0962       2.4922       1.0000       0.2525
   3100.3750   2773.9700  -2751.9700      76.0843     138.8088      90.6838       0.4236       0.1940       0.1110       2.4679       1.0000       0.2088
   3100.5000   2774.0918  -2752.0918      76.0370     138.0254      86.9803       1.2924       0.1982       0.1358       2.4272       1.0000       0.1494
   3100.6250   2774.2136  -2752.2136      75.7742     136.1704      82.9729       3.3137       0.2023       0.1568       2.3928       0.9536       0.0851
   3100.7500   2774.3354  -2752.3354      75.3336     133.5377      79.7544       3.9293       0.2035       0.1606       2.3865       0.9777       0.0335
   3100.8750   2774.4573  -2752.4573      74.7872     130.2335      79.1554       1.4972       0.2007       0.1391       2.4218       1.0000       0.0239
   3101.0000   2774.5791  -2752.5791      74.2707     126.6731      82.3726       0.3372       0.1970       0.1059       2.4763       1.0000       0.0755
   3101.1250   2774.7009  -2752.7009      73.8406     123.4366      87.3174       0.1151       0.1961       0.0819       2.5156       1.0000       0.1548
   3101.2500   2774.8228  -2752.8228      73.5081     121.0207      92.3029       0.0794       0.1976       0.0737       2.5291       1.0000       0.2348
   3101.3750   2774.9446  -2752.9446      73.2627     119.7748      96.0032       0.1060       0.2008       0.0801       2.5186       1.0000       0.2942
   3101.5000   2775.0664  -2753.0664      73.0753     119.8481      97.6294       0.1958       0.2051       0.0938       2.4962       1.0000       0.3203
   3101.6250   2775.1882  -2753.1882      72.8825     121.0723      97.0911       0.2867       0.2087       0.1023       2.4822       1.0000       0.3116
   3101.7500   2775.3101  -2753.3101      72.5605     122.5811      95.5099       0.2383       0.2051       0.0982       2.4890       1.0000       0.2863
   3101.8750   2775.4319  -2753.4319      72.0161     123.9024      93.2506       0.1204       0.1940       0.0829       2.5139       1.0000       0.2500
   3102.0000   2775.5537  -2753.5537      71.2351     124.7248      90.5076       0.0442       0.1775       0.0606       2.5505       1.0000       0.2060
   3102.1250   2775.6755  -2753.6755      70.2700     124.7479      87.5241       0.0154       0.1598       0.0371       2.5891       1.0000       0.1581
   3102.2500   2775.7974  -2753.7974      69.2566     123.5491      84.7302       0.0072       0.1463       0.0201       2.6170       1.0000       0.1133
   3102.3750   2775.9192  -2753.9192      68.4072     120.8803      82.6315       0.0070       0.1416       0.0195       2.6180       1.0000       0.0797
   3102.5000   2776.0410  -2754.0410      67.7413     117.5987      80.7368       0.0115       0.1413       0.0307       2.5997       1.0000       0.0493
   3102.6250   2776.1628  -2754.1628      67.2686     114.5702      78.7740       0.0264       0.1419       0.0491       2.5695       1.0000       0.0178
   3102.7500   2776.2847  -2754.2847      67.0321     112.6725      76.7885       0.0669       0.1424       0.0698       2.5354       1.0000       0.0010
   3102.8750   2776.4065  -2754.4065      67.1046     112.6174      75.1150       0.1523       0.1438       0.0882       2.5053       1.0000       0.0010
   3103.0000   2776.5283  -2754.5283      67.6576     114.5448      74.5004       0.2551       0.1523       0.0997       2.4865       1.0000       0.0010
   3103.1250   2776.6501  -2754.6501      68.7191     117.4820      75.3820       0.2951       0.1646       0.1029       2.4811       1.0000       0.0010
   3103.2500   2776.7720  -2754.7720      70.1032     120.8030      77.6482       0.2377       0.1754       0.0981       2.4891       1.0000       0.0010
   3103.3750   2776.8938  -2754.8938      71.6421     124.1148      80.9347       0.1592       0.1834       0.0892       2.5037       1.0000       0.0525
   3103.5000   2777.0156  -2755.0156      73.1746     127.0846      84.6342       0.1165       0.1892       0.0822       2.5151       1.0000       0.1118
   3103.6250   2777.1375  -2755.1375      74.5820     129.4570      87.9320       0.1303       0.1957       0.0847       2.5110       1.0000       0.1643
   3103.7500   2777.2593  -2755.2593      75.6753     130.5837      90.0544       0.2842       0.2067       0.1021       2.4825       1.0000       0.1987
   3103.8750   2777.3811  -2755.3811      76.5333     130.6028      91.8412       0.6566       0.2191       0.1207       2.4519       1.0000       0.2274
   3104.0000   2777.5029  -2755.5029      77.1494     129.7779      93.6598       1.1575       0.2302       0.1334       2.4312       1.0000       0.2566
   3104.1250   2777.6248  -2755.6248      77.5171     128.4408      95.6426       1.4160       0.2385       0.1379       2.4238       1.0000       0.2884
   3104.2500   2777.7466  -2755.7466      77.6148     126.8805      97.6813       1.2900       0.2437       0.1358       2.4272       1.0000       0.3211
