#------------------------------------------------------------------------------
#
#   Created by  : [OpenWorks] Log Export Utility (LEXP)
#   Created on  : 2007-05-07 11:57:18
#   Project     : NORNE
#   User        : JSE
#   Interpreter : JSE
#
#------------------------------------------------------------------------------
~VERSION INFORMATION
VERS. 2.0 : CWLS Log ASCII Standard - version 2.0
WRAP.  NO : One line per depth step
~WELL INFORMATION
#MNEMONIC   .UNIT                                           VALUE :DESCRIPTION
#------------------------------------------------------------------------------
STRT        .M                                           437.6250 :START DEPTH
STOP        .M                                          2890.0000 :STOP DEPTH
STEP        .M                                             0.1250 :STEP
NULL        .                                           -999.2500 :NULL VALUE
COMP        .                                             STATOIL :COMPANY
WELL        .                                       6608/10-C-4 H :WELL
FLD         .                                               NORNE :FIELD
LOC         .                                             UNKNOWN :LOCATION
CNTY        .                                             UNKNOWN :COUNTY
STAT        .                                             UNKNOWN :STATE
CTRY        .                                              Norway :COUNTRY
SRVC        .                                             UNKNOWN :SERVICE COMPANY
DATE        .                                             UNKNOWN :LOG DATE
UWI         .                                    NO 6608/10-C-4 H :UNIQUE WELL ID
XCOORD      .                                       457180.075915 :SURFACE X
YCOORD      .                                      7322034.182216 :SURFACE Y
LAT         .                                           66.014501 :LATITUDE
LON         .                                            8.056034 :LONGITUDE
ELEV        .M                                            25.0000 :SURFACE ELEV
ELEV_TYPE   .                                                  KB :ELEV TYPE
~CURVE INFORMATION
#MNEMONIC.UNIT        API CODE       : CURVE DESCRIPTION
#------------------------------------------------------------------------------
DEPTH    .M                          : Measured Depth
TVD      .M                          : True Vertical Depth (TVD)
TVDSS    .M                          : True Vertical Depth (TVDSS)
DT       .us/ft                      : DT:UNKNOWN:rC:NONE:v1 
GR       .API                        : GR:UNKNOWN:rC:NONE:v1 
KLOGH    .mD          UNKNOWN        : KLOGH:UNKNOWN:rC::v0 (auto-composite)
NPHI     .v/v_decimal                : NPHI:UNKNOWN:rC:NONE:v1 
PHIF     .v/v_decimal UNKNOWN        : PHIF:UNKNOWN:rC::v0 (auto-composite)
RHOB     .g/cm3                      : RHOB:UNKNOWN:rC:NONE:v1 
SW       .v/v_decimal UNKNOWN        : SW:UNKNOWN:rC::v0 (auto-composite)
VSH      .v/v_decimal UNKNOWN        : VSH:UNKNOWN:rC::v0 (auto-composite)
~A     DEPTH         TVD       TVDSS           DT           GR        KLOGH         NPHI         PHIF         RHOB           SW          VSH
# ...
   2646.3750   2622.3801  -2597.3801      96.6896      80.9798     110.7370       0.2485       0.2564       2.2347       0.2004       0.1036
   2646.5000   2622.5051  -2597.5051      95.8386      83.1138     113.4762       0.2419       0.2569       2.2333       0.2160       0.1313
   2646.6250   2622.6301  -2597.6301      94.7515      81.6073      54.8978       0.2356       0.2424       2.2594       0.2426       0.1118
   2646.7500   2622.7551  -2597.7551      93.5322      78.2879      16.1781       0.2318       0.2179       2.3026       0.2798       0.0686
   2646.8750   2622.8801  -2597.8801      92.3983      90.7823      24.9957       0.2300       0.2266       2.2805       0.2803       0.2310
   2647.0000   2623.0051  -2598.0051      91.6320      88.2177       0.6147       0.2287       0.1525       2.4177       0.4328       0.1976
   2647.1250   2623.1301  -2598.1301      91.1893      84.4061       0.0152       0.2292       0.0784       2.5404       0.8260       0.1481
   2647.2500   2623.2551  -2598.2551      90.9881      84.5296       0.0053       0.2323       0.0573       2.5751       1.0000       0.1497
   2647.3750   2623.3801  -2598.3801      90.9491      89.0406       0.0301       0.2380       0.0920       2.5139       0.5872       0.2083
   2647.5000   2623.5051  -2598.5051      91.0197      94.1848       0.9351       0.2449       0.1609       2.4037       0.3070       0.2751
   2647.6250   2623.6301  -2598.6301      91.2970      96.0351     122.9008       0.2488       0.2585       2.2224       0.1700       0.2992
   2647.7500   2623.7551  -2598.7551      91.8886      98.8939      83.4931       0.2493       0.2508       2.2391       0.1716       0.3363
   2647.8750   2623.8801  -2598.8801      92.7263      96.0406      13.0865       0.2494       0.2137       2.3062       0.2075       0.2992
   2648.0000   2624.0051  -2599.0051      93.6719      92.1296     107.8062       0.2499       0.2182       2.2873       0.2599       0.2484
   2648.1250   2624.1299  -2599.1299      94.5616      90.0282     762.7888       0.2506       0.2815       2.1629       0.1907       0.2212
   2648.2500   2624.2549  -2599.2549      95.2386      78.6995     436.0779       0.2498       0.2634       2.2015       0.1818       0.0739
   2648.3750   2624.3799  -2599.3799      95.6955      72.9838    1310.9521       0.2480       0.2990       2.1360       0.1221       0.0010
   2648.5000   2624.5049  -2599.5049      96.1131      72.8753    2052.6108       0.2475       0.3135       2.1162       0.0788       0.0010
   2648.6250   2624.6299  -2599.6299      96.5385      75.7356    3296.3062       0.2483       0.3288       2.1013       0.0678       0.0355
   2648.7500   2624.7549  -2599.7549      96.9586      77.8881    3895.4302       0.2504       0.3342       2.0982       0.0708       0.0635
   2648.8750   2624.8799  -2599.8799      97.3029      76.1067    1795.0054       0.2538       0.3092       2.1448       0.0821       0.0403
   2649.0000   2625.0049  -2600.0049      97.3735      73.9717    1414.8979       0.2572       0.3015       2.1547       0.0848       0.0126
   2649.1250   2625.1299  -2600.1299      96.9861      73.0429    1933.2543       0.2561       0.3116       2.1404       0.0822       0.0010
   2649.2500   2625.2549  -2600.2549      96.1609      74.1034    2194.1479       0.2513       0.3157       2.1345       0.0790       0.0143
   2649.3750   2625.3799  -2600.3799      94.9948      73.9744    2240.0471       0.2443       0.3163       2.1326       0.0768       0.0127
   2649.5000   2625.5049  -2600.5049      93.6502      71.1641    2315.3906       0.2360       0.3174       2.1314       0.0768       0.0010
   2649.6250   2625.6299  -2600.6299      92.3270      69.2050    1895.8008       0.2250       0.3109       2.1480       0.0820       0.0010
   2649.7500   2625.7549  -2600.7549      91.3247      64.9218     281.0741       0.2137       0.2492       2.2575       0.1104       0.0010
   2649.8750   2625.8799  -2600.8799      90.5221      65.1751      76.4045       0.2057       0.2071       2.3271       0.1317       0.0010
   2650.0000   2626.0046  -2601.0046      89.8760      63.7576      60.5454       0.2011       0.1996       2.3386       0.1333       0.0010
   2650.1250   2626.1296  -2601.1296      89.4000      60.7301      71.0082       0.2005       0.2047       2.3104       0.1251       0.0010
   2650.2500   2626.2546  -2601.2546      89.1843      59.8042     116.1224       0.2042       0.2206       2.2732       0.1057       0.0010
   2650.3750   2626.3796  -2601.3796      89.5190      61.6290     516.8779       0.2128       0.2689       2.1945       0.0681       0.0010
   2650.5000   2626.5046  -2601.5046      90.4983      61.3101     554.5435       0.2232       0.2712       2.1977       0.0551       0.0010
   2650.6250   2626.6296  -2601.6296      91.8177      63.2666    1107.2567       0.2316       0.2935       2.1629       0.0522       0.0010
   2650.7500   2626.7546  -2601.7546      93.2248      66.3215    2259.1497       0.2362       0.3166       2.1280       0.0558       0.0010
   2650.8750   2626.8796  -2601.8796      94.5085      67.5153    2280.5176       0.2366       0.3169       2.1336       0.0680       0.0010
   2651.0000   2627.0046  -2602.0046      95.5270      63.1990    1144.1121       0.2343       0.2946       2.1780       0.0989       0.0010
   2651.1250   2627.1296  -2602.1296      96.2712      68.3373    2768.2795       0.2360       0.3232       2.1272       0.1091       0.0010
   2651.2500   2627.2546  -2602.2546      96.8018      68.6726    2605.8137       0.2385       0.3212       2.1066       0.1143       0.0010
   2651.3750   2627.3796  -2602.3796      97.1191      69.2622    2370.3936       0.2401       0.3182       2.1138       0.1170       0.0010
   2651.5000   2627.5046  -2602.5046      97.2238      72.5034    2236.2849       0.2419       0.3163       2.1345       0.1234       0.0010
   2651.6250   2627.6296  -2602.6296      97.1433      77.9041    1709.2271       0.2459       0.3076       2.1456       0.1336       0.0637
   2651.7500   2627.7546  -2602.7546      96.9653      78.9937    2141.7361       0.2520       0.3149       2.1136       0.1179       0.0778
   2651.8750   2627.8796  -2602.8796      96.8174      77.2597    1369.6566       0.2555       0.3004       2.1359       0.1230       0.0553
   2652.0000   2628.0044  -2603.0044      96.6827      72.5890    1379.0530       0.2572       0.3006       2.1400       0.1204       0.0010
   2652.1250   2628.1294  -2603.1294      96.5318      68.3695    1799.0917       0.2572       0.3092       2.1287       0.0918       0.0010
   2652.2500   2628.2544  -2603.2544      96.3832      67.1294    1776.6372       0.2561       0.3088       2.1276       0.0733       0.0010
   2652.3750   2628.3794  -2603.3794      96.3182      69.4691     997.9846       0.2544       0.2902       2.1697       0.0750       0.0010
   2652.5000   2628.5044  -2603.5044      96.5800      72.0545    1199.9070       0.2555       0.2961       2.1623       0.0767       0.0010
   2652.6250   2628.6294  -2603.6294      97.1562      71.5602    1229.1331       0.2560       0.2969       2.1610       0.0744       0.0010
   2652.7500   2628.7544  -2603.7544      97.8693      70.5921    1835.7327       0.2545       0.3099       2.1377       0.0700       0.0010
   2652.8750   2628.8794  -2603.8794      98.5475      70.3728    2723.9883       0.2528       0.3227       2.1156       0.0673       0.0010
   2653.0000   2629.0044  -2604.0044      99.0426      70.4313    2551.1677       0.2532       0.3205       2.1209       0.0693       0.0010
   2653.1250   2629.1294  -2604.1294      99.2634      66.8309    2234.6501       0.2557       0.3162       2.1324       0.0794       0.0010
   2653.2500   2629.2544  -2604.2544      99.2766      74.9956    2907.0122       0.2558       0.3248       2.1144       0.0959       0.0259
   2653.3750   2629.3794  -2604.3794      99.2161      76.7437    3734.7791       0.2549       0.3329       2.1042       0.1092       0.0486
