#------------------------------------------------------------------------------
#
#   Created by  : [OpenWorks] Log Export Utility (LEXP)
#   Created on  : 2007-05-07 11:57:11
#   Project     : NORNE
#   User        : JSE
#   Interpreter : JSE
#
#------------------------------------------------------------------------------
~VERSION INFORMATION
VERS. 2.0 : CWLS Log ASCII Standard - version 2.0
WRAP.  NO : One line per depth step
~WELL INFORMATION
#MNEMONIC   .UNIT                                           VALUE :DESCRIPTION
#------------------------------------------------------------------------------
STRT        .M                                          1205.1348 :START DEPTH
STOP        .M                                          4417.7598 :STOP DEPTH
STEP        .M                                             0.1250 :STEP
NULL        .                                           -999.2500 :NULL VALUE
COMP        .                                             STATOIL :COMPANY
WELL        .                                       6608/10-C-2 H :WELL
FLD         .                                               NORNE :FIELD
LOC         .                                             UNKNOWN :LOCATION
CNTY        .                                             UNKNOWN :COUNTY
STAT        .                                             UNKNOWN :STATE
CTRY        .                                              Norway :COUNTRY
SRVC        .                                             UNKNOWN :SERVICE COMPANY
DATE        .                                             UNKNOWN :LOG DATE
UWI         .                                    NO 6608/10-C-2 H :UNIQUE WELL ID
XCOORD      .                                       457185.617758 :SURFACE X
YCOORD      .                                      7322019.729827 :SURFACE Y
LAT         .                                           66.014372 :LATITUDE
LON         .                                            8.056161 :LONGITUDE
ELEV        .M                                            22.0000 :SURFACE ELEV
ELEV_TYPE   .                                                  KB :ELEV TYPE
~CURVE INFORMATION
#MNEMONIC.UNIT        API CODE       : CURVE DESCRIPTION
#------------------------------------------------------------------------------
DEPTH    .M                          : Measured Depth
TVD      .M                          : True Vertical Depth (TVD)
TVDSS    .M                          : True Vertical Depth (TVDSS)
DT       .us/ft       UNKNOWN        : DT:DT:rC::v0 (auto-composite)
DTS      .us/ft       UNKNOWN        : DTS:DTS:rC::v0 (auto-composite)
GR       .API         UNKNOWN        : GR:GR:rC::v0 (auto-composite)
KLOGH    .mD          UNKNOWN        : KLOGH:UNKNOWN:rC:NONE:v1 
NPHI     .v/v_decimal UNKNOWN        : NPHI:NPHI:rC::v0 (auto-composite)
PHIF     .v/v_decimal UNKNOWN        : PHIF:PHIF:rC::v0 (auto-composite)
SW       .v/v_decimal UNKNOWN        : SW:SW:rC::v0 (auto-composite)
VSH      .v/v_decimal UNKNOWN        : VSH:VSH:rC::v0 (auto-composite)
~A     DEPTH         TVD       TVDSS           DT          DTS           GR        KLOGH         NPHI         PHIF           SW          VSH
# ...
   3919.7598   2616.0449  -2594.0449    -999.2500     157.8204      61.6115       2.1638       0.1619       0.1772       0.2822       0.0161
   3919.8848   2616.1086  -2594.1086    -999.2500     155.4296      60.7207       1.7794       0.1538       0.1731       0.2894       0.0072
   3920.0098   2616.1721  -2594.1721    -999.2500     152.9492      60.0437       3.7441       0.1675       0.1875       0.2635       0.0011
   3920.1348   2616.2358  -2594.2358    -999.2500     150.6472      59.2030      10.6969       0.1885       0.2065       0.2360       0.0000
   3920.2598   2616.2993  -2594.2993    -999.2500     148.8126      58.5372      31.3940       0.2116       0.2270       0.2124       0.0000
   3920.3848   2616.3630  -2594.3630    -999.2500     147.6635      58.1095      81.3798       0.2342       0.2469       0.1925       0.0000
   3920.5098   2616.4268  -2594.4268    -999.2500     147.3322      57.9200     170.4872       0.2538       0.2642       0.1756       0.0000
   3920.6348   2616.4902  -2594.4902    -999.2500     147.8835      58.1706     285.4279       0.2667       0.2749       0.1655       0.0000
   3920.7598   2616.5540  -2594.5540    -999.2500     149.2226      58.4580     286.2905       0.2670       0.2751       0.1636       0.0000
   3920.8848   2616.6174  -2594.6174    -999.2500     150.8696      58.7636     201.0884       0.2571       0.2669       0.1683       0.0000
   3921.0098   2616.6812  -2594.6812    -999.2500     152.5925      59.2519     109.4630       0.2424       0.2542       0.1750       0.0000
   3921.1348   2616.7446  -2594.7446    -999.2500     154.1988      59.9442      54.5715       0.2283       0.2413       0.1778       0.0015
   3921.2598   2616.8083  -2594.8083    -999.2500     155.5289      60.6853      32.4235       0.2194       0.2315       0.1706       0.0069
   3921.3848   2616.8718  -2594.8718      83.4480     156.2862      61.1009      27.7578       0.2175       0.2283       0.1447       0.0110
   3921.5098   2616.9355  -2594.9355      84.0510     156.6906      61.5127      22.1890       0.2139       0.2237       0.1316       0.0151
   3921.6348   2616.9993  -2594.9993      85.0187     157.1732      62.6538      14.7470       0.2080       0.2144       0.1328       0.0265
   3921.7598   2617.0627  -2595.0627      86.2198     158.1105      63.2580       9.5731       0.2021       0.2071       0.1389       0.0326
   3921.8848   2617.1265  -2595.1265      87.5751     159.7913      61.9184      21.9225       0.1983       0.2075       0.1487       0.0218
   3922.0098   2617.1899  -2595.1899      89.0791     162.3529      58.3766      89.8545       0.1960       0.2130       0.1905       0.0007
   3922.1348   2617.2537  -2595.2537      90.9576     165.6152      57.1548      79.2803       0.1903       0.2082       0.1985       0.0000
   3922.2598   2617.3171  -2595.3171      93.3394     168.9171      56.7636      92.2374       0.1795       0.2128       0.1968       0.0000
   3922.3848   2617.3809  -2595.3809      96.2275     171.9531      58.5320      70.9073       0.1668       0.1991       0.2112       0.0040
   3922.5098   2617.4443  -2595.4443      99.4326     174.5733      61.4112      31.6932       0.1570       0.1784       0.2301       0.0141
   3922.6348   2617.5081  -2595.5081     102.5971     176.7559      62.3729      39.1241       0.1552       0.1854       0.2220       0.0261
   3922.7598   2617.5715  -2595.5715     105.0447     178.4618      57.4663      44.7667       0.1685       0.1898       0.2170       0.0030
   3922.8848   2617.6353  -2595.6353     106.2279     179.7789      55.7390      87.2513       0.1917       0.2094       0.1998       0.0000
   3923.0098   2617.6990  -2595.6990     106.4248     180.7918      57.5499     185.1691       0.2179       0.2326       0.1824       0.0000
   3923.1348   2617.7625  -2595.7625     106.0776     181.5094      58.8827     354.6740       0.2432       0.2546       0.1684       0.0000
   3923.2598   2617.8262  -2595.8262     105.7329     181.9275      57.0309     573.3575       0.2634       0.2720       0.1590       0.0000
   3923.3848   2617.8896  -2595.8896     105.9760     182.0350      53.7124     757.3315       0.2741       0.2813       0.1544       0.0000
   3923.5098   2617.9534  -2595.9534     106.8406     181.7004      53.6604     693.0803       0.2707       0.2784       0.1556       0.0000
   3923.6348   2618.0168  -2596.0168     107.1349     181.0316      51.6592     560.7451       0.2625       0.2711       0.1589       0.0000
   3923.7598   2618.0806  -2596.0806     106.3810     180.0672      49.2500     469.1043       0.2559       0.2657       0.1615       0.0000
   3923.8848   2618.1440  -2596.1440     104.5629     178.8486      46.9046     455.7553       0.2546       0.2648       0.1621       0.0000
   3924.0098   2618.2078  -2596.2078     102.0870     177.4404      44.6214     507.3004       0.2592       0.2682       0.1607       0.0000
   3924.1348   2618.2712  -2596.2712      99.9611     176.0119      43.8304     605.8863       0.2657       0.2740       0.1583       0.0000
   3924.2598   2618.3350  -2596.3350      98.9010     174.8408      44.0373     620.6411       0.2667       0.2748       0.1580       0.0000
   3924.3848   2618.3987  -2596.3987      98.6440     174.0300      44.3786     557.8989       0.2626       0.2712       0.1559       0.0000
   3924.5098   2618.4622  -2596.4622      98.9088     173.5895      44.7159     473.2462       0.2562       0.2659       0.1516       0.0000
   3924.6348   2618.5259  -2596.5259      99.4437     173.4744      45.0448     542.5839       0.2503       0.2679       0.1445       0.0000
   3924.7598   2618.5894  -2596.5894     100.0935     173.5908      45.3948    1039.0367       0.2462       0.2913       0.1339       0.0000
   3924.8848   2618.6531  -2596.6531     100.9887     173.7861      45.7133     463.1734       0.2449       0.2620       0.1513       0.0000
   3925.0098   2618.7166  -2596.7166     101.7863     173.9142      46.0565     367.8078       0.2465       0.2579       0.1531       0.0000
   3925.1348   2618.7803  -2596.7803     102.2757     173.9253      46.3905     414.0579       0.2512       0.2616       0.1443       0.0000
   3925.2598   2618.8438  -2596.8438     102.3666     173.7736      46.8735     479.5337       0.2570       0.2664       0.1312       0.0000
   3925.3848   2618.9075  -2596.9075     102.1004     173.4352      48.1534     542.9142       0.2617       0.2705       0.1198       0.0000
   3925.5098   2618.9709  -2596.9709     101.7386     172.9314      52.5405     558.1537       0.2628       0.2714       0.1133       0.0000
   3925.6348   2619.0347  -2597.0347     101.5445     172.3678      60.6615     462.5118       0.2645       0.2651       0.1143       0.0239
   3925.7598   2619.0984  -2597.0984     101.4593     171.7830      69.2675     272.4937       0.2680       0.2441       0.1207       0.0927
   3925.8848   2619.1619  -2597.1619     101.4805     171.1632      76.3205     124.8711       0.2702       0.2211       0.1324       0.1632
   3926.0098   2619.2256  -2597.2256     101.5641     170.4894      79.1992      80.9895       0.2679       0.2088       0.1473       0.1920
   3926.1348   2619.2891  -2597.2891     101.6268     169.7445      75.1992      96.0127       0.2582       0.2145       0.1598       0.1520
   3926.2598   2619.3528  -2597.3528     101.7285     168.9027      69.3772     111.0675       0.2402       0.2191       0.1454       0.0938
   3926.3848   2619.4163  -2597.4163     101.8627     168.0131      69.1408      73.9945       0.2223       0.2041       0.1470       0.0914
   3926.5098   2619.4800  -2597.4800     101.9419     167.1202      70.9283      42.2198       0.2094       0.1863       0.1495       0.1093
   3926.6348   2619.5435  -2597.5435     101.9536     166.2632      71.3592      32.6702       0.2033       0.1792       0.1464       0.1136
   3926.7598   2619.6072  -2597.6072     101.9411     165.4805      67.9108      51.5758       0.2032       0.1913       0.1357       0.0795
