#------------------------------------------------------------------------------
#
#   Created by  : [OpenWorks] Log Export Utility (LEXP)
#   Created on  : 2007-05-07 11:57:46
#   Project     : NORNE
#   User        : JSE
#   Interpreter : JSE
#
#------------------------------------------------------------------------------
~VERSION INFORMATION
VERS. 2.0 : CWLS Log ASCII Standard - version 2.0
WRAP.  NO : One line per depth step
~WELL INFORMATION
#MNEMONIC   .UNIT                                           VALUE :DESCRIPTION
#------------------------------------------------------------------------------
STRT        .M                                          1250.1914 :START DEPTH
STOP        .M                                          3136.8164 :STOP DEPTH
STEP        .M                                             0.1250 :STEP
NULL        .                                           -999.2500 :NULL VALUE
COMP        .                                             STATOIL :COMPANY
WELL        .                                       6608/10-D-4 H :WELL
FLD         .                                               NORNE :FIELD
LOC         .                                             UNKNOWN :LOCATION
CNTY        .                                             UNKNOWN :COUNTY
STAT        .                                             UNKNOWN :STATE
CTRY        .                                              Norway :COUNTRY
SRVC        .                                             UNKNOWN :SERVICE COMPANY
DATE        .                                             UNKNOWN :LOG DATE
UWI         .                                    NO 6608/10-D-4 H :UNIQUE WELL ID
XCOORD      .                                       457259.082734 :SURFACE X
YCOORD      .                                      7321952.911776 :SURFACE Y
LAT         .                                           66.013783 :LATITUDE
LON         .                                            8.057803 :LONGITUDE
ELEV        .M                                            22.0000 :SURFACE ELEV
ELEV_TYPE   .                                                  KB :ELEV TYPE
~CURVE INFORMATION
#MNEMONIC.UNIT        API CODE       : CURVE DESCRIPTION
#------------------------------------------------------------------------------
DEPTH    .M                          : Measured Depth
TVD      .M                          : True Vertical Depth (TVD)
TVDSS    .M                          : True Vertical Depth (TVDSS)
DT       .us/ft                      : DT:UNKNOWN:rC:NONE:v1 
DTS      .us/ft                      : DTS:UNKNOWN:rC:NONE:v1 
GR       .API                        : GR:UNKNOWN:rC:NONE:v1 
KLOGH    .mD          UNKNOWN        : KLOGH:UNKNOWN:rC::v0 (auto-composite)
NPHI     .v/v_decimal                : NPHI:UNKNOWN:rC:NONE:v1 
PHIF     .v/v_decimal UNKNOWN        : PHIF:UNKNOWN:rC::v0 (auto-composite)
RHOB     .g/cm3                      : RHOB:UNKNOWN:rC:NONE:v1 
SW       .v/v_decimal UNKNOWN        : SW:UNKNOWN:rC::v0 (auto-composite)
VSH      .v/v_decimal UNKNOWN        : VSH:UNKNOWN:rC::v0 (auto-composite)
~A     DEPTH         TVD       TVDSS           DT          DTS           GR        KLOGH         NPHI         PHIF         RHOB           SW          VSH
# ...
   3037.6914   2822.9053  -2800.9053      90.4157     175.6241      80.1649     412.6359       0.2404       0.2643       2.2160       1.0000       0.2583
   3037.8164   2822.9954  -2800.9954      90.2775     175.2963      82.2351     433.2484       0.2413       0.2653       2.2144       1.0000       0.2840
   3037.9414   2823.0857  -2801.0857      90.0300     174.9140      83.1830     527.6907       0.2405       0.2698       2.2070       1.0000       0.2957
   3038.0664   2823.1758  -2801.1758      89.6738     174.6790      82.0292     564.6044       0.2400       0.2713       2.2045       1.0000       0.2814
   3038.1914   2823.2659  -2801.2659      89.3130     174.6686      80.0917     543.9273       0.2426       0.2704       2.2059       1.0000       0.2574
   3038.3164   2823.3560  -2801.3560      89.0263     175.3725      78.1700     455.0845       0.2446       0.2662       2.2130       1.0000       0.2335
   3038.4414   2823.4463  -2801.4463      88.9056     177.4218      76.8433     329.6177       0.2443       0.2588       2.2250       1.0000       0.2171
   3038.5664   2823.5364  -2801.5364      89.0540     181.3557      76.4534     214.4100       0.2420       0.2493       2.2407       1.0000       0.2123
   3038.6914   2823.6265  -2801.6265      89.6489     187.1920      77.0926     117.5692       0.2404       0.2358       2.2628       1.0000       0.2201
   3038.8164   2823.7166  -2801.7166      90.7643     193.1801      79.4465      28.4038       0.2428       0.2252       2.2917       1.0000       0.2493
   3038.9414   2823.8069  -2801.8069      92.1934     197.9636      83.1274       0.6486       0.2516       0.2291       2.2892       1.0000       0.2950
   3039.0664   2823.8970  -2801.8970      93.7379     201.0443      87.3921       3.1368       0.2668       0.2530       2.2312       0.9552       0.3478
   3039.1914   2823.9871  -2801.9871      95.1778     202.3952      91.2868      40.0381       0.2889       0.2971       2.1161       0.8350       0.3961
   3039.3164   2824.0771  -2802.0771      96.2893     202.4192      93.8284     200.2175       0.3191       0.3553       1.9718       0.6430       0.4276
   3039.4414   2824.1672  -2802.1672      96.6946     201.4436      96.0118    1304.2731       0.3583       0.3951       1.8840       0.5310       0.4547
   3039.5664   2824.2576  -2802.2576      96.3871     199.5163     100.1583     969.6268       0.3919       0.3912       1.8981       0.4807       0.5061
   3039.6914   2824.3477  -2802.3477      95.4108     196.6395     105.8849     370.0032       0.4075       0.3505       1.9917       0.4790       0.5772
   3039.8164   2824.4377  -2802.4377      93.8995     193.0920     112.1305      19.1533       0.3992       0.2903       2.1250       0.5143       0.6546
   3039.9414   2824.5278  -2802.5278      92.0663     189.2977     117.4830       0.8291       0.3681       0.2330       2.2516       0.5720       0.7208
   3040.0664   2824.6182  -2802.6182      90.2226     185.7186     120.2719       0.2008       0.3248       0.2006       2.3286       0.6265       0.7555
   3040.1914   2824.7083  -2802.7083      88.7245     182.5324     120.7815       0.0867       0.2888       0.1833       2.3637       0.6652       0.7618
   3040.3164   2824.7983  -2802.7983      87.6351     179.7552     120.3822       0.0568       0.2681       0.1755       2.3782       0.6971       0.7568
   3040.4414   2824.8884  -2802.8884      86.9599     177.2616     119.6242       0.0630       0.2613       0.1774       2.3751       0.7090       0.7474
   3040.5664   2824.9788  -2802.9788      86.6685     174.9055     118.7272       0.0904       0.2643       0.1857       2.3605       0.7003       0.7363
   3040.6914   2825.0688  -2803.0688      86.6948     172.5663     117.6482       0.1249       0.2722       0.1933       2.3445       0.6867       0.7229
   3040.8164   2825.1589  -2803.1589      86.8999     170.3911     117.0271       0.1368       0.2836       0.1953       2.3355       0.6993       0.7152
   3040.9414   2825.2490  -2803.2490      87.0585     168.5889     117.8895       0.1261       0.2911       0.1934       2.3395       0.6974       0.7259
   3041.0664   2825.3394  -2803.3394      87.0636     167.2023     120.1655       0.0915       0.2947       0.1852       2.3582       0.6941       0.7541
   3041.1914   2825.4294  -2803.4294      86.8657     166.1537     123.6520       0.0487       0.2970       0.1691       2.3889       0.7055       0.7974
   3041.3164   2825.5195  -2803.5195      86.4567     165.2941     127.7417       0.0167       0.3003       0.1473       2.4245       0.7361       0.8453
   3041.4414   2825.6096  -2803.6096      85.8692     164.4244     130.9827       0.0074       0.3039       0.1298       2.4499       0.7568       0.8699
   3041.5664   2825.6997  -2803.6997      85.1718     163.4408     131.5500       0.0074       0.3016       0.1303       2.4471       0.7251       0.8697
   3041.6914   2825.7900  -2803.7900      84.4775     162.4822     129.6264       0.0134       0.2923       0.1418       2.4309       0.6855       0.8582
   3041.8164   2825.8801  -2803.8801      83.8455     161.6517     125.6468       0.0203       0.2805       0.1525       2.4159       0.6734       0.8197
   3041.9414   2825.9702  -2803.9702      83.3130     160.8947     120.3533       0.0221       0.2700       0.1541       2.4139       0.7143       0.7564
   3042.0664   2826.0603  -2804.0603      82.8944     159.9924     114.7866       0.0137       0.2633       0.1435       2.4314       0.8204       0.6874
   3042.1914   2826.1506  -2804.1506      82.5867     158.3867     110.9597       0.0063       0.2625       0.1252       2.4618       0.9781       0.6400
   3042.3164   2826.2407  -2804.2407      82.3514     155.9357     110.8100       0.0033       0.2664       0.1113       2.4851       1.0000       0.6381
   3042.4414   2826.3308  -2804.3308      82.1685     153.0159     113.9094       0.0022       0.2741       0.1030       2.4988       1.0000       0.6766
   3042.5664   2826.4209  -2804.4209      82.0268     150.0732     119.2325       0.0018       0.2872       0.0984       2.5064       1.0000       0.7426
   3042.6914   2826.5112  -2804.5112      81.9158     147.5503     125.3365       0.0015       0.3055       0.0945       2.5130       1.0000       0.8183
   3042.8164   2826.6013  -2804.6013      81.8250     145.7670     130.6440       0.0011       0.3248       0.0884       2.5230       1.0000       0.8840
   3042.9414   2826.6914  -2804.6914      81.7224     144.9076     134.1025       0.0009       0.3334       0.0819       2.5319       1.0000       0.9128
   3043.0664   2826.7815  -2804.7815      81.5751     144.4389     136.9249       0.0007       0.3299       0.0784       2.5340       1.0000       0.9216
   3043.1914   2826.8718  -2804.8718      81.4023     144.3263     139.0350       0.0008       0.3174       0.0806       2.5268       1.0000       0.9194
   3043.3164   2826.9619  -2804.9619      81.2407     144.5448     140.4908       0.0012       0.3004       0.0875       2.5121       0.9800       0.9125
   3043.4414   2827.0520  -2805.0520      81.1347     145.0684     141.4489       0.0017       0.2832       0.0963       2.4947       0.9171       0.9037
   3043.5664   2827.1421  -2805.1421      81.1224     145.7699     142.3227       0.0021       0.2703       0.1023       2.4824       0.8426       0.8977
   3043.6914   2827.2322  -2805.2322      81.1771     146.3780     142.7228       0.0023       0.2663       0.1037       2.4795       0.8159       0.8963
   3043.8164   2827.3225  -2805.3225      81.2665     146.7404     141.9086       0.0022       0.2661       0.1029       2.4812       0.8229       0.8971
   3043.9414   2827.4126  -2805.4126      81.3842     146.8071     139.3995       0.0022       0.2666       0.1034       2.4826       0.8505       0.8966
   3044.0664   2827.5027  -2805.5027      81.5321     146.6236     135.2287       0.0028       0.2653       0.1080       2.4807       0.8870       0.8911
