#------------------------------------------------------------------------------
#
#   Created by  : [OpenWorks] Log Export Utility (LEXP)
#   Created on  : 2007-05-07 11:57:18
#   Project     : NORNE
#   User        : JSE
#   Interpreter : JSE
#
#------------------------------------------------------------------------------
~VERSION INFORMATION
VERS. 2.0 : CWLS Log ASCII Standard - version 2.0
WRAP.  NO : One line per depth step
~WELL INFORMATION
#MNEMONIC   .UNIT                                           VALUE :DESCRIPTION
#------------------------------------------------------------------------------
STRT        .M                                           437.6250 :START DEPTH
STOP        .M                                          2890.0000 :STOP DEPTH
STEP        .M                                             0.1250 :STEP
NULL        .                                           -999.2500 :NULL VALUE
COMP        .                                             STATOIL :COMPANY
WELL        .                                       6608/10-C-4 H :WELL
FLD         .                                               NORNE :FIELD
LOC         .                                             UNKNOWN :LOCATION
CNTY        .                                             UNKNOWN :COUNTY
STAT        .                                             UNKNOWN :STATE
CTRY        .                                              Norway :COUNTRY
SRVC        .                                             UNKNOWN :SERVICE COMPANY
DATE        .                                             UNKNOWN :LOG DATE
UWI         .                                    NO 6608/10-C-4 H :UNIQUE WELL ID
XCOORD      .                                       457180.075915 :SURFACE X
YCOORD      .                                      7322034.182216 :SURFACE Y
LAT         .                                           66.014501 :LATITUDE
LON         .                                            8.056034 :LONGITUDE
ELEV        .M                                            25.0000 :SURFACE ELEV
ELEV_TYPE   .                                                  KB :ELEV TYPE
~CURVE INFORMATION
#MNEMONIC.UNIT        API CODE       : CURVE DESCRIPTION
#------------------------------------------------------------------------------
DEPTH    .M                          : Measured Depth
TVD      .M                          : True Vertical Depth (TVD)
TVDSS    .M                          : True Vertical Depth (TVDSS)
DT       .us/ft                      : DT:UNKNOWN:rC:NONE:v1 
GR       .API                        : GR:UNKNOWN:rC:NONE:v1 
KLOGH    .mD          UNKNOWN        : KLOGH:UNKNOWN:rC::v0 (auto-composite)
NPHI     .v/v_decimal                : NPHI:UNKNOWN:rC:NONE:v1 
PHIF     .v/v_decimal UNKNOWN        : PHIF:UNKNOWN:rC::v0 (auto-composite)
RHOB     .g/cm3                      : RHOB:UNKNOWN:rC:NONE:v1 
SW       .v/v_decimal UNKNOWN        : SW:UNKNOWN:rC::v0 (auto-composite)
VSH      .v/v_decimal UNKNOWN        : VSH:UNKNOWN:rC::v0 (auto-composite)
~A     DEPTH         TVD       TVDSS           DT           GR        KLOGH         NPHI         PHIF         RHOB           SW          VSH
# ...
   2689.1250   2665.1255  -2640.1255      97.4582      74.5802    2000.0000       0.2498       0.3166       2.1175       0.1092       0.0205
   2689.2500   2665.2505  -2640.2505      97.3330      75.9750    2000.0000       0.2434       0.3080       2.1340       0.1122       0.0386
   2689.3750   2665.3755  -2640.3755      97.1875      76.0837    2000.0000       0.2413       0.3153       2.1185       0.1104       0.0400
   2689.5000   2665.5005  -2640.5005      97.0370      76.4518    2000.0000       0.2431       0.3064       2.1373       0.1152       0.0448
   2689.6250   2665.6255  -2640.6255      96.8870      76.3106    1206.4971       0.2470       0.2972       2.1541       0.1200       0.0430
   2689.7500   2665.7505  -2640.7505      96.7439      77.4269    1167.7424       0.2514       0.2967       2.1529       0.1230       0.0575
   2689.8750   2665.8755  -2640.8755      96.6159      80.7247    1850.0635       0.2547       0.3046       2.1387       0.1265       0.1003
   2690.0000   2666.0005  -2641.0005      96.5223      75.4677    1468.5531       0.2554       0.3006       2.1526       0.1324       0.0320
   2690.1250   2666.1255  -2641.1255      96.4886      72.2349    1382.9036       0.2547       0.2996       2.1444       0.1292       0.0010
   2690.2500   2666.2505  -2641.2505      96.5130      77.9348    1027.0192       0.2537       0.2944       2.1538       0.1286       0.0640
   2690.3750   2666.3755  -2641.3755      96.5868      80.7128    1092.4429       0.2519       0.2955       2.1523       0.1285       0.1002
   2690.5000   2666.5005  -2641.5005      96.6914      76.2948    1899.7336       0.2491       0.3051       2.1338       0.1261       0.0428
   2690.6250   2666.6255  -2641.6255      96.7995      74.7508    2000.0000       0.2455       0.3103       2.1364       0.1216       0.0227
   2690.7500   2666.7505  -2641.7505      96.8652      73.7613    2000.0000       0.2435       0.3200       2.1093       0.1165       0.0099
   2690.8750   2666.8755  -2641.8755      96.8919      73.6901    2000.0000       0.2437       0.3164       2.1185       0.1216       0.0090
   2691.0000   2667.0002  -2642.0002      96.9048      76.5323    2000.0000       0.2456       0.3066       2.1404       0.1267       0.0458
   2691.1250   2667.1252  -2642.1252      96.9203      78.6927    1188.4547       0.2482       0.2970       2.1575       0.1295       0.0739
   2691.2500   2667.2502  -2642.2502      96.9434      75.9805    1075.7871       0.2501       0.2952       2.1587       0.1305       0.0387
   2691.3750   2667.3752  -2642.3752      96.9533      70.8162    1702.3583       0.2498       0.3032       2.1431       0.1297       0.0010
   2691.5000   2667.5002  -2642.5002      96.8908      73.4308    1644.3142       0.2462       0.3026       2.1428       0.1275       0.0056
   2691.6250   2667.6252  -2642.6252      96.7576      76.3942    1747.5717       0.2418       0.3036       2.1401       0.1265       0.0441
   2691.7500   2667.7502  -2642.7502      96.5824      78.3960    2000.0000       0.2389       0.3117       2.1268       0.1270       0.0701
   2691.8750   2667.8752  -2642.8752      96.4036      77.7944    2000.0000       0.2387       0.3203       2.1133       0.1312       0.0622
   2692.0000   2668.0002  -2643.0002      96.2606      73.0787    2000.0000       0.2413       0.3125       2.1260       0.1406       0.0010
   2692.1250   2668.1252  -2643.1252      96.1736      78.2512    1476.9908       0.2454       0.3007       2.1466       0.1465       0.0682
   2692.2500   2668.2502  -2643.2502      96.1085      75.5789    1087.8431       0.2478       0.2954       2.1568       0.1469       0.0335
   2692.3750   2668.3752  -2643.3752      96.0549      72.8622    1674.4996       0.2482       0.3029       2.1404       0.1404       0.0010
   2692.5000   2668.5002  -2643.5002      96.0205      73.4572    2000.0000       0.2475       0.3074       2.1300       0.1349       0.0059
   2692.6250   2668.6252  -2643.6252      96.0230      76.3784    1455.2438       0.2470       0.3005       2.1437       0.1338       0.0439
   2692.7500   2668.7502  -2643.7502      96.0919      73.2802    2000.0000       0.2481       0.3183       2.1134       0.1246       0.0036
   2692.8750   2668.8752  -2643.8752      96.2447      69.8904    2000.0000       0.2481       0.3092       2.1284       0.1304       0.0010
   2693.0000   2669.0002  -2644.0002      96.4296      67.1122    2000.0000       0.2476       0.3063       2.1384       0.1344       0.0010
   2693.1250   2669.1252  -2644.1252      96.6099      68.2175    1834.0978       0.2478       0.3045       2.1348       0.1351       0.0010
   2693.2500   2669.2502  -2644.2502      96.7557      72.3710    1455.1016       0.2491       0.3005       2.1367       0.1350       0.0010
   2693.3750   2669.3752  -2644.3752      96.8467      75.7679     830.0798       0.2510       0.2908       2.1697       0.1389       0.0360
   2693.5000   2669.5002  -2644.5002      96.8689      80.3742    2000.0000       0.2504       0.3146       2.1270       0.1272       0.0958
   2693.6250   2669.6250  -2644.6250      96.8452      75.2385    2000.0000       0.2472       0.3084       2.1365       0.1253       0.0291
   2693.7500   2669.7500  -2644.7500      96.7978      70.8861    2000.0000       0.2442       0.3107       2.1289       0.1257       0.0010
   2693.8750   2669.8750  -2644.8750      96.7330      71.3081    2000.0000       0.2419       0.3113       2.1263       0.1287       0.0010
   2694.0000   2670.0000  -2645.0000      96.6519      75.1188    1581.1434       0.2405       0.3019       2.1450       0.1338       0.0275
   2694.1250   2670.1250  -2645.1250      96.5518      73.5122    1779.6251       0.2398       0.3040       2.1401       0.1334       0.0067
   2694.2500   2670.2500  -2645.2500      96.4267      77.9175    2000.0000       0.2426       0.3061       2.1392       0.1369       0.0638
   2694.3750   2670.3750  -2645.3750      96.2938      75.7921    2000.0000       0.2477       0.3073       2.1378       0.1389       0.0363
   2694.5000   2670.5000  -2645.5000      96.1643      74.6636    1981.8030       0.2517       0.3058       2.1379       0.1398       0.0216
   2694.6250   2670.6250  -2645.6250      96.0457      76.5009    1616.4149       0.2530       0.3023       2.1430       0.1415       0.0455
   2694.7500   2670.7500  -2645.7500      95.9408      78.7490    1391.7473       0.2520       0.2997       2.1512       0.1453       0.0747
   2694.8750   2670.8750  -2645.8750      95.8440      77.0989    2000.0000       0.2507       0.3125       2.1250       0.1395       0.0532
   2695.0000   2671.0000  -2646.0000      95.7371      76.4347    2000.0000       0.2466       0.3169       2.1147       0.1349       0.0446
   2695.1250   2671.1250  -2646.1250      95.6141      75.4735    1760.0881       0.2392       0.3038       2.1393       0.1412       0.0321
   2695.2500   2671.2500  -2646.2500      95.4789      73.8586    1198.4093       0.2322       0.2971       2.1532       0.1452       0.0111
   2695.3750   2671.3750  -2646.3750      95.3421      73.9227    1826.4554       0.2295       0.3044       2.1410       0.1408       0.0120
   2695.5000   2671.5000  -2646.5000      95.2210      81.4310    1230.7596       0.2332       0.2976       2.1540       0.1440       0.1090
   2695.6250   2671.6250  -2646.6250      95.1439      77.4342    1112.4631       0.2378       0.2958       2.1565       0.1470       0.0576
   2695.7500   2671.7500  -2646.7500      95.1034      75.8080     645.4600       0.2387       0.2864       2.1732       0.1540       0.0365
   2695.8750   2671.8750  -2646.8750      95.0802      74.6828     430.0842       0.2379       0.2794       2.1857       0.1666       0.0218
   2696.0000   2672.0000  -2647.0000      95.0537      74.7289     516.1911       0.2369       0.2825       2.1796       0.1771       0.0225
   2696.1250   2672.1250  -2647.1250      95.0050      76.4315    1069.7917       0.2361       0.2951       2.1553       0.1765       0.0446
