#------------------------------------------------------------------------------
#
#   Created by  : [OpenWorks] Log Export Utility (LEXP)
#   Created on  : 2007-05-07 11:57:08
#   Project     : NORNE
#   User        : JSE
#   Interpreter : JSE
#
#------------------------------------------------------------------------------
~VERSION INFORMATION
VERS. 2.0 : CWLS Log ASCII Standard - version 2.0
WRAP.  NO : One line per depth step
~WELL INFORMATION
#MNEMONIC   .UNIT                                           VALUE :DESCRIPTION
#------------------------------------------------------------------------------
STRT        .M                                          1375.3750 :START DEPTH
STOP        .M                                          3298.0000 :STOP DEPTH
STEP        .M                                             0.1250 :STEP
NULL        .                                           -999.2500 :NULL VALUE
COMP        .                                             STATOIL :COMPANY
WELL        .                                       6608/10-C-1 H :WELL
FLD         .                                               NORNE :FIELD
LOC         .                                             UNKNOWN :LOCATION
CNTY        .                                             UNKNOWN :COUNTY
STAT        .                                             UNKNOWN :STATE
CTRY        .                                              Norway :COUNTRY
SRVC        .                                             UNKNOWN :SERVICE COMPANY
DATE        .                                             UNKNOWN :LOG DATE
UWI         .                                    NO 6608/10-C-1 H :UNIQUE WELL ID
XCOORD      .                                       457190.110178 :SURFACE X
YCOORD      .                                      7322024.307354 :SURFACE Y
LAT         .                                           66.014414 :LATITUDE
LON         .                                            8.056259 :LONGITUDE
ELEV        .M                                            22.0000 :SURFACE ELEV
ELEV_TYPE   .                                                  KB :ELEV TYPE
~CURVE INFORMATION
#MNEMONIC.UNIT        API CODE       : CURVE DESCRIPTION
#------------------------------------------------------------------------------
DEPTH    .M                          : Measured Depth
TVD      .M                          : True Vertical Depth (TVD)
TVDSS    .M                          : True Vertical Depth (TVDSS)
DT       .us/ft                      : DT:UNKNOWN:rC:NONE:v1 
DTS      .us/ft                      : DTS:UNKNOWN:rC:NONE:v1 
GR       .API         UNKNOWN        : GR:GR:rC:NONE:v1 
KLOGH    .mD          UNKNOWN        : KLOGH:UNKNOWN:rC::v0 (auto-composite)
NPHI     .v/v_decimal                : NPHI:UNKNOWN:rC:NONE:v1 
PHIF     .v/v_decimal UNKNOWN        : PHIF:UNKNOWN:rC::v0 (auto-composite)
RHOB     .g/cm3       UNKNOWN        : RHOB:UNKNOWN:rC:NONE:v1 
SW       .v/v_decimal UNKNOWN        : SW:UNKNOWN:rC::v0 (auto-composite)
VSH      .v/v_decimal UNKNOWN        : VSH:UNKNOWN:rC::v0 (auto-composite)
~A     DEPTH         TVD       TVDSS           DT          DTS           GR        KLOGH         NPHI         PHIF         RHOB           SW          VSH
# ...
   3201.8750   2872.8809  -2850.8809      90.3878     163.9471      87.8015       1.0405       0.2702       0.2405       2.2699       0.9972       0.1626
   3202.0000   2873.0027  -2851.0027      90.3512     161.8237      88.2224       1.0670       0.2633       0.2411       2.2690       0.9858       0.1693
   3202.1250   2873.1245  -2851.1245      90.2222     159.3892      88.7185       0.9529       0.2545       0.2385       2.2732       0.9876       0.1773
   3202.2500   2873.2463  -2851.2463      90.0082     157.0542      89.0692       0.7383       0.2465       0.2329       2.2826       1.0000       0.1829
   3202.3750   2873.3682  -2851.3682      89.7267     155.2253      89.2292       0.4849       0.2425       0.2235       2.2982       1.0000       0.1855
   3202.5000   2873.4900  -2851.4900      89.4192     154.1433      89.6811       0.2474       0.2434       0.2085       2.3232       1.0000       0.1927
   3202.6250   2873.6118  -2851.6118      89.1011     153.5707      90.8356       0.1266       0.2468       0.1936       2.3480       1.0000       0.2113
   3202.7500   2873.7336  -2851.7336      88.7588     153.3021      92.9525       0.0827       0.2509       0.1841       2.3638       1.0000       0.2452
   3202.8750   2873.8555  -2851.8555      88.3792     153.1654      95.9687       0.0787       0.2543       0.1830       2.3656       1.0000       0.2936
   3203.0000   2873.9773  -2851.9773      87.9546     153.0482      99.4816       0.1067       0.2560       0.1898       2.3543       0.9547       0.3500
   3203.1250   2874.0991  -2852.0991      87.5040     152.9425     102.5487       0.1361       0.2545       0.1952       2.3453       0.8612       0.3991
   3203.2500   2874.2209  -2852.2209      87.0843     152.7743     104.5688       0.0954       0.2500       0.1873       2.3580       0.8274       0.4316
   3203.3750   2874.3425  -2852.3425      86.7070     152.4522     105.5196       0.0436       0.2429       0.1698       2.3874       0.8443       0.4468
   3203.5000   2874.4644  -2852.4644      86.3659     151.9409     105.4613       0.0179       0.2346       0.1499       2.4206       0.8935       0.4459
   3203.6250   2874.5862  -2852.5862      86.0525     151.2606     104.4946       0.0102       0.2268       0.1375       2.4412       0.9331       0.4304
   3203.7500   2874.7080  -2852.7080      85.7662     150.5033     102.6624       0.0131       0.2215       0.1429       2.4322       0.9001       0.4010
   3203.8750   2874.8298  -2852.8298      85.5500     149.8874      99.9400       0.0326       0.2179       0.1633       2.3983       0.8322       0.3573
   3204.0000   2874.9517  -2852.9517      85.4215     149.5394      97.4697       0.0746       0.2156       0.1818       2.3676       0.8071       0.3177
   3204.1250   2875.0735  -2853.0735      85.3790     149.5073      96.0415       0.1171       0.2138       0.1918       2.3509       0.8323       0.2948
   3204.2500   2875.1953  -2853.1953      85.3969     149.8560      95.8765       0.1178       0.2119       0.1919       2.3507       0.8991       0.2921
   3204.3750   2875.3171  -2853.3171      85.4277     150.6587      96.6537       0.0870       0.2095       0.1852       2.3619       0.9801       0.3046
   3204.5000   2875.4390  -2853.4390      85.3753     152.0440      97.3888       0.0682       0.2086       0.1798       2.3709       1.0000       0.3164
   3204.6250   2875.5608  -2853.5608      85.1789     153.6314      97.6356       0.0589       0.2109       0.1765       2.3763       1.0000       0.3204
   3204.7500   2875.6826  -2853.6826      84.8925     154.8545      97.8013       0.0524       0.2157       0.1739       2.3807       0.9780       0.3230
   3204.8750   2875.8042  -2853.8042      84.5791     155.3989      98.2866       0.0455       0.2221       0.1708       2.3859       0.9582       0.3308
   3205.0000   2875.9260  -2853.9260      84.3049     155.1587      99.3204       0.0379       0.2289       0.1667       2.3927       0.9526       0.3474
   3205.1250   2876.0479  -2854.0479      84.1270     154.2880     100.8180       0.0311       0.2353       0.1623       2.4000       0.9607       0.3715
   3205.2500   2876.1697  -2854.1697      84.0479     153.0837     101.6552       0.0285       0.2397       0.1603       2.4033       0.9673       0.3848
   3205.3750   2876.2915  -2854.2915      83.9859     151.8803     101.6311       0.0279       0.2381       0.1599       2.4040       0.9691       0.3845
   3205.5000   2876.4133  -2854.4133      83.9615     150.7232     101.3954       0.0283       0.2319       0.1602       2.4035       0.9697       0.3807
   3205.6250   2876.5352  -2854.5352      84.0185     149.6933     101.4145       0.0305       0.2245       0.1619       2.4007       0.9667       0.3810
   3205.7500   2876.6570  -2854.6570      84.2071     148.9203     101.8727       0.0374       0.2200       0.1664       2.3932       0.9557       0.3883
   3205.8750   2876.7788  -2854.7788      84.5725     148.7286     102.2897       0.0544       0.2229       0.1748       2.3793       0.9370       0.3950
   3206.0000   2876.9006  -2854.9006      85.0598     149.2990     101.3667       0.0913       0.2288       0.1863       2.3601       0.9164       0.3802
   3206.1250   2877.0225  -2855.0225      85.5663     150.3039      98.7418       0.1675       0.2300       0.1998       2.3376       0.8979       0.3381
   3206.2500   2877.1443  -2855.1443      86.0380     151.4660      94.9301       0.3284       0.2254       0.2148       2.3126       0.8841       0.2770
   3206.3750   2877.2659  -2855.2659      86.4350     152.5398      90.7863       0.6375       0.2173       0.2296       2.2880       0.8799       0.2105
   3206.5000   2877.3877  -2855.3877      86.7320     153.3487      87.3111       1.0735       0.2106       0.2412       2.2687       0.8915       0.1548
   3206.6250   2877.5095  -2855.5095      86.8920     153.6580      85.2352       1.3393       0.2133       0.2461       2.2605       0.9235       0.1214
   3206.7500   2877.6313  -2855.6313      86.9147     153.5427      84.0093       1.1873       0.2202       0.2434       2.2650       0.9734       0.1017
   3206.8750   2877.7532  -2855.7532      86.7999     153.0049      83.2792       0.8311       0.2258       0.2355       2.2782       1.0000       0.0900
   3207.0000   2877.8750  -2855.8750      86.5395     151.9263      82.8015       0.5309       0.2277       0.2255       2.2948       1.0000       0.0824
   3207.1250   2877.9968  -2855.9968      86.1122     150.1461      82.3768       0.3659       0.2258       0.2172       2.3086       1.0000       0.0756
   3207.2500   2878.1187  -2856.1187      85.4394     147.4310      81.8124       0.3276       0.2217       0.2147       2.3127       1.0000       0.0665
   3207.3750   2878.2405  -2856.2405      84.3789     143.7034      80.9163       0.2932       0.2171       0.2123       2.3168       1.0000       0.0521
   3207.5000   2878.3623  -2856.3623      82.9106     139.4350      79.7444       0.1882       0.2116       0.2024       2.3333       1.0000       0.0333
   3207.6250   2878.4841  -2856.4841      81.0326     134.9318      78.4571       0.0813       0.2040       0.1837       2.3644       1.0000       0.0127
   3207.7500   2878.6060  -2856.6060      78.7840     130.4914      77.1892       0.0250       0.1928       0.1574       2.4082       1.0000       0.0010
   3207.8750   2878.7275  -2856.7275      76.2429     126.3803      76.0035       0.0063       0.1773       0.1268       2.4589       1.0000       0.0010
   3208.0000   2878.8494  -2856.8494      73.5451     122.9210      74.6808       0.0016       0.1567       0.0968       2.5090       1.0000       0.0010
   3208.1250   2878.9712  -2856.9712      70.9299     120.0847      73.1631       0.0005       0.1347       0.0717       2.5508       1.0000       0.0010
   3208.2500   2879.0930  -2857.0930      68.4809     117.8054      71.6327       0.0002       0.1136       0.0509       2.5854       1.0000       0.0010
