#------------------------------------------------------------------------------
#
#   Created by  : [OpenWorks] Log Export Utility (LEXP)
#   Created on  : 2007-05-07 11:56:53
#   Project     : NORNE
#   User        : JSE
#   Interpreter : JSE
#
#------------------------------------------------------------------------------
~VERSION INFORMATION
VERS. 2.0 : CWLS Log ASCII Standard - version 2.0
WRAP.  NO : One line per depth step
~WELL INFORMATION
#MNEMONIC   .UNIT                                           VALUE :DESCRIPTION
#------------------------------------------------------------------------------
STRT        .M                                           450.6626 :START DEPTH
STOP        .M                                          3861.9126 :STOP DEPTH
STEP        .M                                             0.1250 :STEP
NULL        .                                           -999.2500 :NULL VALUE
COMP        .                                             STATOIL :COMPANY
WELL        .                                       6608/10-B-2 H :WELL
FLD         .                                               NORNE :FIELD
LOC         .                                             UNKNOWN :LOCATION
CNTY        .                                             UNKNOWN :COUNTY
STAT        .                                             UNKNOWN :STATE
CTRY        .                                              Norway :COUNTRY
SRVC        .                                             UNKNOWN :SERVICE COMPANY
DATE        .                                             UNKNOWN :LOG DATE
UWI         .                                    NO 6608/10-B-2 H :UNIQUE WELL ID
XCOORD      .                                       457121.854690 :SURFACE X
YCOORD      .                                      7322122.976330 :SURFACE Y
LAT         .                                           66.015290 :LATITUDE
LON         .                                            8.054722 :LONGITUDE
ELEV        .M                                            25.0000 :SURFACE ELEV
ELEV_TYPE   .                                                  KB :ELEV TYPE
~CURVE INFORMATION
#MNEMONIC.UNIT        API CODE       : CURVE DESCRIPTION
#------------------------------------------------------------------------------
DEPTH    .M                          : Measured Depth
TVD      .M                          : True Vertical Depth (TVD)
TVDSS    .M                          : True Vertical Depth (TVDSS)
DT       .us/ft                      : DT:UNKNOWN:rC:NONE:v1 
GR       .API                        : GR:UNKNOWN:rC:NONE:v1 
KLOGH    .mD                         : KLOGH:UNKNOWN:rC:NONE:v1 
NPHI     .v/v_decimal                : NPHI:UNKNOWN:rC:NONE:v1 
PHIF     .v/v_decimal                : PHIF:UNKNOWN:rC:NONE:v1 
RHOB     .g/cm3                      : RHOB:UNKNOWN:rC:NONE:v1 
SW       .v/v_decimal                : SW:UNKNOWN:rC:NONE:v1 
VSH      .v/v_decimal                : VSH:UNKNOWN:rC:NONE:v1 
~A     DEPTH         TVD       TVDSS           DT           GR        KLOGH         NPHI         PHIF         RHOB           SW          VSH
# ...
   3550.0376   2655.7405  -2630.7405     101.5681      63.2401     329.6029       0.3067       0.2543       2.1823       0.1233       0.2159
   3550.1626   2655.7402  -2630.7402     100.4877      68.7465     384.2316       0.3067       0.2593       2.1715       0.1167       0.2855
   3550.2876   2655.7397  -2630.7397     101.6547      64.3945     484.4217       0.3062       0.2667       2.1584       0.1197       0.2291
   3550.4126   2655.7393  -2630.7393     102.5817      61.2355     492.3598       0.3050       0.2673       2.1573       0.1184       0.1865
   3550.5376   2655.7388  -2630.7388     101.9743      63.7935     554.3895       0.2886       0.2709       2.1502       0.1159       0.2177
   3550.6626   2655.7383  -2630.7383      99.4855      69.0076     612.4576       0.2753       0.2744       2.1429       0.1154       0.2896
   3550.7876   2655.7378  -2630.7378      96.1311      72.1583     584.3174       0.2842       0.2729       2.1453       0.1181       0.3394
   3550.9126   2655.7373  -2630.7373      95.8393      73.2094     569.6597       0.2972       0.2720       2.1469       0.1189       0.3330
   3551.0376   2655.7368  -2630.7368      97.0561      70.4939     596.7869       0.2964       0.2735       2.1439       0.1194       0.2232
   3551.1626   2655.7366  -2630.7366      97.7376      67.4323     518.1615       0.2961       0.2687       2.1542       0.1202       0.2232
   3551.2876   2655.7361  -2630.7361      99.3467      70.1179     431.0609       0.2966       0.2629       2.1657       0.1206       0.2801
   3551.4126   2655.7356  -2630.7356     101.8290      72.9050     401.3296       0.2968       0.2607       2.1698       0.1202       0.2997
   3551.5376   2655.7351  -2630.7351     103.5231      62.1388     429.2502       0.2954       0.2629       2.1661       0.1193       0.2016
   3551.6626   2655.7346  -2630.7346     104.3983      61.9798     408.0600       0.2933       0.2613       2.1677       0.1190       0.1998
   3551.7876   2655.7341  -2630.7341     102.8090      69.2422     249.8557       0.2926       0.2430       2.2026       0.1276       0.2853
   3551.9126   2655.7336  -2630.7336      98.7624      68.7025     227.1240       0.2940       0.2417       2.2052       0.1293       0.2789
   3552.0376   2655.7332  -2630.7332      95.8024      66.0400     307.3676       0.2949       0.2517       2.1863       0.1259       0.2475
   3552.1626   2655.7329  -2630.7329      97.0849      67.0960     375.3271       0.2949       0.2585       2.1739       0.1240       0.2600
   3552.2876   2655.7324  -2630.7324     102.2389      62.8400     347.6654       0.3024       0.2561       2.1788       0.1268       0.2099
   3552.4126   2655.7319  -2630.7319     105.1276      59.4929     686.5607       0.2991       0.2766       2.1385       0.1190       0.1705
   3552.5376   2655.7314  -2630.7314     109.0742      66.6804     388.8379       0.2992       0.2489       2.1924       0.1312       0.2551
   3552.6626   2655.7310  -2630.7310     111.4971      68.2785     252.9787       0.3039       0.2419       2.2061       0.1339       0.2739
   3552.7876   2655.7305  -2630.7305     112.0000      62.3466     309.0982       0.3051       0.2452       2.1995       0.1346       0.2041
   3552.9126   2655.7300  -2630.7300     112.0000      58.2790      76.2828       0.2924       0.2049       2.2774       0.1588       0.1558
   3553.0376   2655.7295  -2630.7295     112.0000      59.7601     196.0124       0.2832       0.2360       2.2168       0.1395       0.1691
   3553.1626   2655.7292  -2630.7292     112.0000      61.1089     161.4185       0.2796       0.2307       2.2269       0.1404       0.1881
   3553.2876   2655.7288  -2630.7288     110.2872      66.6270     143.8302       0.2954       0.2275       2.2335       0.1402       0.2424
   3553.4126   2655.7283  -2630.7283     107.5350      67.7670     156.4768       0.3058       0.2301       2.2287       0.1379       0.2534
   3553.5376   2655.7278  -2630.7278     104.3356      60.7788     183.1215       0.2979       0.2352       2.2185       0.1348       0.1821
   3553.6626   2655.7273  -2630.7273     100.0889      55.6140     218.0871       0.2961       0.2410       2.2070       0.1274       0.1052
   3553.7876   2655.7268  -2630.7268      99.2185      66.6374     391.5107       0.2807       0.2590       2.1727       0.1231       0.2510
   3553.9126   2655.7263  -2630.7263      98.5698      67.4134     364.0586       0.2751       0.2573       2.1758       0.1217       0.2175
   3554.0376   2655.7258  -2630.7258      98.2299      64.6330     335.5015       0.2726       0.2549       2.1802       0.1235       0.1915
   3554.1626   2655.7256  -2630.7256      97.5419      62.9439     328.0866       0.2722       0.2541       2.1816       0.1280       0.2139
   3554.2876   2655.7251  -2630.7251      95.9480      63.8919     278.4693       0.2758       0.2489       2.1912       0.1332       0.2315
   3554.4126   2655.7246  -2630.7246      95.5111      61.9602     271.5022       0.2820       0.2481       2.1928       0.1303       0.2004
   3554.5376   2655.7241  -2630.7241      97.0393      58.3951     242.1969       0.2832       0.2443       2.2004       0.1378       0.1552
   3554.6626   2655.7236  -2630.7236      97.9966      57.8989     249.0373       0.2834       0.2452       2.1985       0.1358       0.1503
   3554.7876   2655.7231  -2630.7231      97.9301      58.9864     253.7512       0.2801       0.2459       2.1976       0.1316       0.1645
   3554.9126   2655.7227  -2630.7227      97.2567      60.0195     242.3164       0.2747       0.2444       2.2010       0.1309       0.1767
   3555.0376   2655.7222  -2630.7222      97.1064      60.7298     255.4689       0.2742       0.2461       2.1968       0.1304       0.1851
   3555.1626   2655.7219  -2630.7219      98.9540      62.8606     298.0504       0.2743       0.2510       2.1886       0.1293       0.2101
   3555.2876   2655.7214  -2630.7214     100.4114      60.3730     319.3280       0.2711       0.2533       2.1837       0.1281       0.1809
   3555.4126   2655.7209  -2630.7209     101.8297      56.5296     303.6236       0.2691       0.2516       2.1868       0.1285       0.1356
   3555.5376   2655.7205  -2630.7205     102.9687      54.5552     293.2952       0.2687       0.2505       2.1893       0.1298       0.1124
   3555.6626   2655.7200  -2630.7200     103.6160      56.8033     315.5961       0.2687       0.2528       2.1853       0.1309       0.1390
   3555.7876   2655.7195  -2630.7195     104.6354      63.1984     244.5598       0.2687       0.2446       2.2008       0.1323       0.2141
   3555.9126   2655.7190  -2630.7190     104.5760      57.1099     239.2875       0.2676       0.2440       2.2012       0.1315       0.1425
   3556.0376   2655.7185  -2630.7185     104.2239      56.5901     335.3004       0.2687       0.2539       2.1824       0.1276       0.1364
   3556.1626   2655.7183  -2630.7183     104.0000      59.3172     426.1440       0.2762       0.2626       2.1658       0.1235       0.1662
   3556.2876   2655.7178  -2630.7178     104.0000      60.1413     471.4070       0.2841       0.2659       2.1595       0.1212       0.1738
   3556.4126   2655.7173  -2630.7173     104.0000      54.8595     517.1603       0.2772       0.2689       2.1542       0.1216       0.1146
   3556.5376   2655.7168  -2630.7168     104.0000      60.1329     491.6499       0.2700       0.2673       2.1574       0.1226       0.1471
   3556.6626   2655.7163  -2630.7163     104.0000      60.4187     497.7393       0.2703       0.2677       2.1566       0.1217       0.1699
   3556.7876   2655.7158  -2630.7158     104.0000      61.1472     447.3658       0.2691       0.2640       2.1630       0.1232       0.2141
   3556.9126   2655.7153  -2630.7153     104.0000      60.7827     409.0832       0.2686       0.2613       2.1677       0.1243       0.2183
   3557.0376   2655.7148  -2630.7148     103.6239      58.1012     452.3874       0.2729       0.2646       2.1620       0.1218       0.1459
