#------------------------------------------------------------------------------
#
#   Created by  : [OpenWorks] Log Export Utility (LEXP)
#   Created on  : 2007-05-07 11:57:18
#   Project     : NORNE
#   User        : JSE
#   Interpreter : JSE
#
#------------------------------------------------------------------------------
~VERSION INFORMATION
VERS. 2.0 : CWLS Log ASCII Standard - version 2.0
WRAP.  NO : One line per depth step
~WELL INFORMATION
#MNEMONIC   .UNIT                                           VALUE :DESCRIPTION
#------------------------------------------------------------------------------
STRT        .M                                           437.6250 :START DEPTH
STOP        .M                                          2890.0000 :STOP DEPTH
STEP        .M                                             0.1250 :STEP
NULL        .                                           -999.2500 :NULL VALUE
COMP        .                                             STATOIL :COMPANY
WELL        .                                       6608/10-C-4 H :WELL
FLD         .                                               NORNE :FIELD
LOC         .                                             UNKNOWN :LOCATION
CNTY        .                                             UNKNOWN :COUNTY
STAT        .                                             UNKNOWN :STATE
CTRY        .                                              Norway :COUNTRY
SRVC        .                                             UNKNOWN :SERVICE COMPANY
DATE        .                                             UNKNOWN :LOG DATE
UWI         .                                    NO 6608/10-C-4 H :UNIQUE WELL ID
XCOORD      .                                       457180.075915 :SURFACE X
YCOORD      .                                      7322034.182216 :SURFACE Y
LAT         .                                           66.014501 :LATITUDE
LON         .                                            8.056034 :LONGITUDE
ELEV        .M                                            25.0000 :SURFACE ELEV
ELEV_TYPE   .                                                  KB :ELEV TYPE
~CURVE INFORMATION
#MNEMONIC.UNIT        API CODE       : CURVE DESCRIPTION
#------------------------------------------------------------------------------
DEPTH    .M                          : Measured Depth
TVD      .M                          : True Vertical Depth (TVD)
TVDSS    .M                          : True Vertical Depth (TVDSS)
DT       .us/ft                      : DT:UNKNOWN:rC:NONE:v1 
GR       .API                        : GR:UNKNOWN:rC:NONE:v1 
KLOGH    .mD          UNKNOWN        : KLOGH:UNKNOWN:rC::v0 (auto-composite)
NPHI     .v/v_decimal                : NPHI:UNKNOWN:rC:NONE:v1 
PHIF     .v/v_decimal UNKNOWN        : PHIF:UNKNOWN:rC::v0 (auto-composite)
RHOB     .g/cm3                      : RHOB:UNKNOWN:rC:NONE:v1 
SW       .v/v_decimal UNKNOWN        : SW:UNKNOWN:rC::v0 (auto-composite)
VSH      .v/v_decimal UNKNOWN        : VSH:UNKNOWN:rC::v0 (auto-composite)
~A     DEPTH         TVD       TVDSS           DT           GR        KLOGH         NPHI         PHIF         RHOB           SW          VSH
# ...
   2831.6250   2807.6162  -2782.6162      94.6029     137.9999       0.0067       0.3100       0.0186       2.6195       1.0000       0.8442
   2831.7500   2807.7412  -2782.7412      94.4584     139.4058       0.0887       0.2911       0.0761       2.5250       0.8164       0.8624
   2831.8750   2807.8662  -2782.8662      94.1556     145.2339       0.2529       0.2749       0.0995       2.4799       0.9287       0.9005
   2832.0000   2807.9912  -2782.9912      93.9060     135.6618       1.1684       0.2645       0.1336       2.4307       0.8839       0.8137
   2832.1250   2808.1162  -2783.1162      93.8354     126.9764       6.9910       0.2578       0.1735       2.3653       0.8094       0.7009
   2832.2500   2808.2412  -2783.2412      93.9970     117.0550      16.6406       0.2529       0.1928       2.3336       0.8221       0.5721
   2832.3750   2808.3662  -2783.3662      94.3781     103.9680       7.6544       0.2482       0.1755       2.3620       0.9012       0.4022
   2832.5000   2808.4912  -2783.4912      94.8786     106.0341      11.7230       0.2432       0.1850       2.3440       0.8346       0.4290
   2832.6250   2808.6162  -2783.6162      95.2788     115.7422       5.1556       0.2388       0.1667       2.3764       0.8843       0.5550
   2832.7500   2808.7412  -2783.7412      95.5301     116.2992       9.7522       0.2350       0.1809       2.3531       0.8022       0.5623
   2832.8750   2808.8662  -2783.8662      95.6968     113.4426      13.8856       0.2325       0.1887       2.3402       0.7706       0.5252
   2833.0000   2808.9912  -2783.9912      95.8625     111.5191      11.2183       0.2322       0.1840       2.3480       0.8115       0.5002
   2833.1250   2809.1162  -2784.1162      96.1004     111.3925      18.8473       0.2343       0.1955       2.3291       0.8203       0.4986
   2833.2500   2809.2412  -2784.2412      96.3691     108.5765      59.1464       0.2367       0.2210       2.2872       0.7559       0.4621
   2833.3750   2809.3662  -2784.3662      96.4118     108.6800      13.5454       0.2399       0.1882       2.3411       0.8137       0.4634
   2833.5000   2809.4912  -2784.4912      96.0480     111.5511       6.5230       0.2453       0.1719       2.3675       0.8441       0.5007
   2833.6250   2809.6162  -2784.6162      95.2021     114.6777       4.4593       0.2518       0.1634       2.3816       0.8460       0.5413
   2833.7500   2809.7412  -2784.7412      93.8842     116.5766       2.6463       0.2580       0.1518       2.4008       0.8188       0.5659
   2833.8750   2809.8662  -2784.8662      92.1907     119.5953       7.2590       0.2633       0.1743       2.3639       0.6084       0.6051
   2834.0000   2809.9912  -2784.9912      90.3678     129.2860       0.0633       0.2706       0.0686       2.5373       1.0000       0.7311
   2834.1250   2810.1160  -2785.1160      88.7176     136.3883       0.0051       0.2782       0.0126       2.6294       1.0000       0.8233
   2834.2500   2810.2410  -2785.2410      87.3613     133.4336       0.0048       0.2862       0.0111       2.6317       1.0000       0.7848
   2834.3750   2810.3660  -2785.3660      86.3508     125.8737       0.0030       0.2942       0.0010       2.6857       1.0000       0.6867
   2834.5000   2810.4910  -2785.4910      85.6769     124.6624       0.0030       0.3008       0.0010       2.9345       1.0000       0.6710
   2834.6250   2810.6160  -2785.6160      85.3041     117.0267       0.0030       0.2987       0.0010       2.9091       1.0000       0.5719
   2834.7500   2810.7410  -2785.7410      85.1775     106.0427       0.0030       0.2884       0.0010       2.7401       1.0000       0.4291
   2834.8750   2810.8660  -2785.8660      85.3594      98.1439       0.0030       0.2796       0.0010       2.6603       1.0000       0.3265
   2835.0000   2810.9910  -2785.9910      85.9264      96.4052       0.0089       0.2777       0.0250       2.6090       1.0000       0.3040
   2835.1250   2811.1160  -2786.1160      86.8992     102.9393       0.0616       0.2839       0.0680       2.5384       1.0000       0.3887
   2835.2500   2811.2410  -2786.2410      88.2090     119.1220       0.0963       0.2942       0.0780       2.5220       1.0000       0.5990
   2835.3750   2811.3660  -2786.3660      89.5910     120.6385       0.5283       0.2971       0.1159       2.4587       1.0000       0.6187
   2835.5000   2811.4910  -2786.4910      90.7453     102.6678       6.7387       0.2903       0.1726       2.3666       1.0000       0.3852
   2835.6250   2811.6160  -2786.6160      91.6165      80.7555     120.9447       0.2777       0.2370       2.2609       0.8418       0.1007
   2835.7500   2811.7410  -2786.7410      92.2239      63.5199    1420.5874       0.2633       0.2919       2.1709       0.8100       0.0010
   2835.8750   2811.8660  -2786.8660      92.6388      54.9011    4578.3618       0.2511       0.3179       2.1281       0.8753       0.0010
   2836.0000   2811.9910  -2786.9910      92.9444      59.2420    2336.3743       0.2456       0.3030       2.1527       0.9119       0.0010
   2836.1250   2812.1160  -2787.1160      93.1247      58.3916    1827.0300       0.2454       0.2975       2.1617       0.9205       0.0010
   2836.2500   2812.2410  -2787.2410      93.1358      57.8395    1516.2743       0.2445       0.2933       2.1685       0.9225       0.0010
   2836.3750   2812.3660  -2787.3660      92.9659      55.0118    1378.2296       0.2408       0.2912       2.1720       0.9231       0.0010
   2836.5000   2812.4910  -2787.4910      92.6414      50.4028    1253.4640       0.2344       0.2891       2.1755       0.9251       0.0010
   2836.6250   2812.6160  -2787.6160      92.2279      49.4811     881.5442       0.2280       0.2812       2.1884       0.9308       0.0010
   2836.7500   2812.7410  -2787.7410      91.8505      48.6529    1614.9789       0.2265       0.2947       2.1662       0.8907       0.0010
   2836.8750   2812.8660  -2787.8660      91.5622      48.4461    1354.3169       0.2294       0.2908       2.1726       0.8961       0.0010
   2837.0000   2812.9910  -2787.9910      91.3433      48.9488    1185.1509       0.2333       0.2878       2.1775       0.8890       0.0010
   2837.1250   2813.1160  -2788.1160      91.1640      49.8621    1191.9301       0.2360       0.2880       2.1773       0.8773       0.0010
   2837.2500   2813.2410  -2788.2410      90.9916      50.9126    1137.8434       0.2358       0.2869       2.1790       0.8851       0.0010
   2837.3750   2813.3660  -2788.3660      90.7988      52.5174     950.9617       0.2325       0.2829       2.1856       0.9058       0.0010
   2837.5000   2813.4910  -2788.4910      90.5960      54.5260    1458.5061       0.2277       0.2925       2.1699       0.8894       0.0010
   2837.6250   2813.6160  -2788.6160      90.4189      56.2578    1590.0980       0.2231       0.2944       2.1668       0.9034       0.0010
   2837.7500   2813.7410  -2788.7410      90.2914      57.8302    1053.6405       0.2201       0.2852       2.1818       0.9421       0.0010
   2837.8750   2813.8660  -2788.8660      90.2246      59.1305     641.4587       0.2198       0.2741       2.2000       0.9766       0.0010
   2838.0000   2813.9910  -2788.9910      90.2133      59.5239     766.0945       0.2219       0.2781       2.1935       0.9652       0.0010
   2838.1250   2814.1160  -2789.1160      90.2191      54.9668     612.1943       0.2253       0.2731       2.2017       0.9743       0.0010
   2838.2500   2814.2410  -2789.2410      90.1842      56.9498     369.1001       0.2274       0.2618       2.2202       0.9907       0.0010
   2838.3750   2814.3660  -2789.3660      90.1065      57.8222     337.6268       0.2282       0.2598       2.2234       0.9890       0.0010
   2838.5000   2814.4910  -2789.4910      90.0139      57.2725     494.1083       0.2283       0.2683       2.2095       0.9536       0.0010
   2838.6250   2814.6160  -2789.6160      89.9444      56.6780     973.8258       0.2286       0.2835       2.1847       0.8950       0.0010
