#------------------------------------------------------------------------------
#
#   Created by  : [OpenWorks] Log Export Utility (LEXP)
#   Created on  : 2007-05-07 11:57:08
#   Project     : NORNE
#   User        : JSE
#   Interpreter : JSE
#
#------------------------------------------------------------------------------
~VERSION INFORMATION
VERS. 2.0 : CWLS Log ASCII Standard - version 2.0
WRAP.  NO : One line per depth step
~WELL INFORMATION
#MNEMONIC   .UNIT                                           VALUE :DESCRIPTION
#------------------------------------------------------------------------------
STRT        .M                                          1375.3750 :START DEPTH
STOP        .M                                          3298.0000 :STOP DEPTH
STEP        .M                                             0.1250 :STEP
NULL        .                                           -999.2500 :NULL VALUE
COMP        .                                             STATOIL :COMPANY
WELL        .                                       6608/10-C-1 H :WELL
FLD         .                                               NORNE :FIELD
LOC         .                                             UNKNOWN :LOCATION
CNTY        .                                             UNKNOWN :COUNTY
STAT        .                                             UNKNOWN :STATE
CTRY        .                                              Norway :COUNTRY
SRVC        .                                             UNKNOWN :SERVICE COMPANY
DATE        .                                             UNKNOWN :LOG DATE
UWI         .                                    NO 6608/10-C-1 H :UNIQUE WELL ID
XCOORD      .                                       457190.110178 :SURFACE X
YCOORD      .                                      7322024.307354 :SURFACE Y
LAT         .                                           66.014414 :LATITUDE
LON         .                                            8.056259 :LONGITUDE
ELEV        .M                                            22.0000 :SURFACE ELEV
ELEV_TYPE   .                                                  KB :ELEV TYPE
~CURVE INFORMATION
#MNEMONIC.UNIT        API CODE       : CURVE DESCRIPTION
#------------------------------------------------------------------------------
DEPTH    .M                          : Measured Depth
TVD      .M                          : True Vertical Depth (TVD)
TVDSS    .M                          : True Vertical Depth (TVDSS)
DT       .us/ft                      : DT:UNKNOWN:rC:NONE:v1 
DTS      .us/ft                      : DTS:UNKNOWN:rC:NONE:v1 
GR       .API         UNKNOWN        : GR:GR:rC:NONE:v1 
KLOGH    .mD          UNKNOWN        : KLOGH:UNKNOWN:rC::v0 (auto-composite)
NPHI     .v/v_decimal                : NPHI:UNKNOWN:rC:NONE:v1 
PHIF     .v/v_decimal UNKNOWN        : PHIF:UNKNOWN:rC::v0 (auto-composite)
RHOB     .g/cm3       UNKNOWN        : RHOB:UNKNOWN:rC:NONE:v1 
SW       .v/v_decimal UNKNOWN        : SW:UNKNOWN:rC::v0 (auto-composite)
VSH      .v/v_decimal UNKNOWN        : VSH:UNKNOWN:rC::v0 (auto-composite)
~A     DEPTH         TVD       TVDSS           DT          DTS           GR        KLOGH         NPHI         PHIF         RHOB           SW          VSH
# ...
   3175.8750   2847.5410  -2825.5410      86.5636     157.7440     109.0147       0.0724       0.2447       0.1811       2.3688       0.8553       0.5029
   3176.0000   2847.6628  -2825.6628      86.7331     157.3844     109.0114       0.0757       0.2400       0.1821       2.3672       0.8846       0.5029
   3176.1250   2847.7847  -2825.7847      86.9558     156.9320     107.9310       0.0761       0.2344       0.1822       2.3670       0.9119       0.4855
   3176.2500   2847.9065  -2825.9065      87.2089     156.5623     105.9910       0.0751       0.2321       0.1819       2.3675       0.9349       0.4544
   3176.3750   2848.0283  -2826.0283      87.4554     156.3482     103.5045       0.0763       0.2340       0.1823       2.3669       0.9498       0.4145
   3176.5000   2848.1501  -2826.1501      87.6638     156.3025     100.8422       0.0867       0.2396       0.1851       2.3622       0.9517       0.3718
   3176.6250   2848.2720  -2826.2720      87.8220     156.3750      98.3480       0.1236       0.2482       0.1930       2.3490       0.9362       0.3320
   3176.7500   2848.3938  -2826.3938      87.9575     156.4101      96.1701       0.2195       0.2573       0.2058       2.3278       0.9142       0.2968
   3176.8750   2848.5156  -2826.5156      88.1299     156.3951      94.1069       0.3902       0.2620       0.2186       2.3065       0.9022       0.2637
   3177.0000   2848.6375  -2826.6375      88.3480     156.3651      92.3466       0.5911       0.2618       0.2279       2.2911       0.9054       0.2355
   3177.1250   2848.7593  -2826.7593      88.6022     156.3761      91.0594       0.6994       0.2574       0.2316       2.2848       0.9218       0.2149
   3177.2500   2848.8811  -2826.8811      88.8626     156.4803      90.3603       0.6392       0.2513       0.2296       2.2882       0.9456       0.2036
   3177.3750   2849.0029  -2827.0029      89.0527     156.6761      90.2373       0.4901       0.2481       0.2237       2.2980       0.9686       0.2017
   3177.5000   2849.1248  -2827.1248      89.0860     156.7542      90.5916       0.3539       0.2487       0.2165       2.3101       0.9897       0.2074
   3177.6250   2849.2466  -2827.2466      88.9326     156.5335      91.3522       0.2617       0.2509       0.2097       2.3212       1.0000       0.2196
   3177.7500   2849.3684  -2827.3684      88.5733     155.8114      92.3717       0.1962       0.2523       0.2033       2.3319       1.0000       0.2359
   3177.8750   2849.4902  -2827.4902      88.0013     154.3722      93.3635       0.1495       0.2510       0.1973       2.3420       1.0000       0.2518
   3178.0000   2849.6121  -2827.6121      87.2206     152.0006      93.9039       0.1201       0.2464       0.1924       2.3501       1.0000       0.2605
   3178.1250   2849.7339  -2827.7339      86.1769     148.2140      93.3035       0.1051       0.2399       0.1894       2.3550       1.0000       0.2509
   3178.2500   2849.8557  -2827.8557      84.9613     143.6409      91.8282       0.0842       0.2300       0.1845       2.3632       1.0000       0.2272
   3178.3750   2849.9775  -2827.9775      83.6052     138.9023      89.9079       0.0565       0.2185       0.1756       2.3780       1.0000       0.1964
   3178.5000   2850.0994  -2828.0994      82.1240     134.4556      87.9599       0.0296       0.2071       0.1612       2.4020       1.0000       0.1651
   3178.6250   2850.2212  -2828.2212      80.5165     130.6080      86.3263       0.0118       0.1969       0.1407       2.4360       1.0000       0.1389
   3178.7500   2850.3430  -2828.3430      78.7315     127.4950      85.1475       0.0039       0.1873       0.1161       2.4770       1.0000       0.1200
   3178.8750   2850.4648  -2828.4648      76.7972     125.0945      83.9494       0.0013       0.1768       0.0919       2.5172       1.0000       0.1008
   3179.0000   2850.5867  -2828.5867      74.9258     123.4508      82.3774       0.0005       0.1642       0.0722       2.5499       1.0000       0.0756
   3179.1250   2850.7085  -2828.7085      73.3041     122.8109      80.3426       0.0003       0.1510       0.0600       2.5702       1.0000       0.0429
   3179.2500   2850.8303  -2828.8303      72.1062     123.3694      77.9851       0.0003       0.1394       0.0572       2.5749       1.0000       0.0051
   3179.3750   2850.9521  -2828.9521      71.4783     125.2082      75.6910       0.0004       0.1325       0.0647       2.5625       1.0000       0.0010
   3179.5000   2851.0740  -2829.0740      71.6883     128.2228      74.5490       0.0009       0.1340       0.0834       2.5313       1.0000       0.0010
   3179.6250   2851.1958  -2829.1958      72.6639     131.7985      75.0844       0.0023       0.1428       0.1046       2.4960       1.0000       0.0010
   3179.7500   2851.3176  -2829.3176      74.2908     135.7280      77.0682       0.0059       0.1583       0.1254       2.4614       1.0000       0.0010
   3179.8750   2851.4395  -2829.4395      76.4303     139.8915      79.9095       0.0151       0.1794       0.1462       2.4268       1.0000       0.0360
   3180.0000   2851.5615  -2829.5615      78.8825     144.0936      82.8549       0.0407       0.2036       0.1683       2.3902       0.9976       0.0832
   3180.1250   2851.6833  -2829.6833      81.3637     147.8671      85.1552       0.1177       0.2270       0.1919       2.3508       0.9801       0.1202
   3180.2500   2851.8052  -2829.8052      83.5055     150.2814      86.7958       0.2878       0.2440       0.2119       2.3177       0.9667       0.1465
   3180.3750   2851.9270  -2829.9270      85.2739     151.4491      88.5764       0.4146       0.2536       0.2200       2.3042       0.9696       0.1750
   3180.5000   2852.0488  -2830.0488      86.6840     151.6967      90.9358       0.3209       0.2563       0.2143       2.3137       0.9903       0.2129
   3180.6250   2852.1707  -2830.1707      87.7716     151.5452      93.9180       0.1567       0.2541       0.1983       2.3402       1.0000       0.2607
   3180.7500   2852.2925  -2830.2925      88.5860     151.6118      97.1391       0.0704       0.2496       0.1805       2.3699       1.0000       0.3124
   3180.8750   2852.4143  -2830.4143      89.1636     152.4758      99.3069       0.0516       0.2466       0.1736       2.3814       1.0000       0.3472
   3181.0000   2852.5361  -2830.5361      89.5745     153.9702      99.5281       0.0620       0.2448       0.1777       2.3746       1.0000       0.3507
   3181.1250   2852.6580  -2830.6580      89.8718     155.6102      98.4896       0.0881       0.2446       0.1855       2.3616       0.9976       0.3341
   3181.2500   2852.7798  -2830.7798      90.0968     157.1402      97.0325       0.1185       0.2459       0.1921       2.3506       0.9757       0.3107
   3181.3750   2852.9016  -2830.9016      90.2819     158.3058      95.9959       0.1341       0.2490       0.1948       2.3460       0.9764       0.2941
   3181.5000   2853.0234  -2831.0234      90.4370     158.7464      96.0205       0.1341       0.2542       0.1948       2.3460       0.9905       0.2944
   3181.6250   2853.1453  -2831.1453      90.5478     157.6054      97.3146       0.1431       0.2628       0.1963       2.3436       0.9962       0.3152
   3181.7500   2853.2671  -2831.2671      90.6177     155.3654      98.7852       0.1664       0.2698       0.1996       2.3380       0.9917       0.3388
   3181.8750   2853.3889  -2831.3889      90.6382     152.4770      99.8853       0.1848       0.2748       0.2020       2.3341       0.9877       0.3564
   3182.0000   2853.5107  -2831.5107      90.6064     149.4796     100.3230       0.1748       0.2782       0.2007       2.3362       0.9918       0.3635
   3182.1250   2853.6326  -2831.6326      90.5256     146.9115     100.0603       0.1325       0.2806       0.1946       2.3464       1.0000       0.3592
   3182.2500   2853.7544  -2831.7544      90.4058     145.2262      99.3382       0.0909       0.2810       0.1862       2.3604       1.0000       0.3477
