#------------------------------------------------------------------------------
#
#   Created by  : [OpenWorks] Log Export Utility (LEXP)
#   Created on  : 2007-05-07 11:57:08
#   Project     : NORNE
#   User        : JSE
#   Interpreter : JSE
#
#------------------------------------------------------------------------------
~VERSION INFORMATION
VERS. 2.0 : CWLS Log ASCII Standard - version 2.0
WRAP.  NO : One line per depth step
~WELL INFORMATION
#MNEMONIC   .UNIT                                           VALUE :DESCRIPTION
#------------------------------------------------------------------------------
STRT        .M                                          1375.3750 :START DEPTH
STOP        .M                                          3298.0000 :STOP DEPTH
STEP        .M                                             0.1250 :STEP
NULL        .                                           -999.2500 :NULL VALUE
COMP        .                                             STATOIL :COMPANY
WELL        .                                       6608/10-C-1 H :WELL
FLD         .                                               NORNE :FIELD
LOC         .                                             UNKNOWN :LOCATION
CNTY        .                                             UNKNOWN :COUNTY
STAT        .                                             UNKNOWN :STATE
CTRY        .                                              Norway :COUNTRY
SRVC        .                                             UNKNOWN :SERVICE COMPANY
DATE        .                                             UNKNOWN :LOG DATE
UWI         .                                    NO 6608/10-C-1 H :UNIQUE WELL ID
XCOORD      .                                       457190.110178 :SURFACE X
YCOORD      .                                      7322024.307354 :SURFACE Y
LAT         .                                           66.014414 :LATITUDE
LON         .                                            8.056259 :LONGITUDE
ELEV        .M                                            22.0000 :SURFACE ELEV
ELEV_TYPE   .                                                  KB :ELEV TYPE
~CURVE INFORMATION
#MNEMONIC.UNIT        API CODE       : CURVE DESCRIPTION
#------------------------------------------------------------------------------
DEPTH    .M                          : Measured Depth
TVD      .M                          : True Vertical Depth (TVD)
TVDSS    .M                          : True Vertical Depth (TVDSS)
DT       .us/ft                      : DT:UNKNOWN:rC:NONE:v1 
DTS      .us/ft                      : DTS:UNKNOWN:rC:NONE:v1 
GR       .API         UNKNOWN        : GR:GR:rC:NONE:v1 
KLOGH    .mD          UNKNOWN        : KLOGH:UNKNOWN:rC::v0 (auto-composite)
NPHI     .v/v_decimal                : NPHI:UNKNOWN:rC:NONE:v1 
PHIF     .v/v_decimal UNKNOWN        : PHIF:UNKNOWN:rC::v0 (auto-composite)
RHOB     .g/cm3       UNKNOWN        : RHOB:UNKNOWN:rC:NONE:v1 
SW       .v/v_decimal UNKNOWN        : SW:UNKNOWN:rC::v0 (auto-composite)
VSH      .v/v_decimal UNKNOWN        : VSH:UNKNOWN:rC::v0 (auto-composite)
~A     DEPTH         TVD       TVDSS           DT          DTS           GR        KLOGH         NPHI         PHIF         RHOB           SW          VSH
# ...
   2948.3750   2625.5972  -2603.5972      90.9721     166.2157     120.4183       0.2643       0.3173       0.1356       2.4458       0.6437       0.6161
   2948.5000   2625.7195  -2603.7195      90.9517     166.4185     119.9092       0.2271       0.3163       0.1325       2.4508       0.6684       0.6060
   2948.6250   2625.8418  -2603.8418      90.9418     166.6343     121.1151       0.1909       0.3248       0.1290       2.4565       0.6983       0.6297
   2948.7500   2625.9639  -2603.9639      90.9869     167.1702     123.1430       0.1605       0.3419       0.1256       2.4623       0.7283       0.6695
   2948.8750   2626.0862  -2604.0862      91.1408     168.0583     124.5484       0.1373       0.3618       0.1224       2.4674       0.7577       0.6970
   2949.0000   2626.2083  -2604.2083      91.4222     169.2109     125.0410       0.1198       0.3790       0.1197       2.4720       0.7871       0.7067
   2949.1250   2626.3306  -2604.3306      91.8169     170.5007     124.7868       0.1058       0.3890       0.1172       2.4761       0.8179       0.7017
   2949.2500   2626.4526  -2604.4526      92.2774     171.7902     124.3133       0.0939       0.3884       0.1148       2.4800       0.8509       0.6924
   2949.3750   2626.5750  -2604.5750      92.7008     172.9643     124.2239       0.0916       0.3848       0.1143       2.4809       0.8706       0.6907
   2949.5000   2626.6970  -2604.6970      93.0432     173.9833     124.4543       0.0912       0.3881       0.1142       2.4810       0.8865       0.6952
   2949.6250   2626.8193  -2604.8193      93.3161     174.8023     124.7612       0.0998       0.3961       0.1160       2.4780       0.8865       0.7012
   2949.7500   2626.9417  -2604.9417      93.5276     175.3972     125.0667       0.1202       0.4054       0.1198       2.4718       0.8706       0.7072
   2949.8750   2627.0637  -2605.0637      93.6914     175.7510     125.3734       0.1509       0.4112       0.1243       2.4643       0.8480       0.7132
   2950.0000   2627.1860  -2605.1860      93.8342     175.8117     125.7371       0.1708       0.4053       0.1268       2.4602       0.8373       0.7203
   2950.1250   2627.3081  -2605.3081      94.0615     175.3744     126.1293       0.1603       0.3838       0.1255       2.4623       0.8476       0.7280
   2950.2500   2627.4304  -2605.4304      94.4833     174.5119     126.6513       0.1385       0.3642       0.1226       2.4672       0.8676       0.7383
   2950.3750   2627.5525  -2605.5525      95.1482     173.4012     127.3916       0.1240       0.3549       0.1204       2.4708       0.8831       0.7528
   2950.5000   2627.6748  -2605.6748      96.0414     172.2074     128.2917       0.1258       0.3589       0.1207       2.4704       0.8824       0.7704
   2950.6250   2627.7969  -2605.7969      97.0831     171.0409     129.1293       0.1506       0.3745       0.1243       2.4644       0.8622       0.7869
   2950.7500   2627.9192  -2605.9192      98.0644     169.8110     129.2803       0.1978       0.3965       0.1297       2.4554       0.8368       0.7898
   2950.8750   2628.0413  -2606.0413      98.7857     168.4556     128.4902       0.2708       0.4105       0.1360       2.4449       0.8099       0.7743
   2951.0000   2628.1636  -2606.1636      99.1846     167.1659     126.9604       0.4233       0.4102       0.1450       2.4301       0.7681       0.7443
   2951.1250   2628.2859  -2606.2859      99.2214     166.0791     125.0271       0.7341       0.3982       0.1560       2.4119       0.7148       0.7064
   2951.2500   2628.4080  -2606.4080      98.8884     165.2167     123.1077       1.1980       0.3805       0.1658       2.3957       0.6642       0.6688
   2951.3750   2628.5303  -2606.5303      98.2008     164.3896     121.6586       1.2588       0.3635       0.1668       2.3940       0.6413       0.6404
   2951.5000   2628.6523  -2606.6523      97.1988     163.5155     121.1872       0.5544       0.3467       0.1504       2.4203       0.6772       0.6311
   2951.6250   2628.7747  -2606.7747      96.1013     163.0569     121.8030       0.2118       0.3332       0.1311       2.4530       0.7417       0.6432
   2951.7500   2628.8967  -2606.8967      95.0300     163.3322     123.5800       0.1074       0.3264       0.1175       2.4756       0.7922       0.6780
   2951.8750   2629.0190  -2607.0190      94.0739     164.3352     126.2590       0.0973       0.3273       0.1156       2.4788       0.7787       0.7305
   2952.0000   2629.1411  -2607.1411      93.2856     165.7429     129.2295       0.1510       0.3353       0.1243       2.4619       0.7002       0.7888
   2952.1250   2629.2634  -2607.2634      92.6858     166.6824     131.0010       0.2715       0.3516       0.1361       2.4397       0.6277       0.8236
   2952.2500   2629.3857  -2607.3857      92.2091     166.6929     130.5023       0.3424       0.3703       0.1407       2.4312       0.6037       0.8138
   2952.3750   2629.5078  -2607.5078      91.7786     166.2681     128.6406       0.3091       0.3814       0.1387       2.4355       0.6145       0.7773
   2952.5000   2629.6301  -2607.6301      91.3537     165.8352     126.6389       0.2260       0.3796       0.1324       2.4478       0.6511       0.7380
   2952.6250   2629.7522  -2607.7522      90.9169     165.6417     125.6115       0.1625       0.3626       0.1258       2.4613       0.7001       0.7179
   2952.7500   2629.8745  -2607.8745      90.4820     165.6130     126.2310       0.1391       0.3312       0.1227       2.4670       0.7341       0.7300
   2952.8750   2629.9966  -2607.9966      90.0964     165.6270     126.7020       0.1536       0.3007       0.1247       2.4637       0.7395       0.7393
   2953.0000   2630.1189  -2608.1189      89.8050     165.7838     124.2832       0.1570       0.2846       0.1251       2.4630       0.7458       0.6919
   2953.1250   2630.2410  -2608.2410      89.6411     166.0594     118.5593       0.1424       0.2811       0.1232       2.4662       0.7520       0.5796
   2953.2500   2630.3633  -2608.3633      89.6203     166.2802     110.3979       0.1282       0.2842       0.1211       2.4697       0.7446       0.4194
   2953.3750   2630.4854  -2608.4854      89.7461     166.1844     101.5633       0.1413       0.2858       0.1230       2.4665       0.7038       0.2463
   2953.5000   2630.6077  -2608.6077      90.0317     165.4238      94.7391       0.2609       0.2790       0.1353       2.4460       0.6265       0.2739
   2953.6250   2630.7300  -2608.7300      90.4960     164.2158      90.9118       0.5922       0.2680       0.1517       2.4188       0.5403       0.2125
   2953.7500   2630.8521  -2608.8521      91.1169     162.9876      88.4113       1.1018       0.2551       0.1641       2.3982       0.4850       0.1724
   2953.8750   2630.9744  -2608.9744      91.8743     161.9339      86.2684       1.7088       0.2428       0.1729       2.3837       0.4474       0.1380
   2954.0000   2631.0964  -2609.0964      92.7232     161.1342      84.0733       2.6633       0.2344       0.1818       2.3689       0.4128       0.1028
   2954.1250   2631.2188  -2609.2188      93.5901     160.5513      82.1226       5.6466       0.2323       0.1969       2.3440       0.3693       0.0715
   2954.2500   2631.3408  -2609.3408      94.3261     160.3051      81.4137      16.7682       0.2397       0.2186       2.3079       0.3214       0.0601
   2954.3750   2631.4631  -2609.4631      94.9188     160.3441      81.5142      31.4463       0.2494       0.2312       2.2871       0.2926       0.0617
   2954.5000   2631.5852  -2609.5852      95.4312     160.4396      81.9196      23.7541       0.2543       0.2256       2.2882       0.2807       0.0682
   2954.6250   2631.7075  -2609.7075      95.9142     160.3587      82.3280      14.0092       0.2521       0.2150       2.3031       0.2879       0.0748
   2954.7500   2631.8298  -2609.8298      96.3939     159.9523      82.6162       9.5229       0.2449       0.2073       2.3154       0.2859       0.0794
