#------------------------------------------------------------------------------
#
#   Created by  : [OpenWorks] Log Export Utility (LEXP)
#   Created on  : 2007-05-07 11:56:53
#   Project     : NORNE
#   User        : JSE
#   Interpreter : JSE
#
#------------------------------------------------------------------------------
~VERSION INFORMATION
VERS. 2.0 : CWLS Log ASCII Standard - version 2.0
WRAP.  NO : One line per depth step
~WELL INFORMATION
#MNEMONIC   .UNIT                                           VALUE :DESCRIPTION
#------------------------------------------------------------------------------
STRT        .M                                           450.6626 :START DEPTH
STOP        .M                                          3861.9126 :STOP DEPTH
STEP        .M                                             0.1250 :STEP
NULL        .                                           -999.2500 :NULL VALUE
COMP        .                                             STATOIL :COMPANY
WELL        .                                       6608/10-B-2 H :WELL
FLD         .                                               NORNE :FIELD
LOC         .                                             UNKNOWN :LOCATION
CNTY        .                                             UNKNOWN :COUNTY
STAT        .                                             UNKNOWN :STATE
CTRY        .                                              Norway :COUNTRY
SRVC        .                                             UNKNOWN :SERVICE COMPANY
DATE        .                                             UNKNOWN :LOG DATE
UWI         .                                    NO 6608/10-B-2 H :UNIQUE WELL ID
XCOORD      .                                       457121.854690 :SURFACE X
YCOORD      .                                      7322122.976330 :SURFACE Y
LAT         .                                           66.015290 :LATITUDE
LON         .                                            8.054722 :LONGITUDE
ELEV        .M                                            25.0000 :SURFACE ELEV
ELEV_TYPE   .                                                  KB :ELEV TYPE
~CURVE INFORMATION
#MNEMONIC.UNIT        API CODE       : CURVE DESCRIPTION
#------------------------------------------------------------------------------
DEPTH    .M                          : Measured Depth
TVD      .M                          : True Vertical Depth (TVD)
TVDSS    .M                          : True Vertical Depth (TVDSS)
DT       .us/ft                      : DT:UNKNOWN:rC:NONE:v1 
GR       .API                        : GR:UNKNOWN:rC:NONE:v1 
KLOGH    .mD                         : KLOGH:UNKNOWN:rC:NONE:v1 
NPHI     .v/v_decimal                : NPHI:UNKNOWN:rC:NONE:v1 
PHIF     .v/v_decimal                : PHIF:UNKNOWN:rC:NONE:v1 
RHOB     .g/cm3                      : RHOB:UNKNOWN:rC:NONE:v1 
SW       .v/v_decimal                : SW:UNKNOWN:rC:NONE:v1 
VSH      .v/v_decimal                : VSH:UNKNOWN:rC:NONE:v1 
~A     DEPTH         TVD       TVDSS           DT           GR        KLOGH         NPHI         PHIF         RHOB           SW          VSH
# ...
   3628.4126   2655.5159  -2630.5159      96.0150      45.0048     298.0387       0.2373       0.2509       2.1883       0.1225       0.0223
   3628.5376   2655.5151  -2630.5151      95.8929      42.5740     327.2652       0.2390       0.2541       2.1828       0.1200       0.0038
   3628.6626   2655.5146  -2630.5146      95.4279      45.8846     323.2202       0.2439       0.2535       2.1841       0.1214       0.0110
   3628.7876   2655.5139  -2630.5139      93.9693      44.6423     436.1965       0.2499       0.2633       2.1644       0.1184       0.0007
   3628.9126   2655.5132  -2630.5132      93.7311      41.8676     386.7656       0.2624       0.2594       2.1722       0.1201       0.0000
   3629.0376   2655.5127  -2630.5127      94.8278      38.1712     420.8548       0.2603       0.2621       2.1668       0.1175       0.0000
   3629.1626   2655.5120  -2630.5120      95.7159      37.2592     469.8451       0.2550       0.2658       2.1594       0.1144       0.0000
   3629.2876   2655.5115  -2630.5115      95.8222      39.9223     477.6977       0.2583       0.2663       2.1583       0.1137       0.0000
   3629.4126   2655.5107  -2630.5107      95.8607      43.3246     441.3871       0.2760       0.2638       2.1634       0.1156       0.0000
   3629.5376   2655.5103  -2630.5103      96.5900      43.6388     389.1807       0.2758       0.2597       2.1708       0.1166       0.0000
   3629.6626   2655.5095  -2630.5095      96.9544      39.6854     414.7984       0.2538       0.2617       2.1679       0.1167       0.0000
   3629.7876   2655.5088  -2630.5088      97.5147      39.3638     417.5999       0.2437       0.2620       2.1675       0.1171       0.0000
   3629.9126   2655.5083  -2630.5083      98.0707      41.0377     389.5440       0.2424       0.2597       2.1713       0.1174       0.0000
   3630.0376   2655.5076  -2630.5076      98.7470      41.8310     368.2104       0.2394       0.2579       2.1744       0.1172       0.0000
   3630.1626   2655.5071  -2630.5071     101.2267      44.4706     428.0450       0.2390       0.2628       2.1654       0.1171       0.0000
   3630.2876   2655.5063  -2630.5063     102.7293      43.3307     382.1739       0.2436       0.2591       2.1721       0.1176       0.0000
   3630.4126   2655.5056  -2630.5056     102.8961      45.1332     362.1322       0.2433       0.2574       2.1752       0.1182       0.0132
   3630.5376   2655.5051  -2630.5051     102.2271      46.1885     362.4634       0.2440       0.2574       2.1756       0.1183       0.0161
   3630.6626   2655.5044  -2630.5044     101.4675      44.1726     377.7200       0.2465       0.2587       2.1735       0.1179       0.0064
   3630.7876   2655.5039  -2630.5039     101.3683      39.7684     402.4339       0.2480       0.2608       2.1693       0.1178       0.0000
   3630.9126   2655.5032  -2630.5032     101.8060      44.2197     373.0071       0.2529       0.2583       2.1734       0.1186       0.0000
   3631.0376   2655.5024  -2630.5024      99.4833      41.0275     412.4546       0.2707       0.2615       2.1684       0.1169       0.0000
   3631.1626   2655.5020  -2630.5020      96.5265      41.6105     503.2517       0.2766       0.2677       2.1565       0.1145       0.0000
   3631.2876   2655.5012  -2630.5012      93.1556      44.3509     545.8923       0.2718       0.2706       2.1508       0.1143       0.0034
   3631.4126   2655.5007  -2630.5007      90.2222      46.0625     513.6505       0.2646       0.2687       2.1545       0.1164       0.0125
   3631.5376   2655.5000  -2630.5000      90.6667      47.2550     568.8009       0.2639       0.2720       2.1470       0.1151       0.0265
   3631.6626   2655.4993  -2630.4993      93.5385      56.9463     598.1111       0.2671       0.2736       2.1446       0.1146       0.1407
   3631.7876   2655.4988  -2630.4988      95.1142      55.7101     582.3294       0.2641       0.2727       2.1465       0.1147       0.1260
   3631.9126   2655.4980  -2630.4980      94.9290      47.6404     513.0632       0.2636       0.2684       2.1547       0.1144       0.0559
   3632.0376   2655.4976  -2630.4976      93.8541      40.9537     444.1402       0.2655       0.2640       2.1633       0.1140       0.0000
   3632.1626   2655.4968  -2630.4968      93.5683      43.2651     447.9456       0.2649       0.2643       2.1635       0.1145       0.0034
   3632.2876   2655.4963  -2630.4963      95.7564      47.7992     483.3713       0.2663       0.2667       2.1586       0.1148       0.0353
   3632.4126   2655.4956  -2630.4956      96.0000      49.8000     521.8024       0.2684       0.2692       2.1529       0.1143       0.0497
   3632.5376   2655.4949  -2630.4949      96.0975      46.2227     508.7240       0.2568       0.2684       2.1548       0.1139       0.0243
   3632.6626   2655.4944  -2630.4944      96.2433      43.0737     560.0923       0.2450       0.2711       2.1503       0.1126       0.0202
   3632.7876   2655.4937  -2630.4937      96.3220      45.7778     659.5586       0.2405       0.2767       2.1395       0.1109       0.0678
   3632.9126   2655.4932  -2630.4932      96.1778      55.4510     551.4802       0.2328       0.2710       2.1500       0.1122       0.1230
   3633.0376   2655.4924  -2630.4924      97.0632      54.7722     777.6483       0.2418       0.2818       2.1285       0.1097       0.1814
   3633.1626   2655.4917  -2630.4917      97.8218      55.2408     720.2250       0.2561       0.2795       2.1337       0.1110       0.1486
   3633.2876   2655.4912  -2630.4912      98.0499      52.2460     595.5892       0.2641       0.2732       2.1460       0.1139       0.0660
   3633.4126   2655.4905  -2630.4905      97.7493      46.4350     513.8271       0.2652       0.2687       2.1546       0.1158       0.0000
   3633.5376   2655.4900  -2630.4900      97.1265      41.2204     494.6583       0.2635       0.2674       2.1570       0.1150       0.0000
   3633.6626   2655.4893  -2630.4893      96.2513      39.8654     435.5779       0.2588       0.2633       2.1644       0.1142       0.0000
   3633.7876   2655.4885  -2630.4885      96.0444      48.0770     745.5142       0.2509       0.2795       2.1335       0.1092       0.0517
   3633.9126   2655.4880  -2630.4880      96.4057      48.6115     699.8741       0.2506       0.2782       2.1356       0.1103       0.0296
   3634.0376   2655.4873  -2630.4873      97.2672      45.2574     633.4332       0.2522       0.2753       2.1407       0.1122       0.0000
   3634.1626   2655.4868  -2630.4868      98.6974      42.1545     720.7925       0.2525       0.2796       2.1327       0.1115       0.0000
   3634.2876   2655.4861  -2630.4861     100.7659      40.2643     774.1705       0.2532       0.2820       2.1281       0.1098       0.0000
   3634.4126   2655.4854  -2630.4854      99.8920      40.2988     754.8398       0.2544       0.2811       2.1297       0.1096       0.0000
   3634.5376   2655.4849  -2630.4849      96.8684      43.9041     640.7612       0.2584       0.2756       2.1401       0.1119       0.0053
   3634.6626   2655.4841  -2630.4841      95.2043      49.2167     624.6693       0.2619       0.2750       2.1416       0.1124       0.0496
   3634.7876   2655.4836  -2630.4836      95.2111      50.5571     739.0964       0.2619       0.2801       2.1321       0.1108       0.0654
   3634.9126   2655.4829  -2630.4829      95.8458      45.3214     890.5275       0.2569       0.2865       2.1201       0.1086       0.0045
   3635.0376   2655.4822  -2630.4822      95.9917      44.6021     804.3149       0.2494       0.2832       2.1266       0.1094       0.0002
   3635.1626   2655.4817  -2630.4817      96.2748      47.2651     925.1298       0.2411       0.2876       2.1185       0.1064       0.0278
   3635.2876   2655.4810  -2630.4810      96.7772      48.5304     998.6113       0.2388       0.2902       2.1130       0.1060       0.0415
   3635.4126   2655.4805  -2630.4805      98.0958      49.6463     920.7826       0.2499       0.2873       2.1184       0.1071       0.0547
