#------------------------------------------------------------------------------
#
#   Created by  : [OpenWorks] Log Export Utility (LEXP)
#   Created on  : 2007-05-07 11:57:11
#   Project     : NORNE
#   User        : JSE
#   Interpreter : JSE
#
#------------------------------------------------------------------------------
~VERSION INFORMATION
VERS. 2.0 : CWLS Log ASCII Standard - version 2.0
WRAP.  NO : One line per depth step
~WELL INFORMATION
#MNEMONIC   .UNIT                                           VALUE :DESCRIPTION
#------------------------------------------------------------------------------
STRT        .M                                          1205.1348 :START DEPTH
STOP        .M                                          4417.7598 :STOP DEPTH
STEP        .M                                             0.1250 :STEP
NULL        .                                           -999.2500 :NULL VALUE
COMP        .                                             STATOIL :COMPANY
WELL        .                                       6608/10-C-2 H :WELL
FLD         .                                               NORNE :FIELD
LOC         .                                             UNKNOWN :LOCATION
CNTY        .                                             UNKNOWN :COUNTY
STAT        .                                             UNKNOWN :STATE
CTRY        .                                              Norway :COUNTRY
SRVC        .                                             UNKNOWN :SERVICE COMPANY
DATE        .                                             UNKNOWN :LOG DATE
UWI         .                                    NO 6608/10-C-2 H :UNIQUE WELL ID
XCOORD      .                                       457185.617758 :SURFACE X
YCOORD      .                                      7322019.729827 :SURFACE Y
LAT         .                                           66.014372 :LATITUDE
LON         .                                            8.056161 :LONGITUDE
ELEV        .M                                            22.0000 :SURFACE ELEV
ELEV_TYPE   .                                                  KB :ELEV TYPE
~CURVE INFORMATION
#MNEMONIC.UNIT        API CODE       : CURVE DESCRIPTION
#------------------------------------------------------------------------------
DEPTH    .M                          : Measured Depth
TVD      .M                          : True Vertical Depth (TVD)
TVDSS    .M                          : True Vertical Depth (TVDSS)
DT       .us/ft       UNKNOWN        : DT:DT:rC::v0 (auto-composite)
DTS      .us/ft       UNKNOWN        : DTS:DTS:rC::v0 (auto-composite)
GR       .API         UNKNOWN        : GR:GR:rC::v0 (auto-composite)
KLOGH    .mD          UNKNOWN        : KLOGH:UNKNOWN:rC:NONE:v1 
NPHI     .v/v_decimal UNKNOWN        : NPHI:NPHI:rC::v0 (auto-composite)
PHIF     .v/v_decimal UNKNOWN        : PHIF:PHIF:rC::v0 (auto-composite)
SW       .v/v_decimal UNKNOWN        : SW:SW:rC::v0 (auto-composite)
VSH      .v/v_decimal UNKNOWN        : VSH:VSH:rC::v0 (auto-composite)
~A     DEPTH         TVD       TVDSS           DT          DTS           GR        KLOGH         NPHI         PHIF           SW          VSH
# ...
   4112.1348   2721.1702  -2699.1702      88.2486     161.2732      47.2107    2000.0000       0.2896       0.3296       0.5983       0.0000
   4112.2598   2721.2434  -2699.2434      89.0510     162.8168      45.6720    1705.0995       0.2787       0.3188       0.6761       0.0000
   4112.3848   2721.3164  -2699.3164      89.5551     163.7103      47.0847    1019.5653       0.2611       0.3006       0.7704       0.0012
   4112.5098   2721.3894  -2699.3894      89.6700     163.7718      55.3960     544.9091       0.2477       0.2846       0.7959       0.0079
   4112.6348   2721.4626  -2699.4626      89.4143     162.8960      56.9696     411.3727       0.2464       0.2771       0.7504       0.0232
   4112.7598   2721.5356  -2699.5356      88.9034     161.4590      58.2301     364.1450       0.2493       0.2741       0.7033       0.0380
   4112.8848   2721.6089  -2699.6089      88.1726     159.6648      57.8915     408.4238       0.2505       0.2769       0.6532       0.0340
   4113.0098   2721.6819  -2699.6819      87.2898     157.7018      56.2968     470.2501       0.2470       0.2809       0.6104       0.0153
   4113.1348   2721.7549  -2699.7549      86.3526     155.7291      54.8701     434.5359       0.2395       0.2788       0.5922       0.0018
   4113.2598   2721.8281  -2699.8281      85.5135     153.8717      51.5899     362.5003       0.2341       0.2740       0.5948       0.0002
   4113.3848   2721.9011  -2699.9011      84.8157     152.0390      54.7618     341.3620       0.2365       0.2725       0.5869       0.0101
   4113.5098   2721.9741  -2699.9741      84.1763     150.1388      55.0706     480.7194       0.2430       0.2804       0.5604       0.0066
   4113.6348   2722.0474  -2700.0474      83.5184     148.1720      51.3709     664.9129       0.2499       0.2899       0.5319       0.0000
   4113.7598   2722.1204  -2700.1204      82.7560     146.1832      46.4369     757.3582       0.2535       0.2935       0.5176       0.0000
   4113.8848   2722.1934  -2700.1934      81.7860     144.2350      46.6881     688.1940       0.2510       0.2910       0.5207       0.0000
   4114.0098   2722.2666  -2700.2666      80.5250     142.4725      45.5139     495.7043       0.2419       0.2819       0.5001       0.0000
   4114.1348   2722.3396  -2700.3396      79.1740     140.8547      46.5962     358.3056       0.2332       0.2732       0.5072       0.0000
   4114.2598   2722.4126  -2700.4126      77.8470     139.5023      48.1618     271.8018       0.2262       0.2662       0.5203       0.0000
   4114.3848   2722.4858  -2700.4858      76.6830     138.5556      49.1012     218.0409       0.2204       0.2604       0.5310       0.0000
   4114.5098   2722.5588  -2700.5588      75.8643     138.1667      48.3736     174.0387       0.2145       0.2545       0.5417       0.0000
   4114.6348   2722.6318  -2700.6318      75.8143     138.5876      42.2507     126.1818       0.2060       0.2460       0.5635       0.0000
   4114.7598   2722.7051  -2700.7051      76.8909     139.9774      42.7044      89.6241       0.1966       0.2366       0.6220       0.0000
   4114.8848   2722.7781  -2700.7781      78.9814     142.2882      44.8828      78.3562       0.1936       0.2336       0.6998       0.0000
   4115.0098   2722.8513  -2700.8513      81.9356     145.5526      47.8615     106.0855       0.2002       0.2402       0.7459       0.0000
   4115.1348   2722.9243  -2700.9243      85.4799     149.7167      49.9047     199.4139       0.2160       0.2560       0.7439       0.0000
   4115.2598   2722.9973  -2700.9973      89.2247     154.6082      47.7980     398.6363       0.2365       0.2765       0.7360       0.0000
   4115.3848   2723.0706  -2701.0706      92.4345     159.6897      50.2944     664.0396       0.2495       0.2895       0.7218       0.0000
   4115.5098   2723.1436  -2701.1436      94.7994     164.2718      57.8354     433.7239       0.2562       0.2761       0.7555       0.0503
   4115.6348   2723.2166  -2701.2166      96.2864     168.0968      62.8721     246.2231       0.2605       0.2634       0.7866       0.0926
   4115.7598   2723.2898  -2701.2898      96.9904     171.0283      62.7972     370.9024       0.2659       0.2692       0.7759       0.0917
   4115.8848   2723.3628  -2701.3628      97.1158     173.0247      59.0381     878.2114       0.2753       0.2963       0.7154       0.0475
   4116.0098   2723.4358  -2701.4358      96.9583     174.0109      58.4911    1649.4243       0.2901       0.3137       0.6856       0.0411
   4116.1348   2723.5090  -2701.5090      96.6215     174.0222      58.7865    1928.7743       0.2961       0.3183       0.6708       0.0445
   4116.2598   2723.5820  -2701.5820      95.9458     173.3947      58.0128    1801.4663       0.2905       0.3164       0.6756       0.0354
   4116.3848   2723.6550  -2701.6550      94.8474     172.3109      57.1055    1287.5156       0.2755       0.3056       0.6931       0.0248
   4116.5098   2723.7283  -2701.7283      93.3584     170.9471      56.6822     637.2768       0.2555       0.2875       0.6974       0.0198
   4116.6348   2723.8013  -2701.8013      91.6364     169.4598      56.5845     302.2578       0.2365       0.2691       0.6524       0.0186
   4116.7598   2723.8743  -2701.8743      90.0019     167.9624      56.6306     179.2160       0.2223       0.2546       0.6510       0.0192
   4116.8848   2723.9475  -2701.9475      88.7045     166.5832      57.6773     103.3919       0.2119       0.2393       0.6944       0.0315
   4117.0098   2724.0205  -2702.0205      87.8355     165.4015      62.8937      45.5701       0.2074       0.2103       0.7852       0.0929
   4117.1348   2724.0938  -2702.0938      87.4853     164.4710      72.4087       9.5990       0.2089       0.1670       0.9017       0.2048
   4117.2598   2724.1667  -2702.1667      87.7206     163.8432      82.6050       1.3647       0.2160       0.1261       1.0000       0.3248
   4117.3848   2724.2397  -2702.2397      88.6232     163.6298      82.8646       2.0539       0.2284       0.1373       1.0000       0.3278
   4117.5098   2724.3130  -2702.3130      90.1262     164.1346      69.5449      55.8672       0.2389       0.2105       0.7970       0.1711
   4117.6348   2724.3860  -2702.3860      91.7825     165.3539      57.3018     443.6144       0.2474       0.2671       0.6774       0.0508
   4117.7598   2724.4590  -2702.4590      93.3016     167.1484      48.9190     948.8425       0.2582       0.2982       0.6314       0.0000
   4117.8848   2724.5322  -2702.5322      94.4597     169.2267      44.3382    1470.4232       0.2740       0.3140       0.6189       0.0000
   4118.0098   2724.6052  -2702.6052      95.1120     171.1817      41.9323    2000.0000       0.2949       0.3349       0.5970       0.0000
   4118.1348   2724.6782  -2702.6782      95.0980     172.4174      44.5943    2000.0000       0.3139       0.3539       0.5710       0.0000
   4118.2598   2724.7515  -2702.7515      94.5064     172.8150      48.7804    2000.0000       0.3191       0.3591       0.5634       0.0000
   4118.3848   2724.8245  -2702.8245      93.4920     172.5627      50.2699    2000.0000       0.3102       0.3502       0.5727       0.0000
   4118.5098   2724.8975  -2702.8975      92.2277     171.7653      49.9281    1885.5535       0.2920       0.3320       0.5952       0.0000
   4118.6348   2724.9707  -2702.9707      90.9426     170.5497      49.2370    1525.2438       0.2712       0.3112       0.6212       0.0000
   4118.7598   2725.0437  -2703.0437      89.9473     169.0990      47.9578     817.2625       0.2554       0.2954       0.6312       0.0000
   4118.8848   2725.1167  -2703.1167      89.6796     167.8479      45.7210     667.5007       0.2501       0.2900       0.6097       0.0000
   4119.0098   2725.1899  -2703.1899      90.0331     167.1462      47.1247     788.7043       0.2543       0.2943       0.6010       0.0000
   4119.1348   2725.2629  -2703.2629      90.9148     167.1732      45.7587    1376.9736       0.2675       0.3074       0.5968       0.0000
