#------------------------------------------------------------------------------
#
#   Created by  : [OpenWorks] Log Export Utility (LEXP)
#   Created on  : 2007-05-07 11:57:08
#   Project     : NORNE
#   User        : JSE
#   Interpreter : JSE
#
#------------------------------------------------------------------------------
~VERSION INFORMATION
VERS. 2.0 : CWLS Log ASCII Standard - version 2.0
WRAP.  NO : One line per depth step
~WELL INFORMATION
#MNEMONIC   .UNIT                                           VALUE :DESCRIPTION
#------------------------------------------------------------------------------
STRT        .M                                          1375.3750 :START DEPTH
STOP        .M                                          3298.0000 :STOP DEPTH
STEP        .M                                             0.1250 :STEP
NULL        .                                           -999.2500 :NULL VALUE
COMP        .                                             STATOIL :COMPANY
WELL        .                                       6608/10-C-1 H :WELL
FLD         .                                               NORNE :FIELD
LOC         .                                             UNKNOWN :LOCATION
CNTY        .                                             UNKNOWN :COUNTY
STAT        .                                             UNKNOWN :STATE
CTRY        .                                              Norway :COUNTRY
SRVC        .                                             UNKNOWN :SERVICE COMPANY
DATE        .                                             UNKNOWN :LOG DATE
UWI         .                                    NO 6608/10-C-1 H :UNIQUE WELL ID
XCOORD      .                                       457190.110178 :SURFACE X
YCOORD      .                                      7322024.307354 :SURFACE Y
LAT         .                                           66.014414 :LATITUDE
LON         .                                            8.056259 :LONGITUDE
ELEV        .M                                            22.0000 :SURFACE ELEV
ELEV_TYPE   .                                                  KB :ELEV TYPE
~CURVE INFORMATION
#MNEMONIC.UNIT        API CODE       : CURVE DESCRIPTION
#------------------------------------------------------------------------------
DEPTH    .M                          : Measured Depth
TVD      .M                          : True Vertical Depth (TVD)
TVDSS    .M                          : True Vertical Depth (TVDSS)
DT       .us/ft                      : DT:UNKNOWN:rC:NONE:v1 
DTS      .us/ft                      : DTS:UNKNOWN:rC:NONE:v1 
GR       .API         UNKNOWN        : GR:GR:rC:NONE:v1 
KLOGH    .mD          UNKNOWN        : KLOGH:UNKNOWN:rC::v0 (auto-composite)
NPHI     .v/v_decimal                : NPHI:UNKNOWN:rC:NONE:v1 
PHIF     .v/v_decimal UNKNOWN        : PHIF:UNKNOWN:rC::v0 (auto-composite)
RHOB     .g/cm3       UNKNOWN        : RHOB:UNKNOWN:rC:NONE:v1 
SW       .v/v_decimal UNKNOWN        : SW:UNKNOWN:rC::v0 (auto-composite)
VSH      .v/v_decimal UNKNOWN        : VSH:UNKNOWN:rC::v0 (auto-composite)
~A     DEPTH         TVD       TVDSS           DT          DTS           GR        KLOGH         NPHI         PHIF         RHOB           SW          VSH
# ...
   3253.8750   2923.5466  -2901.5466      86.1596     141.1577      99.2222       0.4981       0.2481       0.2241       2.2969       0.7598       0.3458
   3254.0000   2923.6682  -2901.6682      87.3792     142.2235      98.7872       0.9998       0.2905       0.2396       2.2683       0.7243       0.3388
   3254.1250   2923.7900  -2901.7900      88.5379     143.4003      98.0401       1.3864       0.3366       0.2469       2.2512       0.7000       0.3268
   3254.2500   2923.9119  -2901.9119      89.5222     144.5777      96.9879       1.1376       0.3698       0.2425       2.2533       0.6738       0.3100
   3254.3750   2924.0337  -2902.0337      90.2330     145.7552      95.9062       0.5525       0.3766       0.2264       2.2778       0.6578       0.2926
   3254.5000   2924.1555  -2902.1555      90.5930     146.9510      95.3620       0.1777       0.3509       0.2011       2.3220       0.6648       0.2840
   3254.6250   2924.2771  -2902.2771      90.4904     148.1100      95.7295       0.0610       0.3088       0.1773       2.3648       0.6968       0.2898
   3254.7500   2924.3989  -2902.3989      90.0934     149.2860      96.2623       0.0327       0.2724       0.1634       2.3913       0.7198       0.2983
   3254.8750   2924.5208  -2902.5208      89.4736     150.4622      96.3888       0.0310       0.2478       0.1622       2.3974       0.7555       0.3004
   3255.0000   2924.6426  -2902.6426      88.7136     151.6391      95.7601       0.0431       0.2346       0.1696       2.3876       0.7876       0.2903
   3255.1250   2924.7644  -2902.7644      87.8980     152.8165      94.2889       0.0657       0.2290       0.1789       2.3720       0.8371       0.2667
   3255.2500   2924.8860  -2902.8860      87.1161     153.9939      92.2581       0.0838       0.2307       0.1844       2.3630       0.9118       0.2341
   3255.3750   2925.0078  -2903.0078      86.4226     155.1697      90.1048       0.0736       0.2375       0.1815       2.3678       0.9979       0.1996
   3255.5000   2925.1296  -2903.1296      85.7899     156.3980      88.2052       0.0501       0.2404       0.1729       2.3821       1.0000       0.1691
   3255.6250   2925.2515  -2903.2515      85.2047     157.6526      86.8479       0.0314       0.2378       0.1625       2.3994       1.0000       0.1473
   3255.7500   2925.3733  -2903.3733      84.6552     158.9071      86.2768       0.0212       0.2316       0.1537       2.4141       1.0000       0.1381
   3255.8750   2925.4949  -2903.4949      84.1370     160.1470      86.6490       0.0166       0.2277       0.1483       2.4230       1.0000       0.1443
   3256.0000   2925.6167  -2903.6167      83.6472     161.9811      87.8635       0.0166       0.2337       0.1483       2.4230       1.0000       0.1636
   3256.1250   2925.7385  -2903.7385      83.2208     162.6605      89.1384       0.0175       0.2417       0.1495       2.4211       1.0000       0.1840
   3256.2500   2925.8604  -2903.8604      82.8652     162.1065      90.3621       0.0178       0.2463       0.1498       2.4205       1.0000       0.2037
   3256.3750   2925.9822  -2903.9822      82.5877     160.5014      91.5025       0.0166       0.2448       0.1483       2.4230       1.0000       0.2220
   3256.5000   2926.1038  -2904.1038      82.3897     158.1607      92.5666       0.0140       0.2372       0.1445       2.4294       1.0000       0.2390
   3256.6250   2926.2256  -2904.2256      82.2691     155.2421      93.4987       0.0105       0.2282       0.1381       2.4401       1.0000       0.2540
   3256.7500   2926.3474  -2904.3474      82.2200     151.8116      94.2524       0.0087       0.2276       0.1339       2.4470       1.0000       0.2661
   3256.8750   2926.4692  -2904.4692      82.2087     147.9919      95.1137       0.0085       0.2339       0.1334       2.4479       1.0000       0.2799
   3257.0000   2926.5911  -2904.5911      82.2037     144.1919      96.3285       0.0093       0.2425       0.1353       2.4447       1.0000       0.2994
   3257.1250   2926.7126  -2904.7126      82.1701     141.0042      98.0236       0.0103       0.2495       0.1376       2.4408       1.0000       0.3266
   3257.2500   2926.8345  -2904.8345      82.0739     139.1423     100.1703       0.0104       0.2528       0.1380       2.4403       0.9632       0.3610
   3257.3750   2926.9563  -2904.9563      81.8920     139.7387     102.6860       0.0088       0.2546       0.1340       2.4468       0.9379       0.4013
   3257.5000   2927.0781  -2905.0781      81.6871     142.5732     105.2958       0.0061       0.2584       0.1261       2.4601       0.9300       0.4433
   3257.6250   2927.2000  -2905.2000      81.4962     146.9155     107.6951       0.0042       0.2633       0.1178       2.4739       0.9183       0.4818
   3257.7500   2927.3218  -2905.3218      81.3710     152.0048     109.4637       0.0032       0.2678       0.1114       2.4845       0.8948       0.5101
   3257.8750   2927.4434  -2905.4434      81.3761     157.0893     110.1842       0.0028       0.2698       0.1089       2.4887       0.8532       0.5217
   3258.0000   2927.5652  -2905.5652      81.6112     161.5449     109.4884       0.0035       0.2654       0.1138       2.4805       0.7825       0.5105
   3258.1250   2927.6870  -2905.6870      82.2854     164.6416     108.0835       0.0088       0.2674       0.1342       2.4437       0.6603       0.4880
   3258.2500   2927.8088  -2905.8088      83.4768     166.2721     107.1424       0.0438       0.2896       0.1699       2.3779       0.5469       0.4729
   3258.3750   2927.9304  -2905.9304      85.1876     166.5186     106.8907       0.3951       0.3307       0.2189       2.2862       0.4441       0.4688
   3258.5000   2928.0522  -2906.0522      87.3181     165.5917     106.9834       4.7413       0.3807       0.2743       2.1824       0.3690       0.4703
   3258.6250   2928.1741  -2906.1741      89.6701     163.7820     106.6036      43.8932       0.4230       0.3239       2.0896       0.3211       0.4642
   3258.7500   2928.2959  -2906.2959      91.8549     161.2974     104.6097     107.7169       0.4329       0.3439       2.0527       0.3080       0.4322
   3258.8750   2928.4177  -2906.4177      93.5514     159.0307     101.7547      55.4768       0.4141       0.3291       2.0817       0.3302       0.3864
   3259.0000   2928.5393  -2906.5393      94.6371     157.4150      99.0311      12.1660       0.3805       0.2953       2.1474       0.3845       0.3427
   3259.1250   2928.6611  -2906.6611      95.0411     156.5718      96.7711       2.2207       0.3444       0.2574       2.2221       0.4734       0.3065
   3259.2500   2928.7830  -2906.7830      94.7498     156.3996      94.9161       0.5969       0.3149       0.2281       2.2822       0.5934       0.2767
   3259.3750   2928.9048  -2906.9048      93.7881     156.5610      92.9846       0.3053       0.2937       0.2132       2.3150       0.7282       0.2458
   3259.5000   2929.0264  -2907.0264      92.2867     156.2981      90.7953       0.2202       0.2777       0.2059       2.3271       0.8564       0.2106
   3259.6250   2929.1482  -2907.1482      90.6879     155.5096      88.8829       0.1487       0.2694       0.1971       2.3417       0.9806       0.1799
   3259.7500   2929.2700  -2907.2700      89.1928     154.5892      87.6112       0.0989       0.2675       0.1880       2.3568       1.0000       0.1595
   3259.8750   2929.3918  -2907.3918      87.9342     153.9861      87.0870       0.0702       0.2687       0.1804       2.3696       1.0000       0.1511
   3260.0000   2929.5134  -2907.5134      86.9759     154.0728      87.1816       0.0568       0.2685       0.1757       2.3774       1.0000       0.1526
   3260.1250   2929.6353  -2907.6353      86.3433     154.8228      87.6043       0.0509       0.2616       0.1733       2.3815       1.0000       0.1594
   3260.2500   2929.7571  -2907.7571      85.9557     155.9725      88.3622       0.0474       0.2535       0.1716       2.3841       1.0000       0.1716
