#------------------------------------------------------------------------------
#
#   Created by  : [OpenWorks] Log Export Utility (LEXP)
#   Created on  : 2007-05-07 11:57:11
#   Project     : NORNE
#   User        : JSE
#   Interpreter : JSE
#
#------------------------------------------------------------------------------
~VERSION INFORMATION
VERS. 2.0 : CWLS Log ASCII Standard - version 2.0
WRAP.  NO : One line per depth step
~WELL INFORMATION
#MNEMONIC   .UNIT                                           VALUE :DESCRIPTION
#------------------------------------------------------------------------------
STRT        .M                                          1205.1348 :START DEPTH
STOP        .M                                          4417.7598 :STOP DEPTH
STEP        .M                                             0.1250 :STEP
NULL        .                                           -999.2500 :NULL VALUE
COMP        .                                             STATOIL :COMPANY
WELL        .                                       6608/10-C-2 H :WELL
FLD         .                                               NORNE :FIELD
LOC         .                                             UNKNOWN :LOCATION
CNTY        .                                             UNKNOWN :COUNTY
STAT        .                                             UNKNOWN :STATE
CTRY        .                                              Norway :COUNTRY
SRVC        .                                             UNKNOWN :SERVICE COMPANY
DATE        .                                             UNKNOWN :LOG DATE
UWI         .                                    NO 6608/10-C-2 H :UNIQUE WELL ID
XCOORD      .                                       457185.617758 :SURFACE X
YCOORD      .                                      7322019.729827 :SURFACE Y
LAT         .                                           66.014372 :LATITUDE
LON         .                                            8.056161 :LONGITUDE
ELEV        .M                                            22.0000 :SURFACE ELEV
ELEV_TYPE   .                                                  KB :ELEV TYPE
~CURVE INFORMATION
#MNEMONIC.UNIT        API CODE       : CURVE DESCRIPTION
#------------------------------------------------------------------------------
DEPTH    .M                          : Measured Depth
TVD      .M                          : True Vertical Depth (TVD)
TVDSS    .M                          : True Vertical Depth (TVDSS)
DT       .us/ft       UNKNOWN        : DT:DT:rC::v0 (auto-composite)
DTS      .us/ft       UNKNOWN        : DTS:DTS:rC::v0 (auto-composite)
GR       .API         UNKNOWN        : GR:GR:rC::v0 (auto-composite)
KLOGH    .mD          UNKNOWN        : KLOGH:UNKNOWN:rC:NONE:v1 
NPHI     .v/v_decimal UNKNOWN        : NPHI:NPHI:rC::v0 (auto-composite)
PHIF     .v/v_decimal UNKNOWN        : PHIF:PHIF:rC::v0 (auto-composite)
SW       .v/v_decimal UNKNOWN        : SW:SW:rC::v0 (auto-composite)
VSH      .v/v_decimal UNKNOWN        : VSH:VSH:rC::v0 (auto-composite)
~A     DEPTH         TVD       TVDSS           DT          DTS           GR        KLOGH         NPHI         PHIF           SW          VSH
# ...
   4211.8848   2780.9971  -2758.9971      89.1695     154.1258      57.5606     557.9310       0.2430       0.2710       0.8530       0.0301
   4212.0098   2781.0757  -2759.0757      90.9935     157.1724      56.7658     378.1403       0.2303       0.2620       0.9131       0.0208
   4212.1348   2781.1543  -2759.1543      92.4879     160.2774      57.9289     229.2332       0.2238       0.2500       0.9731       0.0345
   4212.2598   2781.2327  -2759.2327      93.6580     163.2775      59.7254     151.0388       0.2239       0.2417       0.9983       0.0556
   4212.3848   2781.3113  -2759.3113      94.5186     166.0242      61.6004     129.7191       0.2296       0.2385       1.0000       0.0777
   4212.5098   2781.3896  -2759.3896      95.0978     168.3953      62.7223     157.0578       0.2380       0.2416       1.0000       0.0909
   4212.6348   2781.4683  -2759.4683      95.4063     170.2841      60.7195     301.1734       0.2440       0.2571       1.0000       0.0673
   4212.7598   2781.5469  -2759.5469      95.4212     171.6176      59.6672     409.5484       0.2459       0.2639       1.0000       0.0549
   4212.8848   2781.6252  -2759.6252      95.1902     172.5576      61.2473     346.0754       0.2493       0.2599       1.0000       0.0735
   4213.0098   2781.7039  -2759.7039      94.7648     173.1341      60.6600     556.2493       0.2538       0.2671       1.0000       0.0666
   4213.1348   2781.7825  -2759.7825      94.2184     173.3728      56.8212    1176.2628       0.2576       0.2864       0.9923       0.0281
   4213.2598   2781.8608  -2759.8608      93.6398     173.3060      52.7463    1927.1772       0.2586       0.2986       0.9681       0.0000
   4213.3848   2781.9395  -2759.9395      93.1516     173.0089      53.9433    1636.5458       0.2550       0.2950       0.9681       0.0000
   4213.5098   2782.0181  -2760.0181      92.8332     172.7245      54.7564    1327.1526       0.2503       0.2902       0.9815       0.0002
   4213.6348   2782.0964  -2760.0964      92.7077     172.5960      54.5372    1136.0592       0.2469       0.2868       0.9939       0.0002
   4213.7598   2782.1750  -2760.1750      92.7875     172.6644      54.8041     997.6891       0.2458       0.2839       1.0000       0.0047
   4213.8848   2782.2534  -2760.2534      93.0654     172.9148      57.4646     751.3906       0.2462       0.2746       1.0000       0.0290
   4214.0098   2782.3320  -2760.3320      93.5076     173.2775      63.9362     164.0758       0.2449       0.2428       1.0000       0.1054
   4214.1348   2782.4106  -2760.4106      94.0396     173.6594      63.0815     178.1263       0.2436       0.2455       1.0000       0.0951
   4214.2598   2782.4890  -2760.4890      94.5452     174.0156      60.8341     344.1306       0.2459       0.2585       1.0000       0.0686
   4214.3848   2782.5676  -2760.5676      94.9841     174.3467      56.0815     912.8945       0.2500       0.2779       0.9930       0.0303
   4214.5098   2782.6462  -2760.6462      95.3497     174.6600      52.4306    1583.9755       0.2542       0.2942       0.9785       0.0000
   4214.6348   2782.7246  -2760.7246      95.6619     174.9628      54.9462    1726.9023       0.2570       0.2959       0.9658       0.0026
   4214.7598   2782.8032  -2760.8032      95.9565     175.2369      57.3599    1023.6400       0.2553       0.2841       0.9964       0.0281
   4214.8848   2782.8816  -2760.8816      96.2597     175.4124      58.6019     630.5770       0.2498       0.2729       1.0000       0.0424
   4215.0098   2782.9602  -2760.9602      96.5733     175.4974      58.5491     458.1505       0.2432       0.2665       1.0000       0.0418
   4215.1348   2783.0388  -2761.0388      96.8930     175.5328      57.7958     451.8873       0.2394       0.2662       1.0000       0.0329
   4215.2598   2783.1172  -2761.1172      97.2141     175.5820      56.2199     697.2604       0.2418       0.2738       0.9913       0.0201
   4215.3848   2783.1958  -2761.1958      97.5320     175.7250      52.3779    1478.0786       0.2528       0.2928       0.9529       0.0000
   4215.5098   2783.2744  -2761.2744      97.8788     176.0487      54.5096    3199.9641       0.2689       0.3089       0.8984       0.0000
   4215.6348   2783.3528  -2761.3528      98.2455     176.4427      57.5445    2768.7817       0.2783       0.3063       0.8947       0.0301
   4215.7598   2783.4314  -2761.4314      98.6073     176.8414      58.5461    2107.7588       0.2772       0.3005       0.8996       0.0417
   4215.8848   2783.5098  -2761.5098      98.9347     177.2064      58.5034    1505.8696       0.2674       0.2910       0.9173       0.0412
   4216.0098   2783.5884  -2761.5884      99.2000     177.5206      59.5513     615.1335       0.2546       0.2731       0.9623       0.0535
   4216.1348   2783.6670  -2761.6670      99.3780     177.7733      59.0544     492.5782       0.2473       0.2682       0.9771       0.0477
   4216.2598   2783.7454  -2761.7454      99.5262     177.9289      58.7830     578.1075       0.2495       0.2717       0.9665       0.0445
   4216.3848   2783.8240  -2761.8240      99.6988     178.0108      60.2442     510.5989       0.2534       0.2687       0.9747       0.0617
   4216.5098   2783.9026  -2761.9026      99.9085     178.0398      62.5547     353.8392       0.2554       0.2599       0.9902       0.0889
   4216.6348   2783.9810  -2761.9810     100.1479     178.0406      64.1899     238.7311       0.2553       0.2520       1.0000       0.1081
   4216.7598   2784.0596  -2762.0596     100.3899     178.0406      63.5107     295.6961       0.2566       0.2565       0.9989       0.1001
   4216.8848   2784.1382  -2762.1382     100.5786     178.0923      61.3415     695.7679       0.2647       0.2748       0.9635       0.0746
   4217.0098   2784.2166  -2762.2166     100.7027     178.2260      62.9533     723.9682       0.2743       0.2768       0.9475       0.0936
   4217.1348   2784.2952  -2762.2952     100.7709     178.4717      65.8070     554.9344       0.2809       0.2701       0.9525       0.1271
   4217.2598   2784.3735  -2762.3735     100.7840     178.8299      71.2722     286.4152       0.2818       0.2452       0.9742       0.1914
   4217.3848   2784.4521  -2762.4521     100.7351     179.2693      79.5597      24.6955       0.2758       0.2002       1.0000       0.2889
   4217.5098   2784.5308  -2762.5308     100.5948     179.7067      81.8590       8.9633       0.2642       0.1778       1.0000       0.3160
   4217.6348   2784.6091  -2762.6091     100.3475     179.9940      83.3006       4.8677       0.2575       0.1643       1.0000       0.3329
   4217.7598   2784.6877  -2762.6877     100.0209     180.0573      85.9954       2.6692       0.2561       0.1503       1.0000       0.3647
   4217.8848   2784.7664  -2762.7664      99.6250     179.8337      85.6712       3.1099       0.2568       0.1525       1.0000       0.3608
   4218.0098   2784.8447  -2762.8447      99.1693     179.2670      83.3688       4.5301       0.2568       0.1633       1.0000       0.3338
   4218.1348   2784.9233  -2762.9233      98.6621     178.3162      85.2965       2.8173       0.2549       0.1524       1.0000       0.3564
   4218.2598   2785.0017  -2763.0017      98.1009     176.9205      90.1395       0.9120       0.2490       0.1236       1.0000       0.4134
   4218.3848   2785.0803  -2763.0803      97.5252     175.2575      83.3933       3.0555       0.2422       0.1485       1.0000       0.3340
   4218.5098   2785.1589  -2763.1589      96.9783     173.4986      77.8747       6.6802       0.2384       0.1708       0.9729       0.2691
   4218.6348   2785.2373  -2763.2373      96.4861     171.7846      73.9356      16.8424       0.2378       0.1887       0.9119       0.2228
   4218.7598   2785.3159  -2763.3159      96.0655     170.2391      70.1280      34.0610       0.2398       0.2086       0.8390       0.1780
   4218.8848   2785.3945  -2763.3945      95.7308     168.9648      70.3244      42.3324       0.2457       0.2136       0.8281       0.1803
