#------------------------------------------------------------------------------
#
#   Created by  : [OpenWorks] Log Export Utility (LEXP)
#   Created on  : 2007-05-07 11:57:11
#   Project     : NORNE
#   User        : JSE
#   Interpreter : JSE
#
#------------------------------------------------------------------------------
~VERSION INFORMATION
VERS. 2.0 : CWLS Log ASCII Standard - version 2.0
WRAP.  NO : One line per depth step
~WELL INFORMATION
#MNEMONIC   .UNIT                                           VALUE :DESCRIPTION
#------------------------------------------------------------------------------
STRT        .M                                          1205.1348 :START DEPTH
STOP        .M                                          4417.7598 :STOP DEPTH
STEP        .M                                             0.1250 :STEP
NULL        .                                           -999.2500 :NULL VALUE
COMP        .                                             STATOIL :COMPANY
WELL        .                                       6608/10-C-2 H :WELL
FLD         .                                               NORNE :FIELD
LOC         .                                             UNKNOWN :LOCATION
CNTY        .                                             UNKNOWN :COUNTY
STAT        .                                             UNKNOWN :STATE
CTRY        .                                              Norway :COUNTRY
SRVC        .                                             UNKNOWN :SERVICE COMPANY
DATE        .                                             UNKNOWN :LOG DATE
UWI         .                                    NO 6608/10-C-2 H :UNIQUE WELL ID
XCOORD      .                                       457185.617758 :SURFACE X
YCOORD      .                                      7322019.729827 :SURFACE Y
LAT         .                                           66.014372 :LATITUDE
LON         .                                            8.056161 :LONGITUDE
ELEV        .M                                            22.0000 :SURFACE ELEV
ELEV_TYPE   .                                                  KB :ELEV TYPE
~CURVE INFORMATION
#MNEMONIC.UNIT        API CODE       : CURVE DESCRIPTION
#------------------------------------------------------------------------------
DEPTH    .M                          : Measured Depth
TVD      .M                          : True Vertical Depth (TVD)
TVDSS    .M                          : True Vertical Depth (TVDSS)
DT       .us/ft       UNKNOWN        : DT:DT:rC::v0 (auto-composite)
DTS      .us/ft       UNKNOWN        : DTS:DTS:rC::v0 (auto-composite)
GR       .API         UNKNOWN        : GR:GR:rC::v0 (auto-composite)
KLOGH    .mD          UNKNOWN        : KLOGH:UNKNOWN:rC:NONE:v1 
NPHI     .v/v_decimal UNKNOWN        : NPHI:NPHI:rC::v0 (auto-composite)
PHIF     .v/v_decimal UNKNOWN        : PHIF:PHIF:rC::v0 (auto-composite)
SW       .v/v_decimal UNKNOWN        : SW:SW:rC::v0 (auto-composite)
VSH      .v/v_decimal UNKNOWN        : VSH:VSH:rC::v0 (auto-composite)
~A     DEPTH         TVD       TVDSS           DT          DTS           GR        KLOGH         NPHI         PHIF           SW          VSH
# ...
   3677.5098   2506.4429  -2484.4429      99.4046     200.0035     104.3497    -999.2500    -999.2500    -999.2500    -999.2500    -999.2500
   3677.6348   2506.4961  -2484.4961      99.3479     199.1388      98.9958    -999.2500    -999.2500    -999.2500    -999.2500    -999.2500
   3677.7598   2506.5491  -2484.5491      99.1830     198.0359      98.1518    -999.2500    -999.2500    -999.2500    -999.2500    -999.2500
   3677.8848   2506.6021  -2484.6021      98.8685     196.6489     103.5027    -999.2500    -999.2500    -999.2500    -999.2500    -999.2500
   3678.0098   2506.6553  -2484.6553      98.3360     194.9496     103.6262    -999.2500    -999.2500    -999.2500    -999.2500    -999.2500
   3678.1348   2506.7083  -2484.7083      97.5178     193.1264     101.6168    -999.2500    -999.2500    -999.2500    -999.2500    -999.2500
   3678.2598   2506.7615  -2484.7615      96.3968     191.4207      99.6984    -999.2500    -999.2500    -999.2500    -999.2500    -999.2500
   3678.3848   2506.8145  -2484.8145      94.9901     189.9664     100.1938    -999.2500    -999.2500    -999.2500    -999.2500    -999.2500
   3678.5098   2506.8674  -2484.8674      93.3900     188.8652     101.3522    -999.2500    -999.2500    -999.2500    -999.2500    -999.2500
   3678.6348   2506.9207  -2484.9207      91.7741     188.1916      96.9287    -999.2500    -999.2500    -999.2500    -999.2500    -999.2500
   3678.7598   2506.9736  -2484.9736      90.4991     188.2507     101.8789    -999.2500    -999.2500    -999.2500    -999.2500    -999.2500
   3678.8848   2507.0266  -2485.0266      89.7032     189.0403     104.1470    -999.2500    -999.2500    -999.2500    -999.2500    -999.2500
   3679.0098   2507.0798  -2485.0798      89.4128     190.5387     101.8230    -999.2500    -999.2500    -999.2500    -999.2500    -999.2500
   3679.1348   2507.1328  -2485.1328      89.6144     192.6760     100.7377    -999.2500    -999.2500    -999.2500    -999.2500    -999.2500
   3679.2598   2507.1860  -2485.1860      90.2492     195.3000     105.3083    -999.2500    -999.2500    -999.2500    -999.2500    -999.2500
   3679.3848   2507.2390  -2485.2390      91.2346     198.1324     103.6279    -999.2500    -999.2500    -999.2500    -999.2500    -999.2500
   3679.5098   2507.2920  -2485.2920      92.3997     200.7339     104.3604    -999.2500    -999.2500    -999.2500    -999.2500    -999.2500
   3679.6348   2507.3452  -2485.3452      93.5200     202.9050     103.7136    -999.2500    -999.2500    -999.2500    -999.2500    -999.2500
   3679.7598   2507.3982  -2485.3982      94.4800     204.5518     105.0118    -999.2500    -999.2500    -999.2500    -999.2500    -999.2500
   3679.8848   2507.4514  -2485.4514      95.2184     205.5904     108.1175    -999.2500    -999.2500    -999.2500    -999.2500    -999.2500
   3680.0098   2507.5044  -2485.5044      95.7300     205.9351     109.0554    -999.2500    -999.2500    -999.2500    -999.2500    -999.2500
   3680.1348   2507.5576  -2485.5576      96.0229     205.2598     110.0760    -999.2500    -999.2500    -999.2500    -999.2500    -999.2500
   3680.2598   2507.6108  -2485.6108      96.1182     203.7157     109.2514    -999.2500    -999.2500    -999.2500    -999.2500    -999.2500
   3680.3848   2507.6641  -2485.6641      96.0390     201.6834     107.9141    -999.2500    -999.2500    -999.2500    -999.2500    -999.2500
   3680.5098   2507.7173  -2485.7173      95.8112     199.5507     103.3607    -999.2500    -999.2500    -999.2500    -999.2500    -999.2500
   3680.6348   2507.7705  -2485.7705      95.4776     197.7298      96.6181    -999.2500    -999.2500    -999.2500    -999.2500    -999.2500
   3680.7598   2507.8237  -2485.8237      95.1043     196.6599     101.5599    -999.2500    -999.2500    -999.2500    -999.2500    -999.2500
   3680.8848   2507.8770  -2485.8770      94.8195     196.7778      95.4979    -999.2500    -999.2500    -999.2500    -999.2500    -999.2500
   3681.0098   2507.9302  -2485.9302      94.6685     197.7367      95.4356    -999.2500    -999.2500    -999.2500    -999.2500    -999.2500
   3681.1348   2507.9834  -2485.9834      94.6717     199.2715      96.3865    -999.2500    -999.2500    -999.2500    -999.2500    -999.2500
   3681.2598   2508.0366  -2486.0366      94.8378     201.0849      96.4956    -999.2500    -999.2500    -999.2500    -999.2500    -999.2500
   3681.3848   2508.0898  -2486.0898      95.1622     202.8770      97.1128    -999.2500    -999.2500    -999.2500    -999.2500    -999.2500
   3681.5098   2508.1431  -2486.1431      95.6283     204.3030      95.3086    -999.2500    -999.2500    -999.2500    -999.2500    -999.2500
   3681.6348   2508.1963  -2486.1963      96.1177     205.2561      95.4974    -999.2500    -999.2500    -999.2500    -999.2500    -999.2500
   3681.7598   2508.2495  -2486.2495      96.5423     205.8563      93.4756    -999.2500    -999.2500    -999.2500    -999.2500    -999.2500
   3681.8848   2508.3025  -2486.3025      96.8537     206.1582      95.0287    -999.2500    -999.2500    -999.2500    -999.2500    -999.2500
   3682.0098   2508.3557  -2486.3557      97.0277     206.2179     101.5572    -999.2500    -999.2500    -999.2500    -999.2500    -999.2500
   3682.1348   2508.4089  -2486.4089      97.0660     206.0940     101.3982    -999.2500    -999.2500    -999.2500    -999.2500    -999.2500
   3682.2598   2508.4622  -2486.4622      96.9602     205.8702     104.8235    -999.2500    -999.2500    -999.2500    -999.2500    -999.2500
   3682.3848   2508.5154  -2486.5154      96.7805     205.5883     108.8040    -999.2500    -999.2500    -999.2500    -999.2500    -999.2500
   3682.5098   2508.5686  -2486.5686      96.5557     205.3000     110.6606    -999.2500    -999.2500    -999.2500    -999.2500    -999.2500
   3682.6348   2508.6218  -2486.6218      96.3118     205.0609     111.1402    -999.2500    -999.2500    -999.2500    -999.2500    -999.2500
   3682.7598   2508.6750  -2486.6750      96.0694     204.9153     111.9861    -999.2500    -999.2500    -999.2500    -999.2500    -999.2500
   3682.8848   2508.7283  -2486.7283      95.8441     204.8538     107.5532    -999.2500    -999.2500    -999.2500    -999.2500    -999.2500
   3683.0098   2508.7815  -2486.7815      95.6367     204.6778     109.1947    -999.2500    -999.2500    -999.2500    -999.2500    -999.2500
   3683.1348   2508.8347  -2486.8347      95.4090     204.2550     108.8709    -999.2500    -999.2500    -999.2500    -999.2500    -999.2500
   3683.2598   2508.8879  -2486.8879      95.1159     203.5458     108.2825    -999.2500    -999.2500    -999.2500    -999.2500    -999.2500
   3683.3848   2508.9412  -2486.9412      94.7065     202.5862     107.1038    -999.2500    -999.2500    -999.2500    -999.2500    -999.2500
   3683.5098   2508.9944  -2486.9944      94.1400     201.5050      99.8207    -999.2500    -999.2500    -999.2500    -999.2500    -999.2500
   3683.6348   2509.0476  -2487.0476      93.3187     200.4404     101.3027    -999.2500    -999.2500    -999.2500    -999.2500    -999.2500
   3683.7598   2509.1008  -2487.1008      92.4028     199.5079     102.9223    -999.2500    -999.2500    -999.2500    -999.2500    -999.2500
   3683.8848   2509.1541  -2487.1541      91.4813     198.8088     102.2998    -999.2500    -999.2500    -999.2500    -999.2500    -999.2500
   3684.0098   2509.2073  -2487.2073      90.6632     198.4929     101.1547    -999.2500    -999.2500    -999.2500    -999.2500    -999.2500
   3684.1348   2509.2605  -2487.2605      90.0596     198.7198     102.4472    -999.2500    -999.2500    -999.2500    -999.2500    -999.2500
   3684.2598   2509.3137  -2487.3137      89.8155     199.7062     105.8887    -999.2500    -999.2500    -999.2500    -999.2500    -999.2500
   3684.3848   2509.3669  -2487.3669      90.0295     201.3809     107.2919    -999.2500       0.6799    -999.2500    -999.2500    -999.2500
   3684.5098   2509.4202  -2487.4202      90.5922     203.2892     108.9596    -999.2500       0.7079    -999.2500    -999.2500    -999.2500
