#------------------------------------------------------------------------------
#
#   Created by  : [OpenWorks] Log Export Utility (LEXP)
#   Created on  : 2007-05-07 11:57:18
#   Project     : NORNE
#   User        : JSE
#   Interpreter : JSE
#
#------------------------------------------------------------------------------
~VERSION INFORMATION
VERS. 2.0 : CWLS Log ASCII Standard - version 2.0
WRAP.  NO : One line per depth step
~WELL INFORMATION
#MNEMONIC   .UNIT                                           VALUE :DESCRIPTION
#------------------------------------------------------------------------------
STRT        .M                                           437.6250 :START DEPTH
STOP        .M                                          2890.0000 :STOP DEPTH
STEP        .M                                             0.1250 :STEP
NULL        .                                           -999.2500 :NULL VALUE
COMP        .                                             STATOIL :COMPANY
WELL        .                                       6608/10-C-4 H :WELL
FLD         .                                               NORNE :FIELD
LOC         .                                             UNKNOWN :LOCATION
CNTY        .                                             UNKNOWN :COUNTY
STAT        .                                             UNKNOWN :STATE
CTRY        .                                              Norway :COUNTRY
SRVC        .                                             UNKNOWN :SERVICE COMPANY
DATE        .                                             UNKNOWN :LOG DATE
UWI         .                                    NO 6608/10-C-4 H :UNIQUE WELL ID
XCOORD      .                                       457180.075915 :SURFACE X
YCOORD      .                                      7322034.182216 :SURFACE Y
LAT         .                                           66.014501 :LATITUDE
LON         .                                            8.056034 :LONGITUDE
ELEV        .M                                            25.0000 :SURFACE ELEV
ELEV_TYPE   .                                                  KB :ELEV TYPE
~CURVE INFORMATION
#MNEMONIC.UNIT        API CODE       : CURVE DESCRIPTION
#------------------------------------------------------------------------------
DEPTH    .M                          : Measured Depth
TVD      .M                          : True Vertical Depth (TVD)
TVDSS    .M                          : True Vertical Depth (TVDSS)
DT       .us/ft                      : DT:UNKNOWN:rC:NONE:v1 
GR       .API                        : GR:UNKNOWN:rC:NONE:v1 
KLOGH    .mD          UNKNOWN        : KLOGH:UNKNOWN:rC::v0 (auto-composite)
NPHI     .v/v_decimal                : NPHI:UNKNOWN:rC:NONE:v1 
PHIF     .v/v_decimal UNKNOWN        : PHIF:UNKNOWN:rC::v0 (auto-composite)
RHOB     .g/cm3                      : RHOB:UNKNOWN:rC:NONE:v1 
SW       .v/v_decimal UNKNOWN        : SW:UNKNOWN:rC::v0 (auto-composite)
VSH      .v/v_decimal UNKNOWN        : VSH:UNKNOWN:rC::v0 (auto-composite)
~A     DEPTH         TVD       TVDSS           DT           GR        KLOGH         NPHI         PHIF         RHOB           SW          VSH
# ...
   2710.5000   2686.4988  -2661.4988      94.9184      80.6247      23.2261       0.2300       0.2288       2.2672       0.3675       0.0990
   2710.6250   2686.6238  -2661.6238      94.8006      82.8009      49.5134       0.2327       0.2419       2.2415       0.3539       0.1273
   2710.7500   2686.7488  -2661.7488      94.7080      80.6381      50.9599       0.2342       0.2424       2.2464       0.3578       0.0992
   2710.8750   2686.8738  -2661.8738      94.6752      80.1048      39.9250       0.2350       0.2382       2.2514       0.3639       0.0923
   2711.0000   2686.9988  -2661.9988      94.7045      81.3647      27.8172       0.2368       0.2319       2.2627       0.3768       0.1086
   2711.1250   2687.1238  -2662.1238      94.7703      83.4584      24.6209       0.2387       0.2298       2.2670       0.3803       0.1358
   2711.2500   2687.2488  -2662.2488      94.8507      85.4946      30.5329       0.2399       0.2335       2.2581       0.3732       0.1623
   2711.3750   2687.3738  -2662.3738      94.9224      85.0460      41.1566       0.2402       0.2387       2.2451       0.3649       0.1565
   2711.5000   2687.4988  -2662.4988      94.9620      77.1320      35.2047       0.2401       0.2360       2.2600       0.3675       0.0543
   2711.6250   2687.6238  -2662.6238      94.9376      80.0378     102.0494       0.2396       0.2544       2.2258       0.3403       0.0914
   2711.7500   2687.7488  -2662.7488      94.8692      82.9396     117.7345       0.2386       0.2569       2.2212       0.3387       0.1291
   2711.8750   2687.8738  -2662.8738      94.7634      81.1560      58.3034       0.2378       0.2447       2.2435       0.3540       0.1059
   2712.0000   2687.9988  -2662.9988      94.6287      78.1543      31.9955       0.2383       0.2343       2.2611       0.3675       0.0669
   2712.1250   2688.1238  -2663.1238      94.4779      79.9361      60.4697       0.2403       0.2454       2.2404       0.3549       0.0901
   2712.2500   2688.2488  -2663.2488      94.3402      79.9542     125.1570       0.2415       0.2580       2.2174       0.3431       0.0903
   2712.3750   2688.3738  -2663.3738      94.2635      76.0213      66.4725       0.2378       0.2470       2.2385       0.3592       0.0392
   2712.5000   2688.4988  -2663.4988      94.2438      76.6742      75.7296       0.2314       0.2493       2.2303       0.3635       0.0477
   2712.6250   2688.6238  -2663.6238      94.2618      79.4853      84.5212       0.2261       0.2512       2.2249       0.3665       0.0842
   2712.7500   2688.7488  -2663.7488      94.2890      81.7370      76.6939       0.2247       0.2495       2.2300       0.3684       0.1135
   2712.8750   2688.8738  -2663.8738      94.2919      82.9881     195.5597       0.2270       0.2657       2.1979       0.3473       0.1297
   2713.0000   2688.9985  -2663.9985      94.2411      79.4099      43.0301       0.2286       0.2395       2.2464       0.3816       0.0832
   2713.1250   2689.1235  -2664.1235      94.1686      80.2365      37.7332       0.2297       0.2372       2.2501       0.3865       0.0940
   2713.2500   2689.2485  -2664.2485      94.0682      80.8461      46.9119       0.2334       0.2410       2.2451       0.3830       0.1019
   2713.3750   2689.3735  -2664.3735      93.9090      81.6782      55.1987       0.2400       0.2438       2.2430       0.3817       0.1127
   2713.5000   2689.4985  -2664.4985      93.6543      83.9096      54.6653       0.2469       0.2436       2.2430       0.3854       0.1417
   2713.6250   2689.6235  -2664.6235      93.2758      82.3359      55.2764       0.2458       0.2438       2.2430       0.3868       0.1212
   2713.7500   2689.7485  -2664.7485      92.8498      80.5120      70.6296       0.2360       0.2481       2.2331       0.3799       0.0975
   2713.8750   2689.8735  -2664.8735      92.4679      82.5957      48.5459       0.2284       0.2416       2.2439       0.3906       0.1246
   2714.0000   2689.9985  -2664.9985      92.1487      83.1429      37.0749       0.2248       0.2369       2.2536       0.3984       0.1317
   2714.1250   2690.1235  -2665.1235      91.8752      81.0324      38.5859       0.2238       0.2376       2.2534       0.3966       0.1043
   2714.2500   2690.2485  -2665.2485      91.6007      80.9746      35.3809       0.2211       0.2361       2.2553       0.3995       0.1035
   2714.3750   2690.3735  -2665.3735      91.2750      83.5469      27.3417       0.2164       0.2316       2.2627       0.4078       0.1370
   2714.5000   2690.4985  -2665.4985      91.0077      84.1684      50.7444       0.2123       0.2423       2.2450       0.4018       0.1450
   2714.6250   2690.6235  -2665.6235      90.9435      85.2965      24.5906       0.2071       0.2298       2.2694       0.4282       0.1597
   2714.7500   2690.7485  -2665.7485      91.1643      87.1448       2.0687       0.2017       0.1869       2.3438       0.5146       0.1837
   2714.8750   2690.8735  -2665.8735      91.6798      89.7996       0.1284       0.1977       0.1388       2.4228       0.6641       0.2181
   2715.0000   2690.9985  -2665.9985      92.3941      95.3185       0.5456       0.1986       0.1638       2.3744       0.5635       0.2899
   2715.1250   2691.1235  -2666.1235      93.0456      97.5157       1.7440       0.2066       0.1839       2.3408       0.4994       0.3184
   2715.2500   2691.2485  -2666.2485      93.5003      91.2713       2.5554       0.2178       0.1906       2.3308       0.4755       0.2373
   2715.3750   2691.3735  -2666.3735      93.7182      83.7907      20.7559       0.2268       0.2269       2.2656       0.3876       0.1402
   2715.5000   2691.4985  -2666.4985      93.6397      77.8776     429.3812       0.2294       0.2793       2.1611       0.2882       0.0634
   2715.6250   2691.6235  -2666.6235      93.1738      72.1727    1395.4916       0.2234       0.2997       2.1138       0.2292       0.0010
   2715.7500   2691.7485  -2666.7485      92.0259      72.7208    2202.0303       0.2098       0.3016       2.1515       0.1959       0.0010
   2715.8750   2691.8735  -2666.8735      90.1066      71.7675     189.1499       0.1941       0.2469       2.2581       0.1861       0.0010
   2716.0000   2691.9985  -2666.9985      87.6171      68.7738      42.6106       0.1799       0.2137       2.3208       0.1874       0.0010
   2716.1250   2692.1235  -2667.1235      84.8582      64.7311      18.2876       0.1682       0.1949       2.3550       0.1990       0.0010
   2716.2500   2692.2485  -2667.2485      82.2116      61.3613       5.8933       0.1590       0.1696       2.4036       0.2346       0.0010
   2716.3750   2692.3733  -2667.3733      80.1258      60.8608       0.9001       0.1515       0.1278       2.4931       0.2937       0.0010
   2716.5000   2692.4983  -2667.4983      79.1464      60.1250       0.5731       0.1461       0.1177       2.5054       0.2670       0.0010
   2716.6250   2692.6233  -2667.6233      79.0604      63.8875       0.2546       0.1441       0.0996       2.5304       0.2915       0.0010
   2716.7500   2692.7483  -2667.7483      79.7809      64.2664       0.3090       0.1471       0.1039       2.5219       0.2617       0.0010
   2716.8750   2692.8733  -2667.8733      81.2097      62.9061       1.1055       0.1557       0.1324       2.4706       0.2054       0.0010
   2717.0000   2692.9983  -2667.9983      83.2448      65.9177       6.7185       0.1698       0.1726       2.3935       0.1829       0.0010
   2717.1250   2693.1233  -2668.1233      85.8623      64.0839     103.8788       0.1882       0.2336       2.2803       0.1495       0.0010
   2717.2500   2693.2483  -2668.2483      88.8107      65.4923     205.2442       0.2059       0.2488       2.2547       0.1544       0.0010
   2717.3750   2693.3733  -2668.3733      91.6767      67.8520     482.5661       0.2196       0.2678       2.2217       0.1540       0.0010
   2717.5000   2693.4983  -2668.4983      94.1328      70.5831     807.4271       0.2287       0.2793       2.2020       0.1499       0.0010
