#------------------------------------------------------------------------------
#
#   Created by  : [OpenWorks] Log Export Utility (LEXP)
#   Created on  : 2007-05-07 11:57:11
#   Project     : NORNE
#   User        : JSE
#   Interpreter : JSE
#
#------------------------------------------------------------------------------
~VERSION INFORMATION
VERS. 2.0 : CWLS Log ASCII Standard - version 2.0
WRAP.  NO : One line per depth step
~WELL INFORMATION
#MNEMONIC   .UNIT                                           VALUE :DESCRIPTION
#------------------------------------------------------------------------------
STRT        .M                                          1205.1348 :START DEPTH
STOP        .M                                          4417.7598 :STOP DEPTH
STEP        .M                                             0.1250 :STEP
NULL        .                                           -999.2500 :NULL VALUE
COMP        .                                             STATOIL :COMPANY
WELL        .                                       6608/10-C-2 H :WELL
FLD         .                                               NORNE :FIELD
LOC         .                                             UNKNOWN :LOCATION
CNTY        .                                             UNKNOWN :COUNTY
STAT        .                                             UNKNOWN :STATE
CTRY        .                                              Norway :COUNTRY
SRVC        .                                             UNKNOWN :SERVICE COMPANY
DATE        .                                             UNKNOWN :LOG DATE
UWI         .                                    NO 6608/10-C-2 H :UNIQUE WELL ID
XCOORD      .                                       457185.617758 :SURFACE X
YCOORD      .                                      7322019.729827 :SURFACE Y
LAT         .                                           66.014372 :LATITUDE
LON         .                                            8.056161 :LONGITUDE
ELEV        .M                                            22.0000 :SURFACE ELEV
ELEV_TYPE   .                                                  KB :ELEV TYPE
~CURVE INFORMATION
#MNEMONIC.UNIT        API CODE       : CURVE DESCRIPTION
#------------------------------------------------------------------------------
DEPTH    .M                          : Measured Depth
TVD      .M                          : True Vertical Depth (TVD)
TVDSS    .M                          : True Vertical Depth (TVDSS)
DT       .us/ft       UNKNOWN        : DT:DT:rC::v0 (auto-composite)
DTS      .us/ft       UNKNOWN        : DTS:DTS:rC::v0 (auto-composite)
GR       .API         UNKNOWN        : GR:GR:rC::v0 (auto-composite)
KLOGH    .mD          UNKNOWN        : KLOGH:UNKNOWN:rC:NONE:v1 
NPHI     .v/v_decimal UNKNOWN        : NPHI:NPHI:rC::v0 (auto-composite)
PHIF     .v/v_decimal UNKNOWN        : PHIF:PHIF:rC::v0 (auto-composite)
SW       .v/v_decimal UNKNOWN        : SW:SW:rC::v0 (auto-composite)
VSH      .v/v_decimal UNKNOWN        : VSH:VSH:rC::v0 (auto-composite)
~A     DEPTH         TVD       TVDSS           DT          DTS           GR        KLOGH         NPHI         PHIF           SW          VSH
# ...
   4304.5098   2840.3550  -2818.3550      83.9284     150.1524      85.8090       1.5033       0.2424       0.1392       0.9979       0.3581
   4304.6348   2840.4370  -2818.4370      84.1471     150.9181      87.4713       1.0262       0.2395       0.1296       1.0000       0.3747
   4304.7598   2840.5190  -2818.5190      84.7938     151.8529      89.2717       0.5984       0.2346       0.1175       1.0000       0.3927
   4304.8848   2840.6013  -2818.6013      85.8113     152.9713      91.0588       0.3712       0.2322       0.1079       1.0000       0.4106
   4305.0098   2840.6833  -2818.6833      87.0172     154.2356      92.7894       0.3264       0.2362       0.1051       1.0000       0.4279
   4305.1348   2840.7656  -2818.7656      88.0075     155.4861      94.8014       0.4214       0.2500       0.1108       1.0000       0.4480
   4305.2598   2840.8477  -2818.8477      88.4071     156.4848      90.1870       2.5390       0.2654       0.1448       0.9278       0.4017
   4305.3848   2840.9299  -2818.9299      88.4497     157.2343      87.1268       6.0660       0.2766       0.1681       0.9060       0.3712
   4305.5098   2841.0120  -2819.0120      88.3268     157.7798      88.5152       6.2296       0.2822       0.1682       0.9432       0.3852
   4305.6348   2841.0942  -2819.0942      88.1617     158.1715      93.2720       2.4588       0.2818       0.1487       1.0000       0.4327
   4305.7598   2841.1763  -2819.1763      87.9661     158.4417      95.9905       1.0241       0.2746       0.1306       1.0000       0.4599
   4305.8848   2841.2585  -2819.2585      87.7175     158.4761      93.3100       0.9075       0.2612       0.1279       1.0000       0.4331
   4306.0098   2841.3406  -2819.3406      87.2994     158.2162      88.7168       1.6486       0.2545       0.1397       1.0000       0.3872
   4306.1348   2841.4229  -2819.4229      86.6208     157.6176      80.6046      21.8175       0.2610       0.1786       0.9381       0.3060
   4306.2598   2841.5049  -2819.5049      85.7256     156.6351      71.2781     294.6262       0.2793       0.2342       0.8242       0.2128
   4306.3848   2841.5872  -2819.5872      84.7244     155.2225      64.4967    1142.3628       0.3026       0.2846       0.7104       0.1450
   4306.5098   2841.6692  -2819.6692      83.7177     153.2492      62.7080    2915.3022       0.3180       0.3072       0.6773       0.1271
   4306.6348   2841.7512  -2819.7512      82.5596     150.6692      61.6161    2551.7776       0.3112       0.3048       0.6934       0.1162
   4306.7598   2841.8335  -2819.8335      81.0524     147.7297      61.8575    1297.9497       0.2906       0.2832       0.7555       0.1186
   4306.8848   2841.9155  -2819.9155      79.0383     144.6085      62.4914     338.4184       0.2643       0.2543       0.8469       0.1249
   4307.0098   2841.9978  -2819.9978      76.4624     141.4711      62.7381      86.1522       0.2384       0.2274       0.9372       0.1274
   4307.1348   2842.0798  -2820.0798      73.4002     138.4602      62.4128      31.3197       0.2159       0.2062       0.9890       0.1241
   4307.2598   2842.1621  -2820.1621      70.2034     135.8403      63.4274      10.5146       0.1918       0.1781       0.9984       0.1343
   4307.3848   2842.2441  -2820.2441      67.3050     133.8381      65.0479       3.1268       0.1684       0.1483       1.0000       0.1505
   4307.5098   2842.3264  -2820.3264      64.9515     132.6075      67.5574       0.8625       0.1532       0.1230       1.0000       0.1756
   4307.6348   2842.4084  -2820.4084      63.4584     132.2806      70.0845       0.4123       0.1507       0.1103       1.0000       0.2008
   4307.7598   2842.4907  -2820.4907      63.1616     132.9548      71.9684       0.5141       0.1623       0.1144       1.0000       0.2197
   4307.8848   2842.5728  -2820.5728      64.5343     134.7936      74.2988       0.9101       0.1850       0.1278       1.0000       0.2430
   4308.0098   2842.6550  -2820.6550      67.8557     138.0546      76.2159       2.1315       0.2103       0.1455       1.0000       0.2622
   4308.1348   2842.7371  -2820.7371      72.2583     142.4111      74.6757      12.3491       0.2362       0.1775       1.0000       0.2468
   4308.2598   2842.8193  -2820.8193      77.0927     147.5368      70.9455     109.0563       0.2630       0.2192       1.0000       0.2095
   4308.3848   2842.9014  -2820.9014      81.7277     152.9577      67.3637     436.9230       0.2893       0.2598       0.9835       0.1736
   4308.5098   2842.9834  -2820.9834      85.6160     158.1059      66.4411    1101.4528       0.3119       0.2861       0.9295       0.1644
   4308.6348   2843.0657  -2821.0657      88.2433     162.2544      67.7332    1396.2227       0.3223       0.2914       0.9069       0.1773
   4308.7598   2843.1477  -2821.1477      89.7461     165.2925      67.6108    1430.7803       0.3225       0.2920       0.8910       0.1761
   4308.8848   2843.2300  -2821.2300      90.5401     167.4440      68.0436    1025.6713       0.3151       0.2830       0.9004       0.1804
   4309.0098   2843.3120  -2821.3120      90.9258     168.8546      69.0456     510.9933       0.3028       0.2666       0.9352       0.1905
   4309.1348   2843.3943  -2821.3943      91.1566     169.6662      70.3035     204.7926       0.2887       0.2475       0.9801       0.2030
   4309.2598   2843.4763  -2821.4763      91.4052     170.0051      71.9416      86.1676       0.2770       0.2292       0.9996       0.2195
   4309.3848   2843.5586  -2821.5586      91.7652     170.0563      68.7129     153.9847       0.2764       0.2416       1.0000       0.1871
   4309.5098   2843.6406  -2821.6406      92.1714     170.1018      62.6189     849.1777       0.2829       0.2724       0.9355       0.1262
   4309.6348   2843.7229  -2821.7229      92.5963     170.2243      60.1337    1412.0052       0.2921       0.2916       0.8947       0.1013
   4309.7598   2843.8049  -2821.8049      93.0278     170.4374      61.6784    1535.6185       0.3003       0.2935       0.8960       0.1168
   4309.8848   2843.8872  -2821.8872      93.4652     170.7068      63.5549    1306.7953       0.3040       0.2898       0.9067       0.1355
   4310.0098   2843.9692  -2821.9692      93.9099     170.9997      64.7378     881.1213       0.2999       0.2810       0.9237       0.1474
   4310.1348   2844.0515  -2822.0515      94.3213     171.3687      67.3598     410.0392       0.2900       0.2605       0.9795       0.1736
   4310.2598   2844.1335  -2822.1335      94.6687     171.8822      69.8674     148.8265       0.2762       0.2367       1.0000       0.1987
   4310.3848   2844.2158  -2822.2158      94.9246     172.5489      72.3298      48.4507       0.2630       0.2137       1.0000       0.2233
   4310.5098   2844.2979  -2822.2979      95.0636     173.3326      74.4400      20.2334       0.2549       0.1971       0.9861       0.2444
   4310.6348   2844.3799  -2822.3799      95.0660     174.1450      74.8813      18.8605       0.2551       0.1956       0.9252       0.2488
   4310.7598   2844.4622  -2822.4622      94.9564     174.8732      75.4673      27.4257       0.2655       0.2036       0.8926       0.2547
   4310.8848   2844.5442  -2822.5442      94.8029     175.4658      76.0677      38.2127       0.2752       0.2109       0.8548       0.2607
   4311.0098   2844.6265  -2822.6265      94.5762     175.8715      75.0585      64.6957       0.2818       0.2216       0.8116       0.2506
   4311.1348   2844.7085  -2822.7085      94.2385     176.0088      72.0808     150.4698       0.2863       0.2380       0.7580       0.2208
   4311.2598   2844.7908  -2822.7908      93.7552     175.7803      69.0605     280.5945       0.2908       0.2546       0.7063       0.1906
   4311.3848   2844.8728  -2822.8728      93.1054     175.0221      75.0452     104.9796       0.2924       0.2322       0.7601       0.2505
   4311.5098   2844.9551  -2822.9551      92.4145     173.7180      87.6541      25.5090       0.2888       0.1782       0.9405       0.3765
