#------------------------------------------------------------------------------
#
#   Created by  : [OpenWorks] Log Export Utility (LEXP)
#   Created on  : 2007-05-07 11:56:53
#   Project     : NORNE
#   User        : JSE
#   Interpreter : JSE
#
#------------------------------------------------------------------------------
~VERSION INFORMATION
VERS. 2.0 : CWLS Log ASCII Standard - version 2.0
WRAP.  NO : One line per depth step
~WELL INFORMATION
#MNEMONIC   .UNIT                                           VALUE :DESCRIPTION
#------------------------------------------------------------------------------
STRT        .M                                           450.6626 :START DEPTH
STOP        .M                                          3861.9126 :STOP DEPTH
STEP        .M                                             0.1250 :STEP
NULL        .                                           -999.2500 :NULL VALUE
COMP        .                                             STATOIL :COMPANY
WELL        .                                       6608/10-B-2 H :WELL
FLD         .                                               NORNE :FIELD
LOC         .                                             UNKNOWN :LOCATION
CNTY        .                                             UNKNOWN :COUNTY
STAT        .                                             UNKNOWN :STATE
CTRY        .                                              Norway :COUNTRY
SRVC        .                                             UNKNOWN :SERVICE COMPANY
DATE        .                                             UNKNOWN :LOG DATE
UWI         .                                    NO 6608/10-B-2 H :UNIQUE WELL ID
XCOORD      .                                       457121.854690 :SURFACE X
YCOORD      .                                      7322122.976330 :SURFACE Y
LAT         .                                           66.015290 :LATITUDE
LON         .                                            8.054722 :LONGITUDE
ELEV        .M                                            25.0000 :SURFACE ELEV
ELEV_TYPE   .                                                  KB :ELEV TYPE
~CURVE INFORMATION
#MNEMONIC.UNIT        API CODE       : CURVE DESCRIPTION
#------------------------------------------------------------------------------
DEPTH    .M                          : Measured Depth
TVD      .M                          : True Vertical Depth (TVD)
TVDSS    .M                          : True Vertical Depth (TVDSS)
DT       .us/ft                      : DT:UNKNOWN:rC:NONE:v1 
GR       .API                        : GR:UNKNOWN:rC:NONE:v1 
KLOGH    .mD                         : KLOGH:UNKNOWN:rC:NONE:v1 
NPHI     .v/v_decimal                : NPHI:UNKNOWN:rC:NONE:v1 
PHIF     .v/v_decimal                : PHIF:UNKNOWN:rC:NONE:v1 
RHOB     .g/cm3                      : RHOB:UNKNOWN:rC:NONE:v1 
SW       .v/v_decimal                : SW:UNKNOWN:rC:NONE:v1 
VSH      .v/v_decimal                : VSH:UNKNOWN:rC:NONE:v1 
~A     DEPTH         TVD       TVDSS           DT           GR        KLOGH         NPHI         PHIF         RHOB           SW          VSH
# ...
   3699.6626   2655.3877  -2630.3877     100.6222      59.8610     218.0871       0.2680       0.2410       2.2070       0.1357       0.1676
   3699.7876   2655.3875  -2630.3875     100.0376      49.5526     254.6397       0.2577       0.2459       2.1980       0.1345       0.0521
   3699.9126   2655.3872  -2630.3872      98.2001      50.1699     278.9240       0.2568       0.2489       2.1922       0.1324       0.1378
   3700.0376   2655.3872  -2630.3872      96.9983      52.2366     310.3033       0.2616       0.2523       2.1854       0.1310       0.1497
   3700.1626   2655.3870  -2630.3870      96.8861      51.8596     345.4596       0.2652       0.2558       2.1786       0.1299       0.0778
   3700.2876   2655.3867  -2630.3867      97.4680      49.6177     375.2536       0.2617       0.2585       2.1741       0.1282       0.0452
   3700.4126   2655.3865  -2630.3865      98.5606      50.3037     425.8707       0.2531       0.2626       2.1667       0.1259       0.0616
   3700.5376   2655.3862  -2630.3862      99.9159      53.7927     451.0120       0.2530       0.2645       2.1630       0.1258       0.1034
   3700.6626   2655.3862  -2630.3862      99.8505      50.2071     421.1751       0.2597       0.2622       2.1665       0.1267       0.0613
   3700.7876   2655.3860  -2630.3860      98.4400      48.1364     374.9746       0.2610       0.2585       2.1731       0.1281       0.0369
   3700.9126   2655.3857  -2630.3857      96.7943      52.1552     342.5678       0.2552       0.2556       2.1788       0.1293       0.0842
   3701.0376   2655.3855  -2630.3855      96.8625      57.3696     325.3087       0.2559       0.2539       2.1821       0.1301       0.1455
   3701.1626   2655.3853  -2630.3853      99.1963      51.9302     301.6476       0.2616       0.2515       2.1871       0.1326       0.0815
   3701.2876   2655.3853  -2630.3853     100.5828      50.3994     285.2963       0.2632       0.2497       2.1900       0.1331       0.0635
   3701.4126   2655.3850  -2630.3850     101.4912      45.9622     267.3233       0.2694       0.2475       2.1939       0.1333       0.0313
   3701.5376   2655.3848  -2630.3848     101.8421      43.7215     256.9884       0.2690       0.2463       2.1967       0.1335       0.0136
   3701.6626   2655.3845  -2630.3845     101.4616      49.5234     263.5795       0.2541       0.2471       2.1956       0.1334       0.0532
   3701.7876   2655.3843  -2630.3843     100.5863      54.2389     270.3453       0.2569       0.2479       2.1932       0.1337       0.1087
   3701.9126   2655.3843  -2630.3843      99.8481      56.7867     277.2991       0.2583       0.2488       2.1922       0.1340       0.1387
   3702.0376   2655.3840  -2630.3840      99.2228      55.7186     274.3246       0.2597       0.2484       2.1926       0.1353       0.1261
   3702.1626   2655.3838  -2630.3838      99.6484      53.5324     267.4514       0.2617       0.2476       2.1942       0.1366       0.1063
   3702.2876   2655.3835  -2630.3835     100.7861      53.3357     257.2926       0.2665       0.2463       2.1971       0.1369       0.1094
   3702.4126   2655.3833  -2630.3833     101.0615      57.3576     238.9494       0.2755       0.2440       2.2011       0.1355       0.1450
   3702.5376   2655.3833  -2630.3833     101.0617      56.8382     232.9805       0.2570       0.2431       2.2027       0.1364       0.1316
   3702.6626   2655.3831  -2630.3831     101.0617      60.0837     242.1536       0.2522       0.2444       2.2003       0.1366       0.1747
   3702.7876   2655.3828  -2630.3828     101.0617      60.0614     250.7282       0.2569       0.2455       2.1980       0.1362       0.1570
   3702.9126   2655.3826  -2630.3826     101.0617      59.8829     259.8635       0.2649       0.2467       2.1957       0.1356       0.1483
   3703.0376   2655.3823  -2630.3823     101.0617      62.6210     273.3378       0.2715       0.2483       2.1926       0.1351       0.2044
   3703.1626   2655.3823  -2630.3823     101.0620      62.6210     287.4908       0.2781       0.2499       2.1901       0.1340       0.1880
   3703.2876   2655.3821  -2630.3821     101.0621      57.9321     317.9173       0.2725       0.2531       2.1845       0.1338       0.1479
   3703.4126   2655.3818  -2630.3818     101.0622      56.0267     338.6346       0.2723       0.2552       2.1806       0.1318       0.1441
   3703.5376   2655.3816  -2630.3816     101.0622      55.8287     356.2681       0.2750       0.2569       2.1769       0.1303       0.1409
   3703.6626   2655.3813  -2630.3813     101.1504      57.4216     371.8047       0.2761       0.2582       2.1735       0.1303       0.1536
   3703.7876   2655.3813  -2630.3813     101.4296      61.2978     383.0585       0.2723       0.2592       2.1717       0.1313       0.2197
   3703.9126   2655.3811  -2630.3811     101.5749      60.3065     413.3606       0.2723       0.2617       2.1676       0.1309       0.1834
   3704.0376   2655.3809  -2630.3809     101.7202      57.4248     417.5034       0.2654       0.2620       2.1670       0.1297       0.1462
   3704.1626   2655.3806  -2630.3806     101.9597      53.9554     410.7802       0.2611       0.2615       2.1681       0.1290       0.1054
   3704.2876   2655.3804  -2630.3804     102.1273      52.8107     396.3091       0.2607       0.2603       2.1700       0.1287       0.0919
   3704.4126   2655.3801  -2630.3801     102.0370      54.2546     378.5484       0.2651       0.2588       2.1723       0.1286       0.1089
   3704.5376   2655.3801  -2630.3801     101.5944      52.7640     368.9265       0.2767       0.2580       2.1740       0.1290       0.0913
   3704.6626   2655.3799  -2630.3799     101.1628      56.7668     368.9265       0.2754       0.2580       2.1748       0.1306       0.1384
   3704.7876   2655.3796  -2630.3796     101.0609      52.2741     368.9265       0.2737       0.2580       2.1750       0.1310       0.0856
   3704.9126   2655.3792  -2630.3792     101.0607      54.0465     363.8676       0.2722       0.2575       2.1755       0.1300       0.1064
   3705.0376   2655.3787  -2630.3787     101.0606      59.6076     392.7987       0.2714       0.2597       2.1709       0.1276       0.1718
   3705.1626   2655.3784  -2630.3784     101.0606      58.6188     482.1442       0.2713       0.2666       2.1577       0.1250       0.1603
   3705.2876   2655.3779  -2630.3779     101.0606      61.9722     435.6963       0.2707       0.2634       2.1643       0.1284       0.1997
   3705.4126   2655.3774  -2630.3774     101.0606      57.0570     494.7701       0.2816       0.2674       2.1570       0.1266       0.0605
   3705.5376   2655.3770  -2630.3770     101.0606      53.1126     587.4755       0.2861       0.2729       2.1468       0.1264       0.0455
   3705.6626   2655.3765  -2630.3765     101.0606      53.7302     603.1666       0.2872       0.2738       2.1451       0.1254       0.1116
   3705.7876   2655.3760  -2630.3760     101.0606      57.5581     585.4863       0.2881       0.2725       2.1470       0.1222       0.1671
   3705.9126   2655.3755  -2630.3755     101.0606      57.7100     799.2634       0.2872       0.2830       2.1260       0.1193       0.1495
   3706.0376   2655.3750  -2630.3750     101.0608      56.9589     841.6759       0.2896       0.2847       2.1235       0.1198       0.1884
   3706.1626   2655.3748  -2630.3748     101.0609      65.2901     785.7314       0.2783       0.2824       2.1282       0.1195       0.2586
   3706.2876   2655.3743  -2630.3743     101.0611      71.2975     626.5146       0.2806       0.2744       2.1438       0.1225       0.2350
   3706.4126   2655.3738  -2630.3738     101.0612      71.3757     527.3641       0.2846       0.2693       2.1533       0.1256       0.1990
   3706.5376   2655.3733  -2630.3733     101.0612      67.1693     626.2930       0.2711       0.2751       2.1418       0.1244       0.2634
   3706.6626   2655.3728  -2630.3728     101.0612      64.2680     642.3756       0.2715       0.2759       2.1401       0.1276       0.2482
